{"nextFile":"cities.108.json","rows":[{"geonameid":"759151","name":"Skaryszew","asciiname":"Skaryszew","alternatenames":"Skariseva,Skarishev,Skariševa,Skaryshev,Skaryszew,si ka lei xie fu,sqrysb,Скаришев,Скарышев,סקרישב,斯卡雷謝夫","latitude":"51.31075","longitude":"21.25233","feature_class":"P","feature_code":"PPLA3","country_code":"PL","cc2":"","admin1_code":"78","admin2_code":"1425","admin3_code":"142510","admin4_code":"","population":"4135","elevation":"","dem":"176","timezone":"Europe/Warsaw","modification_date":"2010-10-16"},{"geonameid":"759172","name":"Skalbmierz","asciiname":"Skalbmierz","alternatenames":"Skal'bmezh,Skalbmeza,Skalbmeža,Skalbmierz,Skalbmjezh,si ka er bu mei ri,sqlbmyyz,Скалбмјеж,Скальбмеж,סקלבמייז,斯卡爾布梅日","latitude":"50.31993","longitude":"20.39929","feature_class":"P","feature_code":"PPLA3","country_code":"PL","cc2":"","admin1_code":"84","admin2_code":"2603","admin3_code":"260305","admin4_code":"","population":"1291","elevation":"","dem":"199","timezone":"Europe/Warsaw","modification_date":"2010-10-10"},{"geonameid":"759190","name":"Sitno","asciiname":"Sitno","alternatenames":"","latitude":"50.74944","longitude":"23.3626","feature_class":"P","feature_code":"PPLA3","country_code":"PL","cc2":"","admin1_code":"75","admin2_code":"0620","admin3_code":"062009","admin4_code":"","population":"703","elevation":"","dem":"213","timezone":"Europe/Warsaw","modification_date":"2010-10-14"},{"geonameid":"759194","name":"Osiedle-Nowiny","asciiname":"Osiedle-Nowiny","alternatenames":"Sitkowka,Sitkowka-Nowiny (do 1999),Sitkówka,Sitkówka-Nowiny (do 1999)","latitude":"50.8177","longitude":"20.54117","feature_class":"P","feature_code":"PPLA3","country_code":"PL","cc2":"PL","admin1_code":"84","admin2_code":"2661","admin3_code":"266101","admin4_code":"","population":"2492","elevation":"","dem":"231","timezone":"Europe/Warsaw","modification_date":"2012-11-23"},{"geonameid":"759234","name":"Sietesz","asciiname":"Sietesz","alternatenames":"","latitude":"49.98622","longitude":"22.34671","feature_class":"P","feature_code":"PPL","country_code":"PL","cc2":"","admin1_code":"80","admin2_code":"1814","admin3_code":"181405","admin4_code":"","population":"1800","elevation":"","dem":"261","timezone":"Europe/Warsaw","modification_date":"2010-10-13"},{"geonameid":"759266","name":"Sieradza","asciiname":"Sieradza","alternatenames":"","latitude":"50.13499","longitude":"20.92947","feature_class":"P","feature_code":"PPL","country_code":"PL","cc2":"","admin1_code":"77","admin2_code":"1216","admin3_code":"121615","admin4_code":"","population":"1143","elevation":"","dem":"190","timezone":"Europe/Warsaw","modification_date":"2010-10-17"},{"geonameid":"759275","name":"Sienno","asciiname":"Sienno","alternatenames":"Comuna de Sienno,Gmina Senno,Gmina Sienno,Senno,Сенно,Ґміна Сенно","latitude":"51.08773","longitude":"21.48325","feature_class":"P","feature_code":"PPLA3","country_code":"PL","cc2":"","admin1_code":"78","admin2_code":"1409","admin3_code":"140905","admin4_code":"","population":"750","elevation":"","dem":"190","timezone":"Europe/Warsaw","modification_date":"2010-09-17"},{"geonameid":"759282","name":"Siennica","asciiname":"Siennica","alternatenames":"Comuna de Siennica,Gmina Sennicja,Gmina Siennica,Sennica,Siennica,Сенница,Ґміна Сенниця","latitude":"52.09164","longitude":"21.61921","feature_class":"P","feature_code":"PPLA3","country_code":"PL","cc2":"","admin1_code":"78","admin2_code":"1412","admin3_code":"141213","admin4_code":"","population":"2600","elevation":"","dem":"144","timezone":"Europe/Warsaw","modification_date":"2010-10-15"},{"geonameid":"759301","name":"Sieniawa","asciiname":"Sieniawa","alternatenames":"Senava,Senjava,Seņava,Shenjava,Sieniawa,Sjenava,xie ni ya wa,Сенява,Сјењава,Шенява,שינאווא,שיניאווה,谢尼亚瓦","latitude":"50.1779","longitude":"22.60954","feature_class":"P","feature_code":"PPLA3","country_code":"PL","cc2":"","admin1_code":"80","admin2_code":"1814","admin3_code":"181407","admin4_code":"","population":"2182","elevation":"","dem":"176","timezone":"Europe/Warsaw","modification_date":"2010-09-25"},{"geonameid":"759302","name":"Sieniawa","asciiname":"Sieniawa","alternatenames":"","latitude":"49.56508","longitude":"21.92785","feature_class":"P","feature_code":"PPL","country_code":"PL","cc2":"","admin1_code":"80","admin2_code":"1807","admin3_code":"180708","admin4_code":"","population":"1078","elevation":"","dem":"341","timezone":"Europe/Warsaw","modification_date":"2010-09-25"},{"geonameid":"759316","name":"Siemień","asciiname":"Siemien","alternatenames":"","latitude":"51.62883","longitude":"22.77243","feature_class":"P","feature_code":"PPLA3","country_code":"PL","cc2":"","admin1_code":"75","admin2_code":"0613","admin3_code":"061306","admin4_code":"","population":"581","elevation":"","dem":"142","timezone":"Europe/Warsaw","modification_date":"2010-10-16"},{"geonameid":"759317","name":"Siemiechów","asciiname":"Siemiechow","alternatenames":"","latitude":"49.85359","longitude":"20.90595","feature_class":"P","feature_code":"PPL","country_code":"PL","cc2":"","admin1_code":"77","admin2_code":"1216","admin3_code":"121602","admin4_code":"","population":"1890","elevation":"","dem":"254","timezone":"Europe/Warsaw","modification_date":"2010-10-17"},{"geonameid":"759320","name":"Siemiatycze","asciiname":"Siemiatycze","alternatenames":"Gorad Semjatychy,Semiatice,Semiatičė,Semjatice,Semjatiče,Semjatyche,Semyatichi,Shemjatiche,Siemiatycze,Simjatichi,Sjemjatiche,smyʼtyz,xie mi ya di qie,Горад Семятычы,Семятыче,Сімятичі,Сјемјатиче,Шемятиче,סמיאטיץ,謝米亞蒂切","latitude":"52.42719","longitude":"22.86231","feature_class":"P","feature_code":"PPLA3","country_code":"PL","cc2":"","admin1_code":"81","admin2_code":"2010","admin3_code":"201001","admin4_code":"","population":"15421","elevation":"","dem":"147","timezone":"Europe/Warsaw","modification_date":"2011-07-31"},{"geonameid":"759325","name":"Siemiątkowo","asciiname":"Siemiatkowo","alternatenames":"Comuna de Siemiatkowo,Comuna de Siemiątkowo,Gmina Sem'ontkovo,Gmina Siemiatkowo,Gmina Siemiątkowo,Semjontkovo,Siemiatkowo Koziebrodzkie,Siemiątkowo Koziebrodzkie,Семёнтково,Ґміна Семьонтково","latitude":"52.8811","longitude":"20.02893","feature_class":"P","feature_code":"PPLA3","country_code":"PL","cc2":"","admin1_code":"78","admin2_code":"1437","admin3_code":"143705","admin4_code":"","population":"432","elevation":"","dem":"116","timezone":"Europe/Warsaw","modification_date":"2010-09-19"},{"geonameid":"759398","name":"Siedliska","asciiname":"Siedliska","alternatenames":"","latitude":"49.95409","longitude":"21.94742","feature_class":"P","feature_code":"PPL","country_code":"PL","cc2":"","admin1_code":"80","admin2_code":"1816","admin3_code":"181610","admin4_code":"","population":"1700","elevation":"","dem":"210","timezone":"Europe/Warsaw","modification_date":"2010-10-20"},{"geonameid":"759399","name":"Siedliska","asciiname":"Siedliska","alternatenames":"","latitude":"49.87163","longitude":"20.99625","feature_class":"P","feature_code":"PPL","country_code":"PL","cc2":"","admin1_code":"77","admin2_code":"1216","admin3_code":"121610","admin4_code":"","population":"2351","elevation":"","dem":"241","timezone":"Europe/Warsaw","modification_date":"2010-10-20"},{"geonameid":"759409","name":"Siedleczka","asciiname":"Siedleczka","alternatenames":"","latitude":"49.96061","longitude":"22.37949","feature_class":"P","feature_code":"PPL","country_code":"PL","cc2":"","admin1_code":"80","admin2_code":"1814","admin3_code":"181405","admin4_code":"","population":"1152","elevation":"","dem":"215","timezone":"Europe/Warsaw","modification_date":"2010-10-13"},{"geonameid":"759412","name":"Siedlce","asciiname":"Siedlce","alternatenames":"Gorad Sedl'cy,Sedl'ce,Sedl'tse,Sedlce,Sedlcos,Shedulce,Siedlce,Sjedlice,sdlyz,siedeulche,xie de er cai,Горад Седльцы,Седльце,Сједлице,Шедълце,שדליץ,שעדליץ,謝德爾采,시에들체","latitude":"52.16772","longitude":"22.29006","feature_class":"P","feature_code":"PPL","country_code":"PL","cc2":"","admin1_code":"78","admin2_code":"1464","admin3_code":"146401","admin4_code":"","population":"77185","elevation":"155","dem":"150","timezone":"Europe/Warsaw","modification_date":"2013-11-05"},{"geonameid":"759466","name":"Serokomla","asciiname":"Serokomla","alternatenames":"","latitude":"51.7007","longitude":"22.33237","feature_class":"P","feature_code":"PPL","country_code":"PL","cc2":"","admin1_code":"75","admin2_code":"0611","admin3_code":"061106","admin4_code":"","population":"1060","elevation":"","dem":"151","timezone":"Europe/Warsaw","modification_date":"2010-09-09"},{"geonameid":"759470","name":"Serock","asciiname":"Serock","alternatenames":"Seroc'k,Serock,Serocka,Serockas,sai luo ci ke,srwzq,Сероцк,Сероцьк,סרוצק,塞羅茨克","latitude":"52.51036","longitude":"21.0691","feature_class":"P","feature_code":"PPLA3","country_code":"PL","cc2":"","admin1_code":"78","admin2_code":"1408","admin3_code":"140804","admin4_code":"","population":"4023","elevation":"","dem":"112","timezone":"Europe/Warsaw","modification_date":"2014-06-26"},{"geonameid":"759472","name":"Serniki","asciiname":"Serniki","alternatenames":"Serniki,Syrniki","latitude":"51.43716","longitude":"22.65853","feature_class":"P","feature_code":"PPLA3","country_code":"PL","cc2":"PL","admin1_code":"75","admin2_code":"0608","admin3_code":"060812","admin4_code":"","population":"382","elevation":"","dem":"150","timezone":"Europe/Warsaw","modification_date":"2010-10-16"},{"geonameid":"759482","name":"Sępopol","asciiname":"Sepopol","alternatenames":"Gorad Sempopal',Schippenbeil,Sempopol',Sempopole,Senpopol,Sepopol,Szepopel,Szępopel,Sępopol,sen bo bo er,Горад Семпопаль,Семпополь,Сенпопол,森波波爾","latitude":"54.26903","longitude":"21.01453","feature_class":"P","feature_code":"PPLA3","country_code":"PL","cc2":"PL","admin1_code":"85","admin2_code":"2801","admin3_code":"280106","admin4_code":"","population":"2043","elevation":"","dem":"32","timezone":"Europe/Warsaw","modification_date":"2011-07-31"},{"geonameid":"759495","name":"Sękowa","asciiname":"Sekowa","alternatenames":"","latitude":"49.62217","longitude":"21.19769","feature_class":"P","feature_code":"PPL","country_code":"PL","cc2":"","admin1_code":"77","admin2_code":"1205","admin3_code":"120509","admin4_code":"","population":"1477","elevation":"","dem":"315","timezone":"Europe/Warsaw","modification_date":"2010-09-11"},{"geonameid":"759503","name":"Sejny","asciiname":"Sejny","alternatenames":"Seinai,Sejny,Сейны","latitude":"54.10802","longitude":"23.34698","feature_class":"P","feature_code":"PPLA3","country_code":"PL","cc2":"","admin1_code":"81","admin2_code":"2009","admin3_code":"200901","admin4_code":"","population":"5872","elevation":"","dem":"136","timezone":"Europe/Warsaw","modification_date":"2011-07-31"},{"geonameid":"759504","name":"Sędziszów Małopolski","asciiname":"Sedziszow Malopolski","alternatenames":"Sedziszow Malopolski,Sendzhishov Malopolski,Sendzishuv-Malopol's'kij,Sendzishuv-Malopol'ski,Sendzisova Malopolska,Seziszow,Seņdzišova Malopolska,Sędziszów Małopolski,Sęziszów,xiao bo lan de qu sen ji shu fu,Сенджишов Малополски,Сендзишув-Малопольски,Сендзішув-Малопольський,Сенђишов Малополски,小波蘭地區森濟舒夫","latitude":"50.07069","longitude":"21.70062","feature_class":"P","feature_code":"PPLA3","country_code":"PL","cc2":"PL","admin1_code":"80","admin2_code":"1815","admin3_code":"181504","admin4_code":"","population":"7096","elevation":"","dem":"220","timezone":"Europe/Warsaw","modification_date":"2010-10-01"},{"geonameid":"759507","name":"Sędziszów","asciiname":"Sedziszow","alternatenames":"Sedziszow,Sendzishuv,Sendzisova,Seņdzišova,Sędziszów,sen ji shu fu,sndzyswb,Сендзишув,Сендзішув,Сенђишов,סנדזישוב,森濟舒夫","latitude":"50.5659","longitude":"20.05563","feature_class":"P","feature_code":"PPLA3","country_code":"PL","cc2":"","admin1_code":"84","admin2_code":"2602","admin3_code":"260206","admin4_code":"","population":"6771","elevation":"","dem":"253","timezone":"Europe/Warsaw","modification_date":"2010-10-13"},{"geonameid":"759534","name":"Sawin","asciiname":"Sawin","alternatenames":"Comuna de Sawin,Gmina Savin,Gmina Sawin,Savin,Савин,Ґміна Савін","latitude":"51.27443","longitude":"23.43375","feature_class":"P","feature_code":"PPL","country_code":"PL","cc2":"","admin1_code":"75","admin2_code":"0603","admin3_code":"060310","admin4_code":"","population":"2181","elevation":"","dem":"179","timezone":"Europe/Warsaw","modification_date":"2010-09-09"},{"geonameid":"759579","name":"Sarnaki","asciiname":"Sarnaki","alternatenames":"Comuna de Sarnaki,Gmina Sarnaki,Sarnaki,Sarnaku valscius,Sarnakų valsčius,Сарнаки,Ґміна Сарнакі","latitude":"52.31504","longitude":"22.89044","feature_class":"P","feature_code":"PPL","country_code":"PL","cc2":"","admin1_code":"78","admin2_code":"1410","admin3_code":"141005","admin4_code":"","population":"1194","elevation":"","dem":"141","timezone":"Europe/Warsaw","modification_date":"2010-09-05"},{"geonameid":"759591","name":"Sanok","asciiname":"Sanok","alternatenames":"Sanocum,Sanok,Sanoka,Sanokas,Sjanik,Sunok,Sánók,sa nuo ke,sanokeu,sanoku,Санок,Сянік,Սանոկ,סאנוק,סאניק,სანოკი,サノク,萨诺克,사노크","latitude":"49.55573","longitude":"22.2056","feature_class":"P","feature_code":"PPLA2","country_code":"PL","cc2":"","admin1_code":"80","admin2_code":"1817","admin3_code":"181701","admin4_code":"","population":"39684","elevation":"","dem":"289","timezone":"Europe/Warsaw","modification_date":"2010-09-24"},{"geonameid":"759603","name":"Sandomierz","asciiname":"Sandomierz","alternatenames":"Gorad Sandomezh,Sandomer,Sandomeza,Sandomezh,Sandomeža,Sandomieras,Sandomierz,Sandomir,Sandomiria,Sandomjezh,Sandoměř,Sandumjyrz,Sandůmjyrz,sandomiesi,sandomiri,sang duo mei ri,sndwmyyz,Горад Сандомеж,Сандомеж,Сандомир,Сандомјеж,סנדומייז,სანდომირი,桑多梅日,산도미에시","latitude":"50.68265","longitude":"21.74898","feature_class":"P","feature_code":"PPLA2","country_code":"PL","cc2":"","admin1_code":"84","admin2_code":"2609","admin3_code":"260901","admin4_code":"","population":"25087","elevation":"","dem":"185","timezone":"Europe/Warsaw","modification_date":"2010-09-27"},{"geonameid":"759631","name":"Samborzec","asciiname":"Samborzec","alternatenames":"","latitude":"50.64663","longitude":"21.64822","feature_class":"P","feature_code":"PPLA3","country_code":"PL","cc2":"","admin1_code":"84","admin2_code":"2609","admin3_code":"260907","admin4_code":"","population":"475","elevation":"","dem":"152","timezone":"Europe/Warsaw","modification_date":"2010-09-27"},{"geonameid":"759678","name":"Sadowne","asciiname":"Sadowne","alternatenames":"Comuna de Sadowne,Gmina Sadovne,Gmina Sadowne,Sadovne,Sadovnes valscius,Sadovnės valsčius,Садовне,Ґміна Садовне","latitude":"52.64124","longitude":"21.84563","feature_class":"P","feature_code":"PPLA3","country_code":"PL","cc2":"","admin1_code":"78","admin2_code":"1433","admin3_code":"143307","admin4_code":"","population":"1200","elevation":"","dem":"97","timezone":"Europe/Warsaw","modification_date":"2010-09-18"},{"geonameid":"759680","name":"Sadowie","asciiname":"Sadowie","alternatenames":"Comuna de Sadowie,Gmina Sadove,Gmina Sadowie,Sadove,Садове,Ґміна Садове","latitude":"50.85261","longitude":"21.36884","feature_class":"P","feature_code":"PPLA3","country_code":"PL","cc2":"","admin1_code":"84","admin2_code":"2606","admin3_code":"260606","admin4_code":"","population":"600","elevation":"","dem":"265","timezone":"Europe/Warsaw","modification_date":"2010-09-26"},{"geonameid":"759689","name":"Sadkowice","asciiname":"Sadkowice","alternatenames":"Comuna de Sadkowice,Gmina Sadkovice,Gmina Sadkowice,Sadkovice,Садковице,Ґміна Садковіце","latitude":"51.72517","longitude":"20.51465","feature_class":"P","feature_code":"PPLA3","country_code":"PL","cc2":"","admin1_code":"74","admin2_code":"1013","admin3_code":"101306","admin4_code":"","population":"570","elevation":"","dem":"165","timezone":"Europe/Warsaw","modification_date":"2010-10-01"},{"geonameid":"759704","name":"Sabnie","asciiname":"Sabnie","alternatenames":"Comuna de Sabnie,Gmina Sabne,Gmina Sabnie,Sabne,Sabniu valscius,Sabnių valsčius,Сабне,Ґміна Сабне","latitude":"52.50097","longitude":"22.30697","feature_class":"P","feature_code":"PPLA3","country_code":"PL","cc2":"","admin1_code":"78","admin2_code":"1429","admin3_code":"142907","admin4_code":"","population":"369","elevation":"","dem":"131","timezone":"Europe/Warsaw","modification_date":"2013-07-14"},{"geonameid":"759722","name":"Rzezawa","asciiname":"Rzezawa","alternatenames":"Rzczawa,Rzezawa","latitude":"49.98997","longitude":"20.51508","feature_class":"P","feature_code":"PPLA3","country_code":"PL","cc2":"PL","admin1_code":"77","admin2_code":"1201","admin3_code":"120107","admin4_code":"","population":"2500","elevation":"","dem":"206","timezone":"Europe/Warsaw","modification_date":"2010-10-17"},{"geonameid":"759726","name":"Rzewnie","asciiname":"Rzewnie","alternatenames":"","latitude":"52.83508","longitude":"21.33682","feature_class":"P","feature_code":"PPLA3","country_code":"PL","cc2":"","admin1_code":"78","admin2_code":"1411","admin3_code":"141108","admin4_code":"","population":"293","elevation":"","dem":"91","timezone":"Europe/Warsaw","modification_date":"2010-09-18"},{"geonameid":"759734","name":"Rzeszów","asciiname":"Rzeszow","alternatenames":"Gorad Zhehshau,Jesuv,Jeşuv,RZE,Reichshof,Resov,Resovia,Rjashiv,Rzeszow,Rzeszuw,Rzeszów,Rzeszůw,Zesova,Zesuv,Zesuvas,Zheshev,Zheshov,Zheshuv,che chuf,jeshufu,jesyupeu,jyshwf,re shu fu,zhshwf,zswb,Řešov,Žešova,Žešuv,Žešuvas,Горад Жэшаў,Жешов,Жешув,Ряшів,זשוב,ריישע,جيشوف,ژشوف,เชชูฟ,ジェシュフ,热舒夫,제슈프","latitude":"50.04132","longitude":"21.99901","feature_class":"P","feature_code":"PPLA","country_code":"PL","cc2":"","admin1_code":"80","admin2_code":"1863","admin3_code":"186301","admin4_code":"","population":"158382","elevation":"","dem":"209","timezone":"Europe/Warsaw","modification_date":"2010-10-13"},{"geonameid":"759751","name":"Rzepiennik Strzyżewski","asciiname":"Rzepiennik Strzyzewski","alternatenames":"Rzepiennik,Rzepiennik Strzyzewski,Rzepiennik Strzyżewski,Rżepiennik","latitude":"49.80542","longitude":"21.03599","feature_class":"P","feature_code":"PPLA3","country_code":"PL","cc2":"PL","admin1_code":"77","admin2_code":"1216","admin3_code":"121607","admin4_code":"","population":"1324","elevation":"","dem":"250","timezone":"Europe/Warsaw","modification_date":"2010-09-16"},{"geonameid":"759754","name":"Rzepedź","asciiname":"Rzepedz","alternatenames":"","latitude":"49.36997","longitude":"22.11174","feature_class":"P","feature_code":"PPL","country_code":"PL","cc2":"","admin1_code":"80","admin2_code":"1817","admin3_code":"181704","admin4_code":"","population":"1400","elevation":"","dem":"422","timezone":"Europe/Warsaw","modification_date":"2010-11-28"},{"geonameid":"759757","name":"Rzekuń","asciiname":"Rzekun","alternatenames":"Rzekun,Rzekuń,Zhekun',Жекунь","latitude":"53.04756","longitude":"21.62069","feature_class":"P","feature_code":"PPLA3","country_code":"PL","cc2":"","admin1_code":"78","admin2_code":"1415","admin3_code":"141510","admin4_code":"","population":"1800","elevation":"","dem":"104","timezone":"Europe/Warsaw","modification_date":"2010-09-18"},{"geonameid":"759778","name":"Rzeczyca","asciiname":"Rzeczyca","alternatenames":"","latitude":"51.96225","longitude":"22.74942","feature_class":"P","feature_code":"PPL","country_code":"PL","cc2":"","admin1_code":"75","admin2_code":"0601","admin3_code":"060110","admin4_code":"","population":"1500","elevation":"","dem":"148","timezone":"Europe/Warsaw","modification_date":"2010-10-19"},{"geonameid":"759779","name":"Rzeczyca","asciiname":"Rzeczyca","alternatenames":"Comuna de Rzeczyca,Gmina Rzeczyca,Gmina Zhechicja,Zhechica,Жечица,Ґміна Жечиця","latitude":"51.59824","longitude":"20.29484","feature_class":"P","feature_code":"PPLA3","country_code":"PL","cc2":"","admin1_code":"74","admin2_code":"1016","admin3_code":"101608","admin4_code":"","population":"1589","elevation":"","dem":"164","timezone":"Europe/Warsaw","modification_date":"2010-10-15"},{"geonameid":"759786","name":"Rzeczniów","asciiname":"Rzeczniow","alternatenames":"","latitude":"51.12804","longitude":"21.44008","feature_class":"P","feature_code":"PPLA3","country_code":"PL","cc2":"","admin1_code":"78","admin2_code":"1409","admin3_code":"140904","admin4_code":"","population":"673","elevation":"","dem":"182","timezone":"Europe/Warsaw","modification_date":"2010-09-17"},{"geonameid":"759802","name":"Rząśnik","asciiname":"Rzasnik","alternatenames":"","latitude":"52.71332","longitude":"21.36772","feature_class":"P","feature_code":"PPL","country_code":"PL","cc2":"","admin1_code":"78","admin2_code":"1435","admin3_code":"143503","admin4_code":"","population":"1600","elevation":"","dem":"104","timezone":"Europe/Warsaw","modification_date":"2010-09-12"},{"geonameid":"759814","name":"Rytwiany","asciiname":"Rytwiany","alternatenames":"","latitude":"50.5292","longitude":"21.20636","feature_class":"P","feature_code":"PPLA3","country_code":"PL","cc2":"","admin1_code":"84","admin2_code":"2612","admin3_code":"261206","admin4_code":"","population":"1821","elevation":"","dem":"180","timezone":"Europe/Warsaw","modification_date":"2010-09-30"},{"geonameid":"759815","name":"Rytro","asciiname":"Rytro","alternatenames":"","latitude":"49.48904","longitude":"20.66631","feature_class":"P","feature_code":"PPL","country_code":"PL","cc2":"","admin1_code":"77","admin2_code":"1210","admin3_code":"121015","admin4_code":"","population":"3700","elevation":"","dem":"377","timezone":"Europe/Warsaw","modification_date":"2010-09-11"},{"geonameid":"759839","name":"Ryn","asciiname":"Ryn","alternatenames":"Rhein,Rin,Rina,Ryn,Rynas,lei en,Рин,Рын,雷恩","latitude":"53.9377","longitude":"21.54642","feature_class":"P","feature_code":"PPLA3","country_code":"PL","cc2":"PL","admin1_code":"85","admin2_code":"2806","admin3_code":"280608","admin4_code":"","population":"2992","elevation":"","dem":"124","timezone":"Europe/Warsaw","modification_date":"2011-07-31"},{"geonameid":"759843","name":"Rymanów","asciiname":"Rymanow","alternatenames":"Rimaniv,Rimanov,Rimanova,Rymanuv,lei ma nu fu,rymanwf,rymnwb,Риманов,Риманів,Рыманув,רימאנאוו,רימנוב,ریمانوف,雷馬努夫","latitude":"49.57649","longitude":"21.86811","feature_class":"P","feature_code":"PPLA3","country_code":"PL","cc2":"","admin1_code":"80","admin2_code":"1807","admin3_code":"180708","admin4_code":"","population":"3583","elevation":"","dem":"343","timezone":"Europe/Warsaw","modification_date":"2010-09-25"},{"geonameid":"759852","name":"Ryki","asciiname":"Ryki","alternatenames":"Riki,Ryki,lei ji,ryqy,Рики,Рыки,ריקי,雷基","latitude":"51.62574","longitude":"21.93274","feature_class":"P","feature_code":"PPLA2","country_code":"PL","cc2":"","admin1_code":"75","admin2_code":"0616","admin3_code":"061604","admin4_code":"","population":"9619","elevation":"","dem":"149","timezone":"Europe/Warsaw","modification_date":"2010-09-27"},{"geonameid":"759859","name":"Ryglice","asciiname":"Ryglice","alternatenames":"Ryglice","latitude":"49.87887","longitude":"21.13748","feature_class":"P","feature_code":"PPLA3","country_code":"PL","cc2":"","admin1_code":"77","admin2_code":"1216","admin3_code":"121606","admin4_code":"","population":"2802","elevation":"","dem":"241","timezone":"Europe/Warsaw","modification_date":"2010-09-16"},{"geonameid":"759875","name":"Ryczywół","asciiname":"Ryczywol","alternatenames":"Ryczymol,Ryczymół,Ryczywol,Ryczywół","latitude":"51.69118","longitude":"21.42197","feature_class":"P","feature_code":"PPL","country_code":"PL","cc2":"PL","admin1_code":"78","admin2_code":"1407","admin3_code":"140705","admin4_code":"","population":"1300","elevation":"","dem":"105","timezone":"Europe/Warsaw","modification_date":"2010-10-30"},{"geonameid":"759895","name":"Rybno","asciiname":"Rybno","alternatenames":"Rybno,Рыбно","latitude":"52.24278","longitude":"20.10301","feature_class":"P","feature_code":"PPLA3","country_code":"PL","cc2":"","admin1_code":"78","admin2_code":"1428","admin3_code":"142806","admin4_code":"","population":"607","elevation":"","dem":"87","timezone":"Europe/Warsaw","modification_date":"2011-07-31"},{"geonameid":"759915","name":"Rybie","asciiname":"Rybie","alternatenames":"","latitude":"52.15229","longitude":"20.93655","feature_class":"P","feature_code":"PPL","country_code":"PL","cc2":"","admin1_code":"78","admin2_code":"1421","admin3_code":"142106","admin4_code":"","population":"4100","elevation":"","dem":"103","timezone":"Europe/Warsaw","modification_date":"2010-10-28"},{"geonameid":"759922","name":"Rybczewice","asciiname":"Rybczewice","alternatenames":"","latitude":"51.02876","longitude":"22.85053","feature_class":"P","feature_code":"PPLA3","country_code":"PL","cc2":"","admin1_code":"75","admin2_code":"0617","admin3_code":"061704","admin4_code":"","population":"840","elevation":"","dem":"216","timezone":"Europe/Warsaw","modification_date":"2010-10-16"},{"geonameid":"759946","name":"Rutki","asciiname":"Rutki","alternatenames":"Rutki,Рутки","latitude":"53.1","longitude":"22.43333","feature_class":"P","feature_code":"PPLA3","country_code":"PL","cc2":"","admin1_code":"81","admin2_code":"2014","admin3_code":"201403","admin4_code":"","population":"0","elevation":"","dem":"117","timezone":"Europe/Warsaw","modification_date":"2011-07-31"},{"geonameid":"759981","name":"Rusinów","asciiname":"Rusinow","alternatenames":"","latitude":"51.43678","longitude":"20.58701","feature_class":"P","feature_code":"PPLA3","country_code":"PL","cc2":"","admin1_code":"78","admin2_code":"1423","admin3_code":"142307","admin4_code":"","population":"751","elevation":"","dem":"170","timezone":"Europe/Warsaw","modification_date":"2010-09-19"},{"geonameid":"760054","name":"Rudnik","asciiname":"Rudnik","alternatenames":"","latitude":"50.88035","longitude":"22.97293","feature_class":"P","feature_code":"PPLA3","country_code":"PL","cc2":"","admin1_code":"75","admin2_code":"0606","admin3_code":"060609","admin4_code":"","population":"543","elevation":"","dem":"228","timezone":"Europe/Warsaw","modification_date":"2010-10-16"},{"geonameid":"760055","name":"Rudnik nad Sanem","asciiname":"Rudnik nad Sanem","alternatenames":"Rudnik nad Sanem,Rudnik-nad-Sanem,Rudnik-nad-Sjanom,Rudnika pie Sanas,Rudņika pie Sanas,rwdnyq,sang he pan lu de ni ke,Рудник над Санем,Рудник-над-Санем,Рудник-над-Сяном,רודניק,רודניק על נהר סן,桑河畔鲁德尼克","latitude":"50.44152","longitude":"22.24856","feature_class":"P","feature_code":"PPLA3","country_code":"PL","cc2":"","admin1_code":"80","admin2_code":"1812","admin3_code":"181206","admin4_code":"","population":"6770","elevation":"","dem":"166","timezone":"Europe/Warsaw","modification_date":"2010-09-20"},{"geonameid":"760062","name":"Rudna Wielka","asciiname":"Rudna Wielka","alternatenames":"","latitude":"50.08799","longitude":"21.94759","feature_class":"P","feature_code":"PPL","country_code":"PL","cc2":"","admin1_code":"80","admin2_code":"1816","admin3_code":"181612","admin4_code":"","population":"1318","elevation":"","dem":"203","timezone":"Europe/Warsaw","modification_date":"2010-09-10"},{"geonameid":"760063","name":"Rudna Mała","asciiname":"Rudna Mala","alternatenames":"","latitude":"50.09889","longitude":"21.96021","feature_class":"P","feature_code":"PPL","country_code":"PL","cc2":"","admin1_code":"80","admin2_code":"1816","admin3_code":"181606","admin4_code":"","population":"1023","elevation":"","dem":"205","timezone":"Europe/Warsaw","modification_date":"2010-09-10"},{"geonameid":"760084","name":"Rudka","asciiname":"Rudka","alternatenames":"Comuna Rudka,Comuna de Rudka,Gmina Rudka,Rudka,Rudkos valscius,Rudkos valsčius,Рудка,Ґміна Рудка","latitude":"52.72439","longitude":"22.72676","feature_class":"P","feature_code":"PPL","country_code":"PL","cc2":"","admin1_code":"81","admin2_code":"2003","admin3_code":"200307","admin4_code":"","population":"1400","elevation":"","dem":"136","timezone":"Europe/Warsaw","modification_date":"2010-09-05"},{"geonameid":"760123","name":"Ruda Maleniecka","asciiname":"Ruda Maleniecka","alternatenames":"","latitude":"51.14592","longitude":"20.22377","feature_class":"P","feature_code":"PPLA3","country_code":"PL","cc2":"","admin1_code":"84","admin2_code":"2605","admin3_code":"260505","admin4_code":"","population":"610","elevation":"","dem":"217","timezone":"Europe/Warsaw","modification_date":"2010-10-06"},{"geonameid":"760166","name":"Ruciane-Nida","asciiname":"Ruciane-Nida","alternatenames":"Nida,Nidy,Nieden,Niedersee,Rucane-NJida,Ruchane-Nida,Ruciane,Ruciany,Rucjane-Nida,Rucjane-Ņida,Rudczanny,Rudczany,lu qia nei ni da,Руцяне-Нида,Ручане-Нида,Рућане-Њида,魯恰內尼達","latitude":"53.64161","longitude":"21.53964","feature_class":"P","feature_code":"PPLA3","country_code":"PL","cc2":"PL","admin1_code":"85","admin2_code":"2816","admin3_code":"281604","admin4_code":"","population":"4722","elevation":"","dem":"131","timezone":"Europe/Warsaw","modification_date":"2010-10-28"},{"geonameid":"760203","name":"Rozogi","asciiname":"Rozogi","alternatenames":"Friedrichshof,Rozogi,Розоги","latitude":"53.48549","longitude":"21.36223","feature_class":"P","feature_code":"PPL","country_code":"PL","cc2":"","admin1_code":"85","admin2_code":"2817","admin3_code":"281705","admin4_code":"","population":"1418","elevation":"","dem":"130","timezone":"Europe/Warsaw","modification_date":"2010-09-09"},{"geonameid":"760237","name":"Rozbórz","asciiname":"Rozborz","alternatenames":"","latitude":"50.05615","longitude":"22.54686","feature_class":"P","feature_code":"PPL","country_code":"PL","cc2":"","admin1_code":"80","admin2_code":"1814","admin3_code":"181406","admin4_code":"","population":"2005","elevation":"","dem":"203","timezone":"Europe/Warsaw","modification_date":"2010-10-13"},{"geonameid":"760254","name":"Siennica Różana","asciiname":"Siennica Rozana","alternatenames":"Rozana,Różana,Siennica Rozana,Siennica Różana","latitude":"51.00123","longitude":"23.3226","feature_class":"P","feature_code":"PPLA3","country_code":"PL","cc2":"PL","admin1_code":"75","admin2_code":"0606","admin3_code":"060610","admin4_code":"","population":"1000","elevation":"","dem":"194","timezone":"Europe/Warsaw","modification_date":"2010-10-16"},{"geonameid":"760255","name":"Różan","asciiname":"Rozan","alternatenames":"Rozan,Różan","latitude":"52.88757","longitude":"21.39105","feature_class":"P","feature_code":"PPLA3","country_code":"PL","cc2":"","admin1_code":"78","admin2_code":"1411","admin3_code":"141107","admin4_code":"","population":"2619","elevation":"","dem":"116","timezone":"Europe/Warsaw","modification_date":"2010-09-18"},{"geonameid":"760308","name":"Rossosz","asciiname":"Rossosz","alternatenames":"","latitude":"51.85836","longitude":"23.1374","feature_class":"P","feature_code":"PPLA3","country_code":"PL","cc2":"","admin1_code":"75","admin2_code":"0601","admin3_code":"060113","admin4_code":"","population":"0","elevation":"","dem":"145","timezone":"Europe/Warsaw","modification_date":"2011-07-31"},{"geonameid":"760343","name":"Ropczyce","asciiname":"Ropczyce","alternatenames":"Ropchice,Ropcice,Ropczyce,Ropčice,luo pu qi cai,rwpsyz,Ропчице,ראפשיץ,רופשיץ,羅普奇采","latitude":"50.05229","longitude":"21.60891","feature_class":"P","feature_code":"PPLA2","country_code":"PL","cc2":"","admin1_code":"80","admin2_code":"1815","admin3_code":"181503","admin4_code":"","population":"15279","elevation":"","dem":"210","timezone":"Europe/Warsaw","modification_date":"2010-10-01"},{"geonameid":"760347","name":"Ropa","asciiname":"Ropa","alternatenames":"","latitude":"49.59146","longitude":"21.04431","feature_class":"P","feature_code":"PPL","country_code":"PL","cc2":"","admin1_code":"77","admin2_code":"1205","admin3_code":"120508","admin4_code":"","population":"3959","elevation":"","dem":"342","timezone":"Europe/Warsaw","modification_date":"2010-09-11"},{"geonameid":"760395","name":"Rokitno","asciiname":"Rokitno","alternatenames":"Rokitino,Rokitno,Rokitno Podlaskie,Рокитно","latitude":"52.12142","longitude":"23.29514","feature_class":"P","feature_code":"PPLA3","country_code":"PL","cc2":"PL","admin1_code":"75","admin2_code":"0601","admin3_code":"060112","admin4_code":"","population":"747","elevation":"","dem":"150","timezone":"Europe/Warsaw","modification_date":"2010-10-16"},{"geonameid":"760404","name":"Rokietnica","asciiname":"Rokietnica","alternatenames":"","latitude":"49.89983","longitude":"22.64171","feature_class":"P","feature_code":"PPLA3","country_code":"PL","cc2":"","admin1_code":"80","admin2_code":"1804","admin3_code":"180409","admin4_code":"","population":"2500","elevation":"","dem":"239","timezone":"Europe/Warsaw","modification_date":"2010-10-16"},{"geonameid":"760414","name":"Rogóźno","asciiname":"Rogozno","alternatenames":"Rogozna,Rogozno,Rogożna,Rogóźno","latitude":"50.46417","longitude":"23.39041","feature_class":"P","feature_code":"PPL","country_code":"PL","cc2":"PL","admin1_code":"75","admin2_code":"0618","admin3_code":"061811","admin4_code":"","population":"1153","elevation":"","dem":"273","timezone":"Europe/Warsaw","modification_date":"2010-09-14"},{"geonameid":"760415","name":"Rogóźno","asciiname":"Rogozno","alternatenames":"","latitude":"50.07367","longitude":"22.37486","feature_class":"P","feature_code":"PPL","country_code":"PL","cc2":"","admin1_code":"80","admin2_code":"1810","admin3_code":"181004","admin4_code":"","population":"1200","elevation":"","dem":"219","timezone":"Europe/Warsaw","modification_date":"2010-09-14"},{"geonameid":"760445","name":"Rogów","asciiname":"Rogow","alternatenames":"","latitude":"51.20414","longitude":"20.43483","feature_class":"P","feature_code":"PPL","country_code":"PL","cc2":"","admin1_code":"84","admin2_code":"2605","admin3_code":"260503","admin4_code":"","population":"1300","elevation":"","dem":"236","timezone":"Europe/Warsaw","modification_date":"2010-10-16"},{"geonameid":"760488","name":"Reszel","asciiname":"Reszel","alternatenames":"Resela,Reshel,Reshel',Reslius,Reszel,Rešela,Rešlius,Rossel,Rössel,lei xie er,Решел,Решель,雷謝爾","latitude":"54.05042","longitude":"21.14585","feature_class":"P","feature_code":"PPL","country_code":"PL","cc2":"PL","admin1_code":"85","admin2_code":"2808","admin3_code":"280805","admin4_code":"","population":"5226","elevation":"","dem":"110","timezone":"Europe/Warsaw","modification_date":"2010-09-09"},{"geonameid":"760490","name":"Repki","asciiname":"Repki","alternatenames":"Repki,Репки","latitude":"52.38555","longitude":"22.39117","feature_class":"P","feature_code":"PPLA3","country_code":"PL","cc2":"","admin1_code":"78","admin2_code":"1429","admin3_code":"142906","admin4_code":"","population":"829","elevation":"","dem":"170","timezone":"Europe/Warsaw","modification_date":"2010-09-19"},{"geonameid":"760503","name":"Rembertów","asciiname":"Rembertow","alternatenames":"Nowy Rembertow,Nowy Rembertów,Rembertuv,rmbrtwb,Рембертув,רמברטוב","latitude":"52.26059","longitude":"21.16355","feature_class":"P","feature_code":"PPL","country_code":"PL","cc2":"PL","admin1_code":"78","admin2_code":"1465","admin3_code":"146501","admin4_code":"","population":"21893","elevation":"","dem":"91","timezone":"Europe/Warsaw","modification_date":"2012-11-09"},{"geonameid":"760516","name":"Rejowiec Fabryczny","asciiname":"Rejowiec Fabryczny","alternatenames":"Rejovec'-Fabrichnij,Rejovec-Fabrychny,Rejovecfabricni,Rejovecfabrični,Rejovjec Fabrichni,Rejowiec Fabryczny,lei yue wei ci fa bu li qi nei,Рейовець-Фабричний,Реёвец-Фабрычны,Рејовјец Фабрични,雷約維茨法布里奇內","latitude":"51.11414","longitude":"23.24724","feature_class":"P","feature_code":"PPLA3","country_code":"PL","cc2":"","admin1_code":"75","admin2_code":"0603","admin3_code":"060301","admin4_code":"","population":"4474","elevation":"","dem":"200","timezone":"Europe/Warsaw","modification_date":"2011-07-31"},{"geonameid":"760518","name":"Rejowiec","asciiname":"Rejowiec","alternatenames":"","latitude":"51.09134","longitude":"23.28192","feature_class":"P","feature_code":"PPL","country_code":"PL","cc2":"","admin1_code":"75","admin2_code":"0603","admin3_code":"060315","admin4_code":"","population":"2114","elevation":"","dem":"199","timezone":"Europe/Warsaw","modification_date":"2010-09-09"},{"geonameid":"760527","name":"Regnów","asciiname":"Regnow","alternatenames":"","latitude":"51.7485","longitude":"20.38711","feature_class":"P","feature_code":"PPLA3","country_code":"PL","cc2":"","admin1_code":"74","admin2_code":"1013","admin3_code":"101305","admin4_code":"","population":"340","elevation":"","dem":"163","timezone":"Europe/Warsaw","modification_date":"2010-10-01"},{"geonameid":"760528","name":"Regimin","asciiname":"Regimin","alternatenames":"Regimin,Регимин","latitude":"52.94166","longitude":"20.55319","feature_class":"P","feature_code":"PPLA3","country_code":"PL","cc2":"","admin1_code":"78","admin2_code":"1402","admin3_code":"140208","admin4_code":"","population":"523","elevation":"","dem":"127","timezone":"Europe/Warsaw","modification_date":"2010-09-17"},{"geonameid":"760584","name":"Rawa Mazowiecka","asciiname":"Rawa Mazowiecka","alternatenames":"Rava Mazovecka,Rava Mazovjecka,Rava-Mazovec'ka,Rava-Mazoveckaja,Rawa,Rawa Mazowiecka,ma zuo fu she de qu la wa,rwwh mzwbyyzqh,Рава Мазовецка,Рава Мазовјецка,Рава-Мазовецкая,Рава-Мазовецька,רווה מזובייצקה,馬佐夫舍地區拉瓦","latitude":"51.76437","longitude":"20.25493","feature_class":"P","feature_code":"PPLA3","country_code":"PL","cc2":"","admin1_code":"74","admin2_code":"1013","admin3_code":"101301","admin4_code":"","population":"17770","elevation":"","dem":"138","timezone":"Europe/Warsaw","modification_date":"2011-07-31"},{"geonameid":"760607","name":"Raszyn","asciiname":"Raszyn","alternatenames":"Radzyn,Raszyn","latitude":"52.15603","longitude":"20.9226","feature_class":"P","feature_code":"PPL","country_code":"PL","cc2":"PL","admin1_code":"78","admin2_code":"1421","admin3_code":"142106","admin4_code":"","population":"7109","elevation":"","dem":"102","timezone":"Europe/Warsaw","modification_date":"2010-10-28"},{"geonameid":"760624","name":"Raniżów","asciiname":"Ranizow","alternatenames":"","latitude":"50.25873","longitude":"21.97137","feature_class":"P","feature_code":"PPLA3","country_code":"PL","cc2":"","admin1_code":"80","admin2_code":"1806","admin3_code":"180605","admin4_code":"","population":"2200","elevation":"","dem":"201","timezone":"Europe/Warsaw","modification_date":"2010-10-14"},{"geonameid":"760632","name":"Rakszawa","asciiname":"Rakszawa","alternatenames":"","latitude":"50.16051","longitude":"22.23907","feature_class":"P","feature_code":"PPLA3","country_code":"PL","cc2":"","admin1_code":"80","admin2_code":"1810","admin3_code":"181006","admin4_code":"","population":"6894","elevation":"","dem":"215","timezone":"Europe/Warsaw","modification_date":"2010-10-13"},{"geonameid":"760657","name":"Raków","asciiname":"Rakow","alternatenames":"Rakow,Raków,rqwb,רקוב","latitude":"50.67427","longitude":"21.04517","feature_class":"P","feature_code":"PPLA3","country_code":"PL","cc2":"","admin1_code":"84","admin2_code":"2604","admin3_code":"260416","admin4_code":"","population":"1174","elevation":"","dem":"221","timezone":"Europe/Warsaw","modification_date":"2010-10-01"},{"geonameid":"760672","name":"Rajgród","asciiname":"Rajgrod","alternatenames":"Raigardas,Rajgrod,Rajgroda,Rajgrud,Rajgród,la yi ge lu de,Райгруд,Рајгрод,ראיגרוד,拉伊格魯德","latitude":"53.73102","longitude":"22.70515","feature_class":"P","feature_code":"PPL","country_code":"PL","cc2":"","admin1_code":"81","admin2_code":"2004","admin3_code":"200404","admin4_code":"","population":"1732","elevation":"","dem":"121","timezone":"Europe/Warsaw","modification_date":"2014-06-27"},{"geonameid":"760680","name":"Radzyń Podlaski","asciiname":"Radzyn Podlaski","alternatenames":"Gorad Radzyn' Padljaski,Palenkes Radzinas,Palenkės Radzinas,Radin'-Pidljas'kij,Radzin Podljaski,Radzina Podlaska,Radziņa Podlaska,Radzyn,Radzyn Podlaski,Radzyn'-Podljaskij,Radzyń,Radzyń Podlaski,bo de la xie de qu la ceng,rdzyn pwdlsqy,Горад Радзынь Падляскі,Радзин Подляски,Радзынь-Подляский,Радинь-Підляський,Рађин Подласки,רדזין פודלסקי,波德拉謝地區拉曾","latitude":"51.78333","longitude":"22.61667","feature_class":"P","feature_code":"PPLA3","country_code":"PL","cc2":"","admin1_code":"75","admin2_code":"0615","admin3_code":"061501","admin4_code":"","population":"16071","elevation":"","dem":"144","timezone":"Europe/Warsaw","modification_date":"2011-07-31"},{"geonameid":"760684","name":"Radzymin","asciiname":"Radzymin","alternatenames":"Radzimin,Radzimina,Radzymin,la ji ming,Радзимін,Радзымин,Рађимин,ראדזימין,拉濟明","latitude":"52.41592","longitude":"21.18415","feature_class":"P","feature_code":"PPLA3","country_code":"PL","cc2":"","admin1_code":"78","admin2_code":"1434","admin3_code":"143409","admin4_code":"","population":"8818","elevation":"","dem":"90","timezone":"Europe/Warsaw","modification_date":"2011-07-31"},{"geonameid":"760697","name":"Radziłów","asciiname":"Radzilow","alternatenames":"Radzilow,Radziluv,Radziluvas,Radziłów,rdzylwb,Радзилув,רדזילוב","latitude":"53.40994","longitude":"22.40988","feature_class":"P","feature_code":"PPL","country_code":"PL","cc2":"","admin1_code":"81","admin2_code":"2004","admin3_code":"200403","admin4_code":"","population":"1400","elevation":"","dem":"119","timezone":"Europe/Warsaw","modification_date":"2010-09-09"},{"geonameid":"760711","name":"Radziejowice","asciiname":"Radziejowice","alternatenames":"","latitude":"52.00834","longitude":"20.5477","feature_class":"P","feature_code":"PPLA3","country_code":"PL","cc2":"","admin1_code":"78","admin2_code":"1438","admin3_code":"143804","admin4_code":"","population":"546","elevation":"","dem":"143","timezone":"Europe/Warsaw","modification_date":"2010-10-28"},{"geonameid":"760723","name":"Radzanów","asciiname":"Radzanow","alternatenames":"Radzanow,Radzanuv,Radzanów,Радзанув","latitude":"52.94238","longitude":"20.09219","feature_class":"P","feature_code":"PPLA3","country_code":"PL","cc2":"","admin1_code":"78","admin2_code":"1413","admin3_code":"141304","admin4_code":"","population":"930","elevation":"","dem":"110","timezone":"Europe/Warsaw","modification_date":"2010-09-18"},{"geonameid":"760724","name":"Radzanów","asciiname":"Radzanow","alternatenames":"","latitude":"51.55786","longitude":"20.86398","feature_class":"P","feature_code":"PPLA3","country_code":"PL","cc2":"","admin1_code":"78","admin2_code":"1401","admin3_code":"140103","admin4_code":"","population":"356","elevation":"","dem":"158","timezone":"Europe/Warsaw","modification_date":"2010-09-17"},{"geonameid":"760727","name":"Radymno","asciiname":"Radymno","alternatenames":"Radimno,Radymno,la di mu nuo,Радимно,Радымно,ראדימנו,拉迪姆诺","latitude":"49.9472","longitude":"22.82375","feature_class":"P","feature_code":"PPL","country_code":"PL","cc2":"","admin1_code":"80","admin2_code":"1804","admin3_code":"180402","admin4_code":"","population":"5464","elevation":"","dem":"197","timezone":"Europe/Warsaw","modification_date":"2010-09-12"},{"geonameid":"760745","name":"Radoszyce","asciiname":"Radoszyce","alternatenames":"Radoszyce,ראדאשיץ,ראדושיצה","latitude":"51.07392","longitude":"20.25836","feature_class":"P","feature_code":"PPLA3","country_code":"PL","cc2":"","admin1_code":"84","admin2_code":"2605","admin3_code":"260504","admin4_code":"","population":"3400","elevation":"","dem":"237","timezone":"Europe/Warsaw","modification_date":"2010-10-06"},{"geonameid":"760769","name":"Radomyśl Wielki","asciiname":"Radomysl Wielki","alternatenames":"Radomysl Wielki,Radomyśl Wielki","latitude":"50.19693","longitude":"21.27693","feature_class":"P","feature_code":"PPL","country_code":"PL","cc2":"","admin1_code":"80","admin2_code":"1811","admin3_code":"181108","admin4_code":"","population":"2992","elevation":"","dem":"197","timezone":"Europe/Warsaw","modification_date":"2010-09-12"},{"geonameid":"760771","name":"Radomyśl","asciiname":"Radomysl","alternatenames":"Radomysl,Radomysl na Sanem,Radomysl nad Sanem,Radomyśl,Radomyśl na Sanem,Radomyśl nad Sanem","latitude":"50.68101","longitude":"21.94365","feature_class":"P","feature_code":"PPLA3","country_code":"PL","cc2":"PL","admin1_code":"80","admin2_code":"1818","admin3_code":"181804","admin4_code":"","population":"808","elevation":"","dem":"145","timezone":"Europe/Warsaw","modification_date":"2010-10-14"},{"geonameid":"760778","name":"Radom","asciiname":"Radom","alternatenames":"Gorad Radam,La-to-me,Là-tô-mê,RDO,Radom,Radoma,Radomas,Radum,Radům,Rantom,la duo mu,ladom,rad xm,radomi,radomu,radwm,Ράντομ,Горад Радам,Радом,Ռադոմ,ראדום,ראדעם,رادوم,ราดอม,რადომი,ラドム,拉多姆,라돔","latitude":"51.40253","longitude":"21.14714","feature_class":"P","feature_code":"PPLA2","country_code":"PL","cc2":"","admin1_code":"78","admin2_code":"1463","admin3_code":"146301","admin4_code":"","population":"226794","elevation":"","dem":"159","timezone":"Europe/Warsaw","modification_date":"2013-08-05"},{"geonameid":"760783","name":"Radłów","asciiname":"Radlow","alternatenames":"","latitude":"50.08419","longitude":"20.84967","feature_class":"P","feature_code":"PPLA3","country_code":"PL","cc2":"","admin1_code":"77","admin2_code":"1216","admin3_code":"121605","admin4_code":"","population":"2793","elevation":"","dem":"187","timezone":"Europe/Warsaw","modification_date":"2010-09-16"},{"geonameid":"760804","name":"Radgoszcz","asciiname":"Radgoszcz","alternatenames":"","latitude":"50.2058","longitude":"21.11315","feature_class":"P","feature_code":"PPLA3","country_code":"PL","cc2":"","admin1_code":"77","admin2_code":"1204","admin3_code":"120406","admin4_code":"","population":"3700","elevation":"","dem":"181","timezone":"Europe/Warsaw","modification_date":"2010-09-17"},{"geonameid":"760806","name":"Radecznica","asciiname":"Radecznica","alternatenames":"","latitude":"50.75155","longitude":"22.82976","feature_class":"P","feature_code":"PPLA3","country_code":"PL","cc2":"","admin1_code":"75","admin2_code":"0620","admin3_code":"062008","admin4_code":"","population":"920","elevation":"","dem":"205","timezone":"Europe/Warsaw","modification_date":"2010-10-14"},{"geonameid":"760825","name":"Raczki","asciiname":"Raczki","alternatenames":"Rachki,Rackos,Raczki,Račkos,Рачки","latitude":"53.98749","longitude":"22.78487","feature_class":"P","feature_code":"PPL","country_code":"PL","cc2":"","admin1_code":"81","admin2_code":"2012","admin3_code":"201205","admin4_code":"","population":"2322","elevation":"","dem":"161","timezone":"Europe/Warsaw","modification_date":"2015-01-15"},{"geonameid":"760830","name":"Racławice","asciiname":"Raclawice","alternatenames":"","latitude":"50.5137","longitude":"22.16552","feature_class":"P","feature_code":"PPL","country_code":"PL","cc2":"","admin1_code":"80","admin2_code":"1812","admin3_code":"181205","admin4_code":"","population":"1236","elevation":"","dem":"158","timezone":"Europe/Warsaw","modification_date":"2010-09-10"},{"geonameid":"760844","name":"Raciąż","asciiname":"Raciaz","alternatenames":"Rac'onzh,Rachjonzh,Racjonza,Racjonža,Raconzh,la qiong ri,rzywnz,Рацьонж,Рачёнж,Раћонж,רציונז,拉瓊日","latitude":"52.78152","longitude":"20.1177","feature_class":"P","feature_code":"PPLA3","country_code":"PL","cc2":"","admin1_code":"78","admin2_code":"1420","admin3_code":"142002","admin4_code":"","population":"4676","elevation":"","dem":"103","timezone":"Europe/Warsaw","modification_date":"2010-09-18"},{"geonameid":"760853","name":"Rachanie","asciiname":"Rachanie","alternatenames":"Comuna de Rachanie,Gmina Rachanie,Gmina Rakhane,Rakhane,Рахане,Ґміна Рахане","latitude":"50.53842","longitude":"23.54688","feature_class":"P","feature_code":"PPLA3","country_code":"PL","cc2":"","admin1_code":"75","admin2_code":"0618","admin3_code":"061807","admin4_code":"","population":"990","elevation":"","dem":"226","timezone":"Europe/Warsaw","modification_date":"2010-10-14"},{"geonameid":"760871","name":"Pysznica","asciiname":"Pysznica","alternatenames":"","latitude":"50.56999","longitude":"22.12913","feature_class":"P","feature_code":"PPLA3","country_code":"PL","cc2":"","admin1_code":"80","admin2_code":"1818","admin3_code":"181803","admin4_code":"","population":"2800","elevation":"","dem":"154","timezone":"Europe/Warsaw","modification_date":"2010-10-14"},{"geonameid":"760892","name":"Puszcza Mariańska","asciiname":"Puszcza Marianska","alternatenames":"Comuna de Puszcza Marianska,Comuna de Puszcza Mariańska,Gmina Pushha-Marjans'ka,Gmina Puszcza Marianska,Gmina Puszcza Mariańska,Pushha-Marjan'ska,Puszcza Marianska,Puszcza Mariańska,Puszcza Marjanska,Puszcza Marjańska,Пуща-Маряньска,Ґміна Пуща-Марянська","latitude":"51.97901","longitude":"20.35037","feature_class":"P","feature_code":"PPLA3","country_code":"PL","cc2":"","admin1_code":"78","admin2_code":"1438","admin3_code":"143803","admin4_code":"","population":"500","elevation":"","dem":"137","timezone":"Europe/Warsaw","modification_date":"2010-09-19"},{"geonameid":"760909","name":"Purda","asciiname":"Purda","alternatenames":"Comuna de Purda,Gmina Purda,Gross Purden,Purda,Пурда,Ґміна Пурда","latitude":"53.70844","longitude":"20.70683","feature_class":"P","feature_code":"PPL","country_code":"PL","cc2":"PL","admin1_code":"85","admin2_code":"2814","admin3_code":"281410","admin4_code":"","population":"1140","elevation":"","dem":"141","timezone":"Europe/Warsaw","modification_date":"2010-09-09"},{"geonameid":"760914","name":"Puńsk","asciiname":"Punsk","alternatenames":"Pun'sk,Punsk,Punskas,Puńsk,Пуньск","latitude":"54.25114","longitude":"23.18124","feature_class":"P","feature_code":"PPL","country_code":"PL","cc2":"","admin1_code":"81","admin2_code":"2009","admin3_code":"200904","admin4_code":"","population":"1210","elevation":"","dem":"168","timezone":"Europe/Warsaw","modification_date":"2015-01-14"},{"geonameid":"760917","name":"Pułtusk","asciiname":"Pultusk","alternatenames":"Gorad Pultusk,Pultus'k,Pultusk,Pultuska,Pułtusk,pu wu tu si ke,pwltwsq,Горад Пултуск,Пултуск,Пултуськ,פולטוסק,普烏圖斯克","latitude":"52.7025","longitude":"21.08276","feature_class":"P","feature_code":"PPLA2","country_code":"PL","cc2":"","admin1_code":"78","admin2_code":"1424","admin3_code":"142404","admin4_code":"","population":"19039","elevation":"","dem":"95","timezone":"Europe/Warsaw","modification_date":"2010-09-19"},{"geonameid":"760924","name":"Puławy","asciiname":"Pulawy","alternatenames":"Gorad Pulavy,Pulavai,Pulavi,Pulavy,Pulawy,Putawy,Puławy,pu wa wei,puwavu~i,Горад Пулавы,Пулави,Пулавы,פולאווי,プワヴィ,普瓦維","latitude":"51.41655","longitude":"21.96939","feature_class":"P","feature_code":"PPLA2","country_code":"PL","cc2":"","admin1_code":"75","admin2_code":"0614","admin3_code":"061401","admin4_code":"","population":"49759","elevation":"","dem":"137","timezone":"Europe/Warsaw","modification_date":"2010-10-16"},{"geonameid":"760951","name":"Puchaczów","asciiname":"Puchaczow","alternatenames":"Puchaczow,Puchaczów,Puhaczow,Puhaczów","latitude":"51.3105","longitude":"22.9737","feature_class":"P","feature_code":"PPLA3","country_code":"PL","cc2":"PL","admin1_code":"75","admin2_code":"0610","admin3_code":"061005","admin4_code":"","population":"817","elevation":"","dem":"167","timezone":"Europe/Warsaw","modification_date":"2010-10-16"},{"geonameid":"760987","name":"Przytyk","asciiname":"Przytyk","alternatenames":"Przytyk,psytyq,פשיטיק","latitude":"51.46567","longitude":"20.90587","feature_class":"P","feature_code":"PPLA3","country_code":"PL","cc2":"","admin1_code":"78","admin2_code":"1425","admin3_code":"142509","admin4_code":"","population":"990","elevation":"","dem":"146","timezone":"Europe/Warsaw","modification_date":"2010-10-16"},{"geonameid":"760999","name":"Przytoczno","asciiname":"Przytoczno","alternatenames":"","latitude":"51.61951","longitude":"22.27135","feature_class":"P","feature_code":"PPL","country_code":"PL","cc2":"","admin1_code":"75","admin2_code":"0608","admin3_code":"060804","admin4_code":"","population":"1100","elevation":"","dem":"136","timezone":"Europe/Warsaw","modification_date":"2010-10-16"},{"geonameid":"761008","name":"Przysucha","asciiname":"Przysucha","alternatenames":"Pshisukha,Psisuha,Pšisuha,psyshh,pu ri su ha,Пшисуха,פשיסחה,普日蘇哈","latitude":"51.35858","longitude":"20.62889","feature_class":"P","feature_code":"PPLA2","country_code":"PL","cc2":"","admin1_code":"78","admin2_code":"1423","admin3_code":"142306","admin4_code":"","population":"6188","elevation":"","dem":"209","timezone":"Europe/Warsaw","modification_date":"2010-09-19"},{"geonameid":"761055","name":"Przyłęk","asciiname":"Przylek","alternatenames":"","latitude":"51.30856","longitude":"21.74744","feature_class":"P","feature_code":"PPLA3","country_code":"PL","cc2":"","admin1_code":"78","admin2_code":"1436","admin3_code":"143603","admin4_code":"","population":"559","elevation":"","dem":"141","timezone":"Europe/Warsaw","modification_date":"2010-09-20"},{"geonameid":"761085","name":"Przybyszówka","asciiname":"Przybyszowka","alternatenames":"","latitude":"50.04788","longitude":"21.92579","feature_class":"P","feature_code":"PPL","country_code":"PL","cc2":"","admin1_code":"80","admin2_code":"1863","admin3_code":"186301","admin4_code":"","population":"2000","elevation":"","dem":"227","timezone":"Europe/Warsaw","modification_date":"2010-11-28"},{"geonameid":"761101","name":"Przyborów","asciiname":"Przyborow","alternatenames":"","latitude":"50.03035","longitude":"20.66279","feature_class":"P","feature_code":"PPL","country_code":"PL","cc2":"","admin1_code":"77","admin2_code":"1202","admin3_code":"120201","admin4_code":"","population":"1757","elevation":"","dem":"193","timezone":"Europe/Warsaw","modification_date":"2010-09-06"},{"geonameid":"761131","name":"Przeworsk","asciiname":"Przeworsk","alternatenames":"Perevors'k,Prevorsk,Przeworsk,Psevorska,Pshevorsk,Převorsk,Pševorska,pu re wo si ke,Переворськ,Пшеворск,普熱沃斯克","latitude":"50.05912","longitude":"22.49408","feature_class":"P","feature_code":"PPLA2","country_code":"PL","cc2":"","admin1_code":"80","admin2_code":"1814","admin3_code":"181401","admin4_code":"","population":"15805","elevation":"","dem":"201","timezone":"Europe/Warsaw","modification_date":"2010-09-27"},{"geonameid":"761145","name":"Przesmyki","asciiname":"Przesmyki","alternatenames":"","latitude":"52.26816","longitude":"22.58394","feature_class":"P","feature_code":"PPLA3","country_code":"PL","cc2":"","admin1_code":"78","admin2_code":"1426","admin3_code":"142607","admin4_code":"","population":"670","elevation":"","dem":"172","timezone":"Europe/Warsaw","modification_date":"2010-09-19"},{"geonameid":"761168","name":"Przemyśl","asciiname":"Przemysl","alternatenames":"Peremishl',Peremishl’,Peremyshl',Peremyshl’,Peremyslis,Peremyšlis,Premislia,Premysl,Przemysl,Przemyśl,Psemisla,Pshemishul,Pshemisl,Pshemys'l',Pshemysl',Pshemys’l’,Přemyšl,Pšemisla,peusyemisil,psmysl,pu re mei xi er,pushemu~ishiru,Перемишль,Перемышль,Пшемисл,Пшемишъл,Пшемысль,פשמישל,פשעמישל,プシェムィシル,普热梅希尔,프셰미실","latitude":"49.78498","longitude":"22.76728","feature_class":"P","feature_code":"PPLA2","country_code":"PL","cc2":"","admin1_code":"80","admin2_code":"1862","admin3_code":"186201","admin4_code":"","population":"67013","elevation":"","dem":"193","timezone":"Europe/Warsaw","modification_date":"2015-04-09"},{"geonameid":"761187","name":"Przędzel","asciiname":"Przedzel","alternatenames":"","latitude":"50.49465","longitude":"22.21925","feature_class":"P","feature_code":"PPL","country_code":"PL","cc2":"","admin1_code":"80","admin2_code":"1812","admin3_code":"181206","admin4_code":"","population":"1823","elevation":"","dem":"160","timezone":"Europe/Warsaw","modification_date":"2010-10-11"},{"geonameid":"761193","name":"Przedmieście Dubieckie","asciiname":"Przedmiescie Dubieckie","alternatenames":"","latitude":"49.8371","longitude":"22.37177","feature_class":"P","feature_code":"PPL","country_code":"PL","cc2":"","admin1_code":"80","admin2_code":"1813","admin3_code":"181302","admin4_code":"","population":"1100","elevation":"","dem":"236","timezone":"Europe/Warsaw","modification_date":"2010-10-13"},{"geonameid":"761210","name":"Przecław","asciiname":"Przeclaw","alternatenames":"Pseclava,Psheclav,Pšeclava,pu re ci wa fu,Пшецлав,普熱茨瓦夫","latitude":"50.19339","longitude":"21.48007","feature_class":"P","feature_code":"PPLA3","country_code":"PL","cc2":"","admin1_code":"80","admin2_code":"1811","admin3_code":"181107","admin4_code":"","population":"1599","elevation":"","dem":"189","timezone":"Europe/Warsaw","modification_date":"2010-11-28"},{"geonameid":"761218","name":"Przasnysz","asciiname":"Przasnysz","alternatenames":"Przasnysz,Psasnisa,Psasnysas,Pshasnish,Pshasnysh,Pšasniša,Pšasnyšas,brzasnysz,pu zha si nei shen,Пшасниш,Пшасныш,برزاسنيسز,普扎斯内什","latitude":"53.01907","longitude":"20.88029","feature_class":"P","feature_code":"PPLA2","country_code":"PL","cc2":"","admin1_code":"78","admin2_code":"1422","admin3_code":"142201","admin4_code":"","population":"16718","elevation":"","dem":"119","timezone":"Europe/Warsaw","modification_date":"2010-09-19"},{"geonameid":"761228","name":"Pruszków","asciiname":"Pruszkow","alternatenames":"Prushkov,Prushkuv,Pruskova,Pruskuvas,Pruszkow,Pruszków,Pruškova,Pruškuvas,pu lu si ke fu,purushukufu,Прушков,Прушкув,プルシュクフ,普魯斯科夫","latitude":"52.17072","longitude":"20.81214","feature_class":"P","feature_code":"PPLA2","country_code":"PL","cc2":"PL","admin1_code":"78","admin2_code":"1421","admin3_code":"142102","admin4_code":"","population":"55371","elevation":"","dem":"92","timezone":"Europe/Warsaw","modification_date":"2010-10-28"},{"geonameid":"761255","name":"Pruchnik","asciiname":"Pruchnik","alternatenames":"Pruchnik,Pruchnik-Miasto","latitude":"49.9062","longitude":"22.51554","feature_class":"P","feature_code":"PPL","country_code":"PL","cc2":"PL","admin1_code":"80","admin2_code":"1804","admin3_code":"180407","admin4_code":"","population":"3694","elevation":"","dem":"245","timezone":"Europe/Warsaw","modification_date":"2011-01-08"},{"geonameid":"761258","name":"Proszowice","asciiname":"Proszowice","alternatenames":"Proshovice,Prosovice,Prošovice,pu luo shao wei cai,Прошовице,Прошовіце,普羅紹維采","latitude":"50.19275","longitude":"20.28909","feature_class":"P","feature_code":"PPLA2","country_code":"PL","cc2":"","admin1_code":"77","admin2_code":"1214","admin3_code":"121405","admin4_code":"","population":"6146","elevation":"","dem":"222","timezone":"Europe/Warsaw","modification_date":"2010-10-20"},{"geonameid":"761262","name":"Prostki","asciiname":"Prostki","alternatenames":"Prostken,Prostki,Простки","latitude":"53.69901","longitude":"22.43183","feature_class":"P","feature_code":"PPL","country_code":"PL","cc2":"PL","admin1_code":"85","admin2_code":"2805","admin3_code":"280504","admin4_code":"","population":"2541","elevation":"","dem":"118","timezone":"Europe/Warsaw","modification_date":"2010-09-09"},{"geonameid":"761273","name":"Promna","asciiname":"Promna","alternatenames":"","latitude":"51.68006","longitude":"20.95917","feature_class":"P","feature_code":"PPLA3","country_code":"PL","cc2":"","admin1_code":"78","admin2_code":"1401","admin3_code":"140102","admin4_code":"","population":"333","elevation":"","dem":"118","timezone":"Europe/Warsaw","modification_date":"2010-09-17"},{"geonameid":"761300","name":"Prażmów","asciiname":"Prazmow","alternatenames":"","latitude":"51.9404","longitude":"20.95479","feature_class":"P","feature_code":"PPLA3","country_code":"PL","cc2":"","admin1_code":"78","admin2_code":"1418","admin3_code":"141805","admin4_code":"","population":"403","elevation":"","dem":"120","timezone":"Europe/Warsaw","modification_date":"2011-07-31"},{"geonameid":"761331","name":"Pozezdrze","asciiname":"Pozezdrze","alternatenames":"Grossgarten,Possessern,Pozedrze,Pozezdrze,Pozezdzhe,Позездже","latitude":"54.14147","longitude":"21.8597","feature_class":"P","feature_code":"PPL","country_code":"PL","cc2":"","admin1_code":"85","admin2_code":"2819","admin3_code":"281902","admin4_code":"","population":"1320","elevation":"","dem":"135","timezone":"Europe/Warsaw","modification_date":"2010-09-09"},{"geonameid":"761350","name":"Potworów","asciiname":"Potworow","alternatenames":"Comuna de Potworow,Comuna de Potworów,Gmina Potvoruv,Gmina Potworow,Gmina Potworów,Potvoruv,Потворув,Ґміна Потворув","latitude":"51.50874","longitude":"20.72176","feature_class":"P","feature_code":"PPLA3","country_code":"PL","cc2":"","admin1_code":"78","admin2_code":"1423","admin3_code":"142305","admin4_code":"","population":"990","elevation":"","dem":"175","timezone":"Europe/Warsaw","modification_date":"2010-09-19"},{"geonameid":"761356","name":"Potok Wielki","asciiname":"Potok Wielki","alternatenames":"Comuna de Potok Wielki,Gmina Potok Wielki,Gmina Potok-Vel'ki,Potok,Potok Wielki,Potok-Vel'ki,Поток-Вельки,Ґміна Поток-Велькі","latitude":"50.7915","longitude":"22.21642","feature_class":"P","feature_code":"PPLA3","country_code":"PL","cc2":"","admin1_code":"75","admin2_code":"0605","admin3_code":"060507","admin4_code":"","population":"502","elevation":"","dem":"207","timezone":"Europe/Warsaw","modification_date":"2013-07-14"},{"geonameid":"761363","name":"Potok Górny","asciiname":"Potok Gorny","alternatenames":"","latitude":"50.38477","longitude":"22.56188","feature_class":"P","feature_code":"PPLA3","country_code":"PL","cc2":"","admin1_code":"75","admin2_code":"0602","admin3_code":"060211","admin4_code":"","population":"1341","elevation":"","dem":"211","timezone":"Europe/Warsaw","modification_date":"2010-10-14"},{"geonameid":"761388","name":"Poświętne","asciiname":"Poswietne","alternatenames":"","latitude":"52.32967","longitude":"21.42137","feature_class":"P","feature_code":"PPLA3","country_code":"PL","cc2":"","admin1_code":"78","admin2_code":"1434","admin3_code":"143408","admin4_code":"","population":"290","elevation":"","dem":"112","timezone":"Europe/Warsaw","modification_date":"2011-07-31"},{"geonameid":"761390","name":"Poświętne","asciiname":"Poswietne","alternatenames":"","latitude":"51.53203","longitude":"20.36453","feature_class":"P","feature_code":"PPLA3","country_code":"PL","cc2":"","admin1_code":"74","admin2_code":"1007","admin3_code":"100706","admin4_code":"","population":"412","elevation":"","dem":"163","timezone":"Europe/Warsaw","modification_date":"2010-10-01"},{"geonameid":"761437","name":"Poronin","asciiname":"Poronin","alternatenames":"","latitude":"49.33781","longitude":"20.00291","feature_class":"P","feature_code":"PPLA3","country_code":"PL","cc2":"","admin1_code":"77","admin2_code":"1217","admin3_code":"121705","admin4_code":"","population":"3507","elevation":"","dem":"732","timezone":"Europe/Warsaw","modification_date":"2010-09-17"},{"geonameid":"761461","name":"Poręba Spytkowska","asciiname":"Poreba Spytkowska","alternatenames":"Poreba,Poreba Spytkowska,Poręba,Poręba Spytkowska","latitude":"49.93995","longitude":"20.55405","feature_class":"P","feature_code":"PPL","country_code":"PL","cc2":"PL","admin1_code":"77","admin2_code":"1202","admin3_code":"120202","admin4_code":"","population":"2500","elevation":"","dem":"249","timezone":"Europe/Warsaw","modification_date":"2010-10-17"},{"geonameid":"761472","name":"Poręba","asciiname":"Poreba","alternatenames":"","latitude":"49.79645","longitude":"20.01718","feature_class":"P","feature_code":"PPL","country_code":"PL","cc2":"","admin1_code":"77","admin2_code":"1209","admin3_code":"120903","admin4_code":"","population":"1178","elevation":"","dem":"413","timezone":"Europe/Warsaw","modification_date":"2010-10-17"},{"geonameid":"761474","name":"Poraż","asciiname":"Poraz","alternatenames":"","latitude":"49.48597","longitude":"22.225","feature_class":"P","feature_code":"PPL","country_code":"PL","cc2":"","admin1_code":"80","admin2_code":"1817","admin3_code":"181707","admin4_code":"","population":"1400","elevation":"","dem":"384","timezone":"Europe/Warsaw","modification_date":"2010-11-28"},{"geonameid":"761477","name":"Porąbka Uszewska","asciiname":"Porabka Uszewska","alternatenames":"Porabka,Porabka Uszewska,Porąbka,Porąbka Uszewska","latitude":"49.9426","longitude":"20.69052","feature_class":"P","feature_code":"PPL","country_code":"PL","cc2":"PL","admin1_code":"77","admin2_code":"1202","admin3_code":"120204","admin4_code":"","population":"1255","elevation":"","dem":"231","timezone":"Europe/Warsaw","modification_date":"2010-10-17"},{"geonameid":"761546","name":"Poniatowa","asciiname":"Poniatowa","alternatenames":"Ponatova,Poniatowa,Poniatowo,Ponjatova,Poņatova,bo ni ya tuo wa,Понятова,Поњатова,波尼亞托瓦","latitude":"51.17983","longitude":"22.13093","feature_class":"P","feature_code":"PPLA3","country_code":"PL","cc2":"","admin1_code":"75","admin2_code":"0612","admin3_code":"061206","admin4_code":"","population":"10056","elevation":"","dem":"206","timezone":"Europe/Warsaw","modification_date":"2010-10-16"},{"geonameid":"761561","name":"Pomiechówek","asciiname":"Pomiechowek","alternatenames":"Pmiechowek,Pomiechowek,Pomiechówek","latitude":"52.47138","longitude":"20.72923","feature_class":"P","feature_code":"PPLA3","country_code":"PL","cc2":"PL","admin1_code":"78","admin2_code":"1414","admin3_code":"141405","admin4_code":"","population":"936","elevation":"","dem":"82","timezone":"Europe/Warsaw","modification_date":"2011-07-31"},{"geonameid":"761582","name":"Połomia","asciiname":"Polomia","alternatenames":"Polomia,Polomyja,Połomia,Połomyja","latitude":"49.90475","longitude":"21.89198","feature_class":"P","feature_code":"PPL","country_code":"PL","cc2":"PL","admin1_code":"80","admin2_code":"1819","admin3_code":"181903","admin4_code":"","population":"1800","elevation":"","dem":"306","timezone":"Europe/Warsaw","modification_date":"2010-09-06"},{"geonameid":"761607","name":"Policzna","asciiname":"Policzna","alternatenames":"Comuna de Policzna,Gmina Polichna,Gmina Policzna,Polichna,Полична,Ґміна Полічна","latitude":"51.45545","longitude":"21.62684","feature_class":"P","feature_code":"PPLA3","country_code":"PL","cc2":"","admin1_code":"78","admin2_code":"1436","admin3_code":"143602","admin4_code":"","population":"1500","elevation":"","dem":"161","timezone":"Europe/Warsaw","modification_date":"2010-09-20"},{"geonameid":"761652","name":"Połaniec","asciiname":"Polaniec","alternatenames":"Comuna de Polaniec,Comuna de Połaniec,Gmina Polanec',Gmina Polaniec,Gmina Połaniec,Polanec,Polaniec,Połaniec,Поланец,Ґміна Поланець","latitude":"50.43324","longitude":"21.2812","feature_class":"P","feature_code":"PPLA3","country_code":"PL","cc2":"","admin1_code":"84","admin2_code":"2612","admin3_code":"261205","admin4_code":"","population":"8158","elevation":"","dem":"164","timezone":"Europe/Warsaw","modification_date":"2010-09-29"},{"geonameid":"761653","name":"Polańczyk","asciiname":"Polanczyk","alternatenames":"Polanczyk,Polańczyk","latitude":"49.36969","longitude":"22.42112","feature_class":"P","feature_code":"PPLA3","country_code":"PL","cc2":"","admin1_code":"80","admin2_code":"1821","admin3_code":"182105","admin4_code":"","population":"830","elevation":"","dem":"501","timezone":"Europe/Warsaw","modification_date":"2010-09-24"},{"geonameid":"761663","name":"Pokrzywnica","asciiname":"Pokrzywnica","alternatenames":"","latitude":"52.62072","longitude":"21.01925","feature_class":"P","feature_code":"PPLA3","country_code":"PL","cc2":"","admin1_code":"78","admin2_code":"1424","admin3_code":"142403","admin4_code":"","population":"510","elevation":"","dem":"107","timezone":"Europe/Warsaw","modification_date":"2010-09-19"},{"geonameid":"761671","name":"Pokrówka","asciiname":"Pokrowka","alternatenames":"","latitude":"51.09479","longitude":"23.46345","feature_class":"P","feature_code":"PPL","country_code":"PL","cc2":"","admin1_code":"75","admin2_code":"0603","admin3_code":"060303","admin4_code":"","population":"1594","elevation":"","dem":"198","timezone":"Europe/Warsaw","modification_date":"2010-09-09"},{"geonameid":"761714","name":"Pogórska Wola","asciiname":"Pogorska Wola","alternatenames":"","latitude":"50.01855","longitude":"21.15795","feature_class":"P","feature_code":"PPL","country_code":"PL","cc2":"","admin1_code":"77","admin2_code":"1216","admin3_code":"121608","admin4_code":"","population":"2707","elevation":"","dem":"229","timezone":"Europe/Warsaw","modification_date":"2010-10-17"},{"geonameid":"761812","name":"Podłęże","asciiname":"Podleze","alternatenames":"","latitude":"50.01458","longitude":"20.16781","feature_class":"P","feature_code":"PPL","country_code":"PL","cc2":"","admin1_code":"77","admin2_code":"1219","admin3_code":"121904","admin4_code":"","population":"1978","elevation":"","dem":"203","timezone":"Europe/Warsaw","modification_date":"2010-10-29"},{"geonameid":"761878","name":"Podkowa Leśna","asciiname":"Podkowa Lesna","alternatenames":"Podkova-Les'na,Podkowa Lesna,Podkowa Leśna,Подкова-Лесьна","latitude":"52.12237","longitude":"20.72665","feature_class":"P","feature_code":"PPLA3","country_code":"PL","cc2":"","admin1_code":"78","admin2_code":"1405","admin3_code":"140502","admin4_code":"","population":"3844","elevation":"","dem":"104","timezone":"Europe/Warsaw","modification_date":"2011-07-31"},{"geonameid":"761921","name":"Podegrodzie","asciiname":"Podegrodzie","alternatenames":"","latitude":"49.57688","longitude":"20.58855","feature_class":"P","feature_code":"PPLA3","country_code":"PL","cc2":"","admin1_code":"77","admin2_code":"1210","admin3_code":"121014","admin4_code":"","population":"1902","elevation":"","dem":"309","timezone":"Europe/Warsaw","modification_date":"2010-10-30"},{"geonameid":"761922","name":"Podedwórze","asciiname":"Podedworze","alternatenames":"Opole,Podedworze,Podedwórze","latitude":"51.68815","longitude":"23.19961","feature_class":"P","feature_code":"PPLA3","country_code":"PL","cc2":"PL","admin1_code":"75","admin2_code":"0613","admin3_code":"061305","admin4_code":"","population":"493","elevation":"","dem":"156","timezone":"Europe/Warsaw","modification_date":"2010-10-16"},{"geonameid":"761978","name":"Pniewy","asciiname":"Pniewy","alternatenames":"","latitude":"51.91468","longitude":"20.74578","feature_class":"P","feature_code":"PPLA3","country_code":"PL","cc2":"","admin1_code":"78","admin2_code":"1406","admin3_code":"140609","admin4_code":"","population":"0","elevation":"","dem":"174","timezone":"Europe/Warsaw","modification_date":"2011-07-31"},{"geonameid":"762021","name":"Płońsk","asciiname":"Plonsk","alternatenames":"Plon'sk,Plons'k,Plonsk,Plonska,Plonskas,Ploņska,Plunsk,Płońsk,Płůńsk,plwnsq,pu weng si ke,pwnsk,Плонск,Плонськ,Плоньск,Плоњск,פלונסק,پونسک,普翁斯克","latitude":"52.62348","longitude":"20.37552","feature_class":"P","feature_code":"PPLA2","country_code":"PL","cc2":"","admin1_code":"78","admin2_code":"1420","admin3_code":"142001","admin4_code":"","population":"22217","elevation":"","dem":"101","timezone":"Europe/Warsaw","modification_date":"2010-09-18"},{"geonameid":"762032","name":"Płoniawy-Bramura","asciiname":"Ploniawy-Bramura","alternatenames":"","latitude":"52.9778","longitude":"21.07178","feature_class":"P","feature_code":"PPLA3","country_code":"PL","cc2":"","admin1_code":"78","admin2_code":"1411","admin3_code":"141106","admin4_code":"","population":"359","elevation":"","dem":"112","timezone":"Europe/Warsaw","modification_date":"2010-09-18"},{"geonameid":"762056","name":"Pleśna","asciiname":"Plesna","alternatenames":"","latitude":"49.92642","longitude":"20.94526","feature_class":"P","feature_code":"PPLA3","country_code":"PL","cc2":"","admin1_code":"77","admin2_code":"1216","admin3_code":"121604","admin4_code":"","population":"1890","elevation":"","dem":"216","timezone":"Europe/Warsaw","modification_date":"2010-09-16"},{"geonameid":"762106","name":"Piwniczna-Zdrój","asciiname":"Piwniczna-Zdroj","alternatenames":"Pivnichna-Zdroj,Pivnichna-Zdruj,Pivnicnazdroja,Pivņičnazdroja,Piwniczna,Piwniczna Zdroj,Piwniczna Zdrój,pi fu ni qi na-ci de lu yi,Пивнична-Здруй,Пивњична-Здрој,Північна-Здруй,皮夫尼奇納-兹德魯伊","latitude":"49.44056","longitude":"20.71423","feature_class":"P","feature_code":"PPL","country_code":"PL","cc2":"","admin1_code":"77","admin2_code":"1210","admin3_code":"121013","admin4_code":"","population":"5793","elevation":"","dem":"394","timezone":"Europe/Warsaw","modification_date":"2010-09-11"},{"geonameid":"762118","name":"Piszczac","asciiname":"Piszczac","alternatenames":"","latitude":"51.98118","longitude":"23.37719","feature_class":"P","feature_code":"PPLA3","country_code":"PL","cc2":"","admin1_code":"75","admin2_code":"0601","admin3_code":"060111","admin4_code":"","population":"3087","elevation":"","dem":"141","timezone":"Europe/Warsaw","modification_date":"2011-07-31"},{"geonameid":"762120","name":"Pisz","asciiname":"Pisz","alternatenames":"Janowa Gora,Johannisburg,Pisa,Pisas,Pish,Pisz,Piša,Pišas,pi shen,Пиш,Піш,皮什","latitude":"53.62744","longitude":"21.81253","feature_class":"P","feature_code":"PPLA3","country_code":"PL","cc2":"","admin1_code":"85","admin2_code":"2816","admin3_code":"281603","admin4_code":"","population":"19232","elevation":"","dem":"117","timezone":"Europe/Warsaw","modification_date":"2014-06-26"},{"geonameid":"762126","name":"Piskorowice","asciiname":"Piskorowice","alternatenames":"","latitude":"50.23579","longitude":"22.52867","feature_class":"P","feature_code":"PPL","country_code":"PL","cc2":"","admin1_code":"80","admin2_code":"1808","admin3_code":"180804","admin4_code":"","population":"1116","elevation":"","dem":"170","timezone":"Europe/Warsaw","modification_date":"2010-10-13"},{"geonameid":"762199","name":"Pionki","asciiname":"Pionki","alternatenames":"P'onki,Pionki,Pionkos,Pjonki,pi weng ji,Пйонкі,Пьонки,Пёнки,Пјонки,皮翁基","latitude":"51.47604","longitude":"21.44995","feature_class":"P","feature_code":"PPLA3","country_code":"PL","cc2":"","admin1_code":"78","admin2_code":"1425","admin3_code":"142501","admin4_code":"","population":"19966","elevation":"","dem":"145","timezone":"Europe/Warsaw","modification_date":"2010-10-12"},{"geonameid":"762201","name":"Pińczów","asciiname":"Pinczow","alternatenames":"Gorad Pin'chau,Pin'chuv,Pinchov,Pinchuv,Pincova,Pincow,Pincuvas,Pinczow,Pinčuvas,Pińczów,Piņčova,ping qiu fu,pynzwb,Горад Піньчаў,Пинчов,Пиньчув,Пињчов,Пінчув,פינטשאוו,פינצוב,平丘夫","latitude":"50.52052","longitude":"20.52649","feature_class":"P","feature_code":"PPLA2","country_code":"PL","cc2":"","admin1_code":"84","admin2_code":"2608","admin3_code":"260804","admin4_code":"","population":"11806","elevation":"","dem":"204","timezone":"Europe/Warsaw","modification_date":"2010-10-07"},{"geonameid":"762203","name":"Pilzno","asciiname":"Pilzno","alternatenames":"Pil'zno,Pilsen,Pilzno,pi er zi nuo,pylznw,Пилзно,Пильзно,Пільзно,פילזנו,皮爾茲諾","latitude":"49.97883","longitude":"21.29228","feature_class":"P","feature_code":"PPLA3","country_code":"PL","cc2":"","admin1_code":"80","admin2_code":"1803","admin3_code":"180306","admin4_code":"","population":"4535","elevation":"","dem":"207","timezone":"Europe/Warsaw","modification_date":"2010-09-27"},{"geonameid":"762223","name":"Pilawa","asciiname":"Pilawa","alternatenames":"Pilava,Pilawa,Piljava,pi la wa,Пилава,Пилява,Пілява,皮拉瓦","latitude":"51.95945","longitude":"21.53089","feature_class":"P","feature_code":"PPLA3","country_code":"PL","cc2":"","admin1_code":"78","admin2_code":"1403","admin3_code":"140310","admin4_code":"","population":"4278","elevation":"","dem":"148","timezone":"Europe/Warsaw","modification_date":"2010-09-17"},{"geonameid":"762275","name":"Pierzchnica","asciiname":"Pierzchnica","alternatenames":"","latitude":"50.69754","longitude":"20.75489","feature_class":"P","feature_code":"PPLA3","country_code":"PL","cc2":"","admin1_code":"84","admin2_code":"2604","admin3_code":"260415","admin4_code":"","population":"1016","elevation":"","dem":"274","timezone":"Europe/Warsaw","modification_date":"2010-10-12"},{"geonameid":"762311","name":"Pieniężno","asciiname":"Pieniezno","alternatenames":"Mehlsack,Melzak,Penenzhno,Penenzno,Peņenžno,Pieniezno,Pieniężno,Pjenenzhno,pei ni en ri nuo,Пененжно,Пјењенжно,佩尼恩日諾","latitude":"54.23649","longitude":"20.12833","feature_class":"P","feature_code":"PPLA3","country_code":"PL","cc2":"PL","admin1_code":"85","admin2_code":"2802","admin3_code":"280205","admin4_code":"","population":"2845","elevation":"","dem":"77","timezone":"Europe/Warsaw","modification_date":"2011-07-31"},{"geonameid":"762331","name":"Piekoszów","asciiname":"Piekoszow","alternatenames":"","latitude":"50.88035","longitude":"20.46418","feature_class":"P","feature_code":"PPLA3","country_code":"PL","cc2":"","admin1_code":"84","admin2_code":"2604","admin3_code":"260414","admin4_code":"","population":"2671","elevation":"","dem":"276","timezone":"Europe/Warsaw","modification_date":"2010-10-12"},{"geonameid":"762361","name":"Piecki","asciiname":"Piecki","alternatenames":"Comuna de Piecki,Gmina Pec'kij,Gmina Piecki,Pecki,Peitschendorf,Piecki,Гміна Пецький,Пецки","latitude":"53.75759","longitude":"21.33914","feature_class":"P","feature_code":"PPL","country_code":"PL","cc2":"PL","admin1_code":"85","admin2_code":"2810","admin3_code":"281004","admin4_code":"","population":"3320","elevation":"","dem":"147","timezone":"Europe/Warsaw","modification_date":"2010-09-09"},{"geonameid":"762366","name":"Piątnica","asciiname":"Piatnica","alternatenames":"Piatnica Poduchowna,Piontnica,Piątnica Poduchowna","latitude":"53.19657","longitude":"22.09591","feature_class":"P","feature_code":"PPL","country_code":"PL","cc2":"","admin1_code":"81","admin2_code":"2007","admin3_code":"200705","admin4_code":"","population":"1800","elevation":"","dem":"104","timezone":"Europe/Warsaw","modification_date":"2010-09-10"},{"geonameid":"762381","name":"Piastów","asciiname":"Piastow","alternatenames":"Piastuvas,Pjastov,Pjastova,Pjastuv,pi ya si tu fu,Пястов,Пястув,Пјастов,皮亞斯圖夫","latitude":"52.18435","longitude":"20.83952","feature_class":"P","feature_code":"PPLA3","country_code":"PL","cc2":"","admin1_code":"78","admin2_code":"1421","admin3_code":"142101","admin4_code":"","population":"23290","elevation":"","dem":"98","timezone":"Europe/Warsaw","modification_date":"2011-07-31"},{"geonameid":"762390","name":"Piaski","asciiname":"Piaski","alternatenames":"Piaski,Piaski Luterskie,Piaski Wielkie","latitude":"51.13892","longitude":"22.84856","feature_class":"P","feature_code":"PPLA3","country_code":"PL","cc2":"PL","admin1_code":"75","admin2_code":"0617","admin3_code":"061703","admin4_code":"","population":"2634","elevation":"","dem":"189","timezone":"Europe/Warsaw","modification_date":"2010-10-12"},{"geonameid":"762423","name":"Piaseczno","asciiname":"Piaseczno","alternatenames":"Piasecnas,Piaseczno,Piasečnas,Pjasechno,Pjasecno,Pjasečno,byasytshnw,pi ya sai qi nuo,Пясечно,Пјасечно,פיאסצנו,بياسيتشنو,皮亞塞奇諾","latitude":"52.0814","longitude":"21.02397","feature_class":"P","feature_code":"PPLA2","country_code":"PL","cc2":"","admin1_code":"78","admin2_code":"1418","admin3_code":"141804","admin4_code":"","population":"36278","elevation":"","dem":"108","timezone":"Europe/Warsaw","modification_date":"2010-10-30"},{"geonameid":"762458","name":"Perlejewo","asciiname":"Perlejewo","alternatenames":"Perlejewo,Pertejewo","latitude":"52.56676","longitude":"22.56457","feature_class":"P","feature_code":"PPLA3","country_code":"PL","cc2":"","admin1_code":"81","admin2_code":"2010","admin3_code":"201008","admin4_code":"","population":"0","elevation":"","dem":"126","timezone":"Europe/Warsaw","modification_date":"2011-07-31"},{"geonameid":"762548","name":"Pawłów","asciiname":"Pawlow","alternatenames":"Comuna de Pawlow,Comuna de Pawłów,Gmina Pavluv,Gmina Pawlow,Gmina Pawłów,Pavluv,Павлув,Ґміна Павлув","latitude":"50.96216","longitude":"21.12062","feature_class":"P","feature_code":"PPLA3","country_code":"PL","cc2":"","admin1_code":"84","admin2_code":"2611","admin3_code":"261104","admin4_code":"","population":"1100","elevation":"","dem":"268","timezone":"Europe/Warsaw","modification_date":"2010-10-07"},{"geonameid":"762551","name":"Pawłosiów","asciiname":"Pawlosiow","alternatenames":"","latitude":"49.99533","longitude":"22.64763","feature_class":"P","feature_code":"PPL","country_code":"PL","cc2":"","admin1_code":"80","admin2_code":"1804","admin3_code":"180406","admin4_code":"","population":"1800","elevation":"","dem":"208","timezone":"Europe/Warsaw","modification_date":"2010-09-12"},{"geonameid":"762556","name":"Pawlikowice","asciiname":"Pawlikowice","alternatenames":"","latitude":"49.9531","longitude":"20.05486","feature_class":"P","feature_code":"PPL","country_code":"PL","cc2":"","admin1_code":"77","admin2_code":"1219","admin3_code":"121905","admin4_code":"","population":"1200","elevation":"","dem":"341","timezone":"Europe/Warsaw","modification_date":"2010-10-17"},{"geonameid":"762588","name":"Pasym","asciiname":"Pasym","alternatenames":"Pasim,Pasima,Passenheim,Pasym,pa se mu,Пасим,Пасым,帕瑟姆","latitude":"53.65069","longitude":"20.79188","feature_class":"P","feature_code":"PPLA3","country_code":"PL","cc2":"PL","admin1_code":"85","admin2_code":"2817","admin3_code":"281704","admin4_code":"","population":"2539","elevation":"","dem":"142","timezone":"Europe/Warsaw","modification_date":"2011-07-31"},{"geonameid":"762619","name":"Parysów","asciiname":"Parysow","alternatenames":"","latitude":"51.97584","longitude":"21.68006","feature_class":"P","feature_code":"PPLA3","country_code":"PL","cc2":"","admin1_code":"78","admin2_code":"1403","admin3_code":"140309","admin4_code":"","population":"1100","elevation":"","dem":"144","timezone":"Europe/Warsaw","modification_date":"2010-09-17"},{"geonameid":"762643","name":"Parczew","asciiname":"Parczew","alternatenames":"Parceva,Parcevas,Parchev,Parchiv,Parczew,Parčeva,Parčevas,pa er qie fu,przb,Парчев,Парчів,פרצב,帕爾切夫","latitude":"51.64021","longitude":"22.90057","feature_class":"P","feature_code":"PPLA2","country_code":"PL","cc2":"","admin1_code":"75","admin2_code":"0613","admin3_code":"061304","admin4_code":"","population":"10249","elevation":"","dem":"148","timezone":"Europe/Warsaw","modification_date":"2010-10-16"},{"geonameid":"762661","name":"Paradyż","asciiname":"Paradyz","alternatenames":"","latitude":"51.30604","longitude":"20.11374","feature_class":"P","feature_code":"PPLA3","country_code":"PL","cc2":"","admin1_code":"74","admin2_code":"1007","admin3_code":"100705","admin4_code":"","population":"530","elevation":"","dem":"193","timezone":"Europe/Warsaw","modification_date":"2010-10-01"},{"geonameid":"762663","name":"Paprotnia","asciiname":"Paprotnia","alternatenames":"Paprotnia,Paprotnja,Папротня","latitude":"52.30071","longitude":"22.46756","feature_class":"P","feature_code":"PPLA3","country_code":"PL","cc2":"","admin1_code":"78","admin2_code":"1426","admin3_code":"142606","admin4_code":"","population":"184","elevation":"","dem":"177","timezone":"Europe/Warsaw","modification_date":"2010-09-19"},{"geonameid":"762664","name":"Paprotnia","asciiname":"Paprotnia","alternatenames":"Paprotnia,Paprotnja,Папротня","latitude":"52.20513","longitude":"20.4232","feature_class":"P","feature_code":"PPL","country_code":"PL","cc2":"","admin1_code":"78","admin2_code":"1428","admin3_code":"142808","admin4_code":"","population":"1539","elevation":"","dem":"89","timezone":"Europe/Warsaw","modification_date":"2010-11-27"},{"geonameid":"762684","name":"Pantalowice","asciiname":"Pantalowice","alternatenames":"Pantalowice,Pantatowice","latitude":"49.9521","longitude":"22.43563","feature_class":"P","feature_code":"PPL","country_code":"PL","cc2":"PL","admin1_code":"80","admin2_code":"1814","admin3_code":"181405","admin4_code":"","population":"1242","elevation":"","dem":"220","timezone":"Europe/Warsaw","modification_date":"2010-10-13"},{"geonameid":"762734","name":"Padew Narodowa","asciiname":"Padew Narodowa","alternatenames":"","latitude":"50.43947","longitude":"21.50059","feature_class":"P","feature_code":"PPL","country_code":"PL","cc2":"","admin1_code":"80","admin2_code":"1811","admin3_code":"181106","admin4_code":"","population":"2300","elevation":"","dem":"153","timezone":"Europe/Warsaw","modification_date":"2010-09-12"},{"geonameid":"762753","name":"Pacanów","asciiname":"Pacanow","alternatenames":"Pacanov,Пацанов,פצאנוב","latitude":"50.40031","longitude":"21.04148","feature_class":"P","feature_code":"PPLA3","country_code":"PL","cc2":"","admin1_code":"84","admin2_code":"2601","admin3_code":"260104","admin4_code":"","population":"1137","elevation":"","dem":"190","timezone":"Europe/Warsaw","modification_date":"2010-10-12"},{"geonameid":"762769","name":"Ożarów Mazowiecki","asciiname":"Ozarow Mazowiecki","alternatenames":"Ozarova Mazovecka,Ozarow,Ozarow-Franciszkow,Ozharov Mazovecki,Ozharov Mazovjecki,Ozharuv-Mazovec'kij,Ozharuv-Mazovecki,Ozharuv-Mazoveckij,Ożarów,Ożarów-Franciszków,Ožarova Mazovecka,ma zuo fu she de qu ao zha lu fu,Ожаров Мазовецки,Ожаров Мазовјецки,Ожарув-Мазовецки,Ожарув-Мазовецкий,Ожарув-Мазовецький,馬佐夫舍地區奧扎魯夫","latitude":"52.21039","longitude":"20.79716","feature_class":"P","feature_code":"PPLA2","country_code":"PL","cc2":"","admin1_code":"78","admin2_code":"1432","admin3_code":"143206","admin4_code":"","population":"8237","elevation":"","dem":"98","timezone":"Europe/Warsaw","modification_date":"2010-09-26"},{"geonameid":"762774","name":"Ożarów","asciiname":"Ozarow","alternatenames":"Ozarova,Ozharov,Ozharuv,Ožarova,ao zha lu fu,Ожаров,Ожарув,אוזרוב,אזשאראוו,奧扎魯夫","latitude":"50.88798","longitude":"21.66658","feature_class":"P","feature_code":"PPLA3","country_code":"PL","cc2":"","admin1_code":"84","admin2_code":"2606","admin3_code":"260605","admin4_code":"","population":"4689","elevation":"","dem":"180","timezone":"Europe/Warsaw","modification_date":"2010-09-26"},{"geonameid":"762782","name":"Owczarnia","asciiname":"Owczarnia","alternatenames":"","latitude":"52.11114","longitude":"20.70468","feature_class":"P","feature_code":"PPL","country_code":"PL","cc2":"","admin1_code":"78","admin2_code":"1421","admin3_code":"142103","admin4_code":"","population":"1700","elevation":"","dem":"107","timezone":"Europe/Warsaw","modification_date":"2010-10-28"},{"geonameid":"762788","name":"Otwock","asciiname":"Otwock","alternatenames":"Otvoc'k,Otvock,Otvocka,Otvockas,Otvotsk,Otwock,ao te wo ci ke,Отвоцк,Отвоцьк,אוטבוצק,אטוואצק,奧特沃茨克","latitude":"52.10577","longitude":"21.26129","feature_class":"P","feature_code":"PPLA3","country_code":"PL","cc2":"PL","admin1_code":"78","admin2_code":"1417","admin3_code":"141702","admin4_code":"","population":"43388","elevation":"","dem":"94","timezone":"Europe/Warsaw","modification_date":"2011-07-31"},{"geonameid":"762792","name":"Otrębusy","asciiname":"Otrebusy","alternatenames":"","latitude":"52.12843","longitude":"20.76073","feature_class":"P","feature_code":"PPL","country_code":"PL","cc2":"","admin1_code":"78","admin2_code":"1421","admin3_code":"142103","admin4_code":"","population":"2000","elevation":"","dem":"99","timezone":"Europe/Warsaw","modification_date":"2010-10-28"},{"geonameid":"762841","name":"Ostrowsko","asciiname":"Ostrowsko","alternatenames":"","latitude":"49.47616","longitude":"20.10052","feature_class":"P","feature_code":"PPL","country_code":"PL","cc2":"","admin1_code":"77","admin2_code":"1211","admin3_code":"121109","admin4_code":"","population":"1274","elevation":"","dem":"568","timezone":"Europe/Warsaw","modification_date":"2010-10-30"},{"geonameid":"762850","name":"Ostrów Mazowiecka","asciiname":"Ostrow Mazowiecka","alternatenames":"Mazovijos Ostruva,Ostrov Mazovecka,Ostrov Mazovjecka,Ostrov-Mazovetskiy,Ostrova Mazovecka,Ostrow,Ostrow Mazowiecka,Ostrow Mazowiecki,Ostruv-Mazovec'ka,Ostruv-Mazovecka,Ostrów,Ostrów Mazowiecka,Ostrów Mazowiecki,ma zuo fu she de qu ao si te lu fu,Остров Мазовецка,Остров Мазовјецка,Острув-Мазовецка,Острув-Мазовецька,אוסטרוב מזובייצקה,馬佐夫舍地區奧斯特魯夫","latitude":"52.80245","longitude":"21.89507","feature_class":"P","feature_code":"PPL","country_code":"PL","cc2":"","admin1_code":"78","admin2_code":"1416","admin3_code":"141601","admin4_code":"","population":"22653","elevation":"","dem":"122","timezone":"Europe/Warsaw","modification_date":"2010-09-11"},{"geonameid":"762851","name":"Ostrów Lubelski","asciiname":"Ostrow Lubelski","alternatenames":"Ostrow,Ostrow Lubelski,Ostrow Podlaski,Ostrów,Ostrów Lubelski,Ostrów Podlaski","latitude":"51.49416","longitude":"22.85287","feature_class":"P","feature_code":"PPLA3","country_code":"PL","cc2":"PL","admin1_code":"75","admin2_code":"0608","admin3_code":"060810","admin4_code":"","population":"2206","elevation":"","dem":"150","timezone":"Europe/Warsaw","modification_date":"2010-10-16"},{"geonameid":"762863","name":"Ostrowiec Świętokrzyski","asciiname":"Ostrowiec Swietokrzyski","alternatenames":"Ostrovec Shventokshiski,Ostrovec'-Sventokshis'kij,Ostrovec-Sventokshiskij,Ostrovec-Sventokshizhski,Ostroveca Sventoksiska,Ostroveca Sventokšiska,Ostrovets,Ostrovjec Svjentokshiski,Ostrowiec,Ostrowiec Kielecki,Ostrowiec Swietokrzyski,Ostrowiec nad Kamienna,Ostrowiec nad Kamienną,Ostrowiec Świętokrzyski,Svento Kryziaus Ostrovecas,sheng shi zi de qu ao si te luo wei ci,xx st rx weiytschfeiyn txk chi ski,Švento Kryžiaus Ostrovecas,ʼwstrwbyyz swwyyntwqzysqy,Островец Швентокшиски,Островец-Свентокшижски,Островец-Свентокшиский,Островець-Свентокшиський,Островјец Свјентокшиски,אוסטרובייץ שוויינטוקזיסקי,אסטראווצע,ออสตรอเวียตซ์ชเฟียนตอกชิสกี,聖十字地區奧斯特羅維茨","latitude":"50.92936","longitude":"21.38525","feature_class":"P","feature_code":"PPLA2","country_code":"PL","cc2":"","admin1_code":"84","admin2_code":"2607","admin3_code":"260701","admin4_code":"","population":"73989","elevation":"","dem":"176","timezone":"Europe/Warsaw","modification_date":"2015-04-30"},{"geonameid":"762873","name":"Ostrówek","asciiname":"Ostrowek","alternatenames":"","latitude":"52.5535","longitude":"21.76014","feature_class":"P","feature_code":"PPL","country_code":"PL","cc2":"","admin1_code":"78","admin2_code":"1433","admin3_code":"143305","admin4_code":"","population":"1700","elevation":"","dem":"105","timezone":"Europe/Warsaw","modification_date":"2010-09-06"},{"geonameid":"762878","name":"Ostrówek","asciiname":"Ostrowek","alternatenames":"","latitude":"51.5815","longitude":"22.61227","feature_class":"P","feature_code":"PPLA3","country_code":"PL","cc2":"","admin1_code":"75","admin2_code":"0608","admin3_code":"060811","admin4_code":"","population":"276","elevation":"","dem":"143","timezone":"Europe/Warsaw","modification_date":"2010-10-16"},{"geonameid":"762901","name":"Ostrów","asciiname":"Ostrow","alternatenames":"","latitude":"50.09779","longitude":"21.5932","feature_class":"P","feature_code":"PPLA3","country_code":"PL","cc2":"","admin1_code":"80","admin2_code":"1815","admin3_code":"181502","admin4_code":"","population":"1500","elevation":"","dem":"195","timezone":"Europe/Warsaw","modification_date":"2010-10-01"},{"geonameid":"762904","name":"Ostrów","asciiname":"Ostrow","alternatenames":"","latitude":"49.96812","longitude":"22.7871","feature_class":"P","feature_code":"PPL","country_code":"PL","cc2":"","admin1_code":"80","admin2_code":"1804","admin3_code":"180408","admin4_code":"","population":"1800","elevation":"","dem":"187","timezone":"Europe/Warsaw","modification_date":"2010-10-13"},{"geonameid":"762909","name":"Ostrołęka","asciiname":"Ostroleka","alternatenames":"Gorad Astralehnka,Ostroleka,Ostrolenka,Ostrołęka,ao si te luo wen ka,oseuteulowengka,osutorou~enka,Горад Астралэнка,Остроленка,אוסטרולנקה,オストロウェンカ,奧斯特羅文卡,오스트로웽카","latitude":"53.08621","longitude":"21.57566","feature_class":"P","feature_code":"PPLA3","country_code":"PL","cc2":"","admin1_code":"78","admin2_code":"1461","admin3_code":"146101","admin4_code":"","population":"53740","elevation":"","dem":"97","timezone":"Europe/Warsaw","modification_date":"2011-07-31"},{"geonameid":"763006","name":"Osiek Jasielski","asciiname":"Osiek Jasielski","alternatenames":"","latitude":"49.63784","longitude":"21.4884","feature_class":"P","feature_code":"PPLA3","country_code":"PL","cc2":"","admin1_code":"80","admin2_code":"1805","admin3_code":"180508","admin4_code":"","population":"680","elevation":"","dem":"258","timezone":"Europe/Warsaw","modification_date":"2010-09-24"},{"geonameid":"763011","name":"Osiek","asciiname":"Osiek","alternatenames":"Comuna de Osiek,Gmina Osek,Gmina Osiek,Osek,Osiek,Osiel,Осек,Ґміна Осек","latitude":"50.51996","longitude":"21.44192","feature_class":"P","feature_code":"PPLA3","country_code":"PL","cc2":"","admin1_code":"84","admin2_code":"2612","admin3_code":"261204","admin4_code":"","population":"2031","elevation":"","dem":"180","timezone":"Europe/Warsaw","modification_date":"2010-09-29"},{"geonameid":"763013","name":"Osieczany","asciiname":"Osieczany","alternatenames":"Osiczany,Osieczany","latitude":"49.84252","longitude":"19.98207","feature_class":"P","feature_code":"PPL","country_code":"PL","cc2":"","admin1_code":"77","admin2_code":"1209","admin3_code":"120903","admin4_code":"","population":"1600","elevation":"","dem":"273","timezone":"Europe/Warsaw","modification_date":"2010-10-23"},{"geonameid":"763014","name":"Osieck","asciiname":"Osieck","alternatenames":"","latitude":"51.96653","longitude":"21.41913","feature_class":"P","feature_code":"PPLA3","country_code":"PL","cc2":"","admin1_code":"78","admin2_code":"1417","admin3_code":"141706","admin4_code":"","population":"954","elevation":"","dem":"112","timezone":"Europe/Warsaw","modification_date":"2010-10-15"},{"geonameid":"763028","name":"Orzysz","asciiname":"Orzysz","alternatenames":"Arys,Ozhish,Ozisa,Ožiša,ao ri shen,Ожиш,奧日什","latitude":"53.80967","longitude":"21.94811","feature_class":"P","feature_code":"PPLA3","country_code":"PL","cc2":"PL","admin1_code":"85","admin2_code":"2816","admin3_code":"281602","admin4_code":"","population":"5998","elevation":"","dem":"126","timezone":"Europe/Warsaw","modification_date":"2011-07-31"},{"geonameid":"763051","name":"Orzechówka","asciiname":"Orzechowka","alternatenames":"","latitude":"49.7308","longitude":"21.94519","feature_class":"P","feature_code":"PPL","country_code":"PL","cc2":"","admin1_code":"80","admin2_code":"1802","admin3_code":"180205","admin4_code":"","population":"1550","elevation":"","dem":"274","timezone":"Europe/Warsaw","modification_date":"2010-10-19"},{"geonameid":"763063","name":"Orońsko","asciiname":"Oronsko","alternatenames":"Oronsk,Oronske,Oronsko,Orońsk,Orońske,Orońsko","latitude":"51.31339","longitude":"20.99067","feature_class":"P","feature_code":"PPLA3","country_code":"PL","cc2":"PL","admin1_code":"78","admin2_code":"1430","admin3_code":"143004","admin4_code":"","population":"1200","elevation":"","dem":"179","timezone":"Europe/Warsaw","modification_date":"2010-09-19"},{"geonameid":"763066","name":"Orneta","asciiname":"Orneta","alternatenames":"Orneta,Wormditt,ao er nei ta,Орнета,奥尔内塔","latitude":"54.11483","longitude":"20.13328","feature_class":"P","feature_code":"PPLA3","country_code":"PL","cc2":"","admin1_code":"85","admin2_code":"2809","admin3_code":"280905","admin4_code":"","population":"9412","elevation":"","dem":"59","timezone":"Europe/Warsaw","modification_date":"2014-06-26"},{"geonameid":"763069","name":"Orły","asciiname":"Orly","alternatenames":"","latitude":"49.87107","longitude":"22.80298","feature_class":"P","feature_code":"PPLA3","country_code":"PL","cc2":"","admin1_code":"80","admin2_code":"1813","admin3_code":"181307","admin4_code":"","population":"1000","elevation":"","dem":"220","timezone":"Europe/Warsaw","modification_date":"2010-09-25"},{"geonameid":"763094","name":"Orla","asciiname":"Orla","alternatenames":"Comuna Orla,Comuna de Orla,Gmina Orla,Gmina Orlja,Orla,Orlja,Orlos valscius,Orlos valsčius,Орля,Ґміна Орля","latitude":"52.70546","longitude":"23.33213","feature_class":"P","feature_code":"PPL","country_code":"PL","cc2":"","admin1_code":"81","admin2_code":"2003","admin3_code":"200306","admin4_code":"","population":"1100","elevation":"","dem":"148","timezone":"Europe/Warsaw","modification_date":"2010-09-05"},{"geonameid":"763107","name":"Opole Lubelskie","asciiname":"Opole Lubelskie","alternatenames":"Comuna de Opole Lubelskie,Gmina Opole Lubelskie,Gmina Opole-Ljubel's'ke,Opole,Opole Lubelskie,Opole-Ljubel'ske,Ополе-Любельске,Ґміна Ополе-Любельське","latitude":"51.14775","longitude":"21.96897","feature_class":"P","feature_code":"PPLA2","country_code":"PL","cc2":"","admin1_code":"75","admin2_code":"0612","admin3_code":"061205","admin4_code":"","population":"8780","elevation":"","dem":"150","timezone":"Europe/Warsaw","modification_date":"2010-10-16"},{"geonameid":"763111","name":"Opoczno","asciiname":"Opoczno","alternatenames":"Opochno,Opocnas,Opocno,Opoczno,Opočnas,Opočno,ao bo qi nuo,Опочно,אופוצנו,אפאטשנא,奧波奇諾","latitude":"51.37569","longitude":"20.27827","feature_class":"P","feature_code":"PPLA2","country_code":"PL","cc2":"","admin1_code":"74","admin2_code":"1007","admin3_code":"100704","admin4_code":"","population":"22592","elevation":"","dem":"193","timezone":"Europe/Warsaw","modification_date":"2010-10-01"},{"geonameid":"763113","name":"Opinogóra Górna","asciiname":"Opinogora Gorna","alternatenames":"","latitude":"52.90554","longitude":"20.71781","feature_class":"P","feature_code":"PPLA3","country_code":"PL","cc2":"","admin1_code":"78","admin2_code":"1402","admin3_code":"140207","admin4_code":"","population":"630","elevation":"","dem":"147","timezone":"Europe/Warsaw","modification_date":"2010-09-17"},{"geonameid":"763120","name":"Opatowiec","asciiname":"Opatowiec","alternatenames":"Comuna de Opatowiec,Gmina Opatovec',Gmina Opatowiec,Opatovec,Опатовец,Ґміна Опатовець","latitude":"50.24314","longitude":"20.72348","feature_class":"P","feature_code":"PPLA3","country_code":"PL","cc2":"","admin1_code":"84","admin2_code":"2603","admin3_code":"260304","admin4_code":"","population":"410","elevation":"","dem":"187","timezone":"Europe/Warsaw","modification_date":"2010-10-10"},{"geonameid":"763121","name":"Opatów","asciiname":"Opatow","alternatenames":"Opatov,Opatova,Opatow,Opatuv,Opatów,Uopatuw,Uopatůw,ao pa tu fu,Опатов,Опатув,אפטא,奧帕圖夫","latitude":"50.80058","longitude":"21.42538","feature_class":"P","feature_code":"PPLA2","country_code":"PL","cc2":"","admin1_code":"84","admin2_code":"2606","admin3_code":"260604","admin4_code":"","population":"6799","elevation":"","dem":"227","timezone":"Europe/Warsaw","modification_date":"2010-09-27"},{"geonameid":"763165","name":"Olsztynek","asciiname":"Olsztynek","alternatenames":"Gorad Al'shtynek,Hohenstein,Ol'shtinek,Ol'shtynek,Olshtinek,Olstineka,Olstynekas,Olsztynek,Olštineka,Olštynekas,ao er shen di nei ke,Горад Альштынек,Олштинек,Ольштинек,Ольштынек,奧爾什蒂內克","latitude":"53.58374","longitude":"20.28471","feature_class":"P","feature_code":"PPLA3","country_code":"PL","cc2":"PL","admin1_code":"85","admin2_code":"2814","admin3_code":"281409","admin4_code":"","population":"7591","elevation":"","dem":"169","timezone":"Europe/Warsaw","modification_date":"2011-07-31"},{"geonameid":"763166","name":"Olsztyn","asciiname":"Olsztyn","alternatenames":"Allenshteyn,Allenstein,Ol'shtyn,Olsztyn,QYO,Ольштын","latitude":"53.77995","longitude":"20.49416","feature_class":"P","feature_code":"PPLA","country_code":"PL","cc2":"","admin1_code":"85","admin2_code":"2862","admin3_code":"286201","admin4_code":"","population":"171803","elevation":"","dem":"139","timezone":"Europe/Warsaw","modification_date":"2015-09-05"},{"geonameid":"763174","name":"Olszówka","asciiname":"Olszowka","alternatenames":"","latitude":"49.61455","longitude":"20.02885","feature_class":"P","feature_code":"PPL","country_code":"PL","cc2":"","admin1_code":"77","admin2_code":"1207","admin3_code":"120709","admin4_code":"","population":"1435","elevation":"","dem":"488","timezone":"Europe/Warsaw","modification_date":"2010-10-14"},{"geonameid":"763244","name":"Olszanica","asciiname":"Olszanica","alternatenames":"","latitude":"49.47741","longitude":"22.44382","feature_class":"P","feature_code":"PPLA3","country_code":"PL","cc2":"","admin1_code":"80","admin2_code":"1821","admin3_code":"182104","admin4_code":"","population":"1100","elevation":"","dem":"374","timezone":"Europe/Warsaw","modification_date":"2010-09-24"},{"geonameid":"763245","name":"Olszana","asciiname":"Olszana","alternatenames":"Olszana,Olszanka","latitude":"49.56748","longitude":"20.52126","feature_class":"P","feature_code":"PPL","country_code":"PL","cc2":"PL","admin1_code":"77","admin2_code":"1210","admin3_code":"121014","admin4_code":"","population":"1107","elevation":"","dem":"374","timezone":"Europe/Warsaw","modification_date":"2010-10-30"},