{"nextFile":"cities.144.json","rows":[{"geonameid":"5849961","name":"Kurtistown","asciiname":"Kurtistown","alternatenames":"","latitude":"19.60361","longitude":"-155.05722","feature_class":"P","feature_code":"PPL","country_code":"US","cc2":"","admin1_code":"HI","admin2_code":"001","admin3_code":"","admin4_code":"","population":"1298","elevation":"193","dem":"202","timezone":"Pacific/Honolulu","modification_date":"2011-05-14"},{"geonameid":"5849996","name":"Lahaina","asciiname":"Lahaina","alternatenames":"Lahaina,Lakhajna,Lāhainā,laha'ina,rahaina,Лахајна,لاہاینا، ہوائی,लाहाइना,ラハイナ","latitude":"20.87429","longitude":"-156.67663","feature_class":"P","feature_code":"PPL","country_code":"US","cc2":"","admin1_code":"HI","admin2_code":"009","admin3_code":"","admin4_code":"","population":"11704","elevation":"1","dem":"11","timezone":"Pacific/Honolulu","modification_date":"2014-10-07"},{"geonameid":"5850027","name":"Lā‘ie","asciiname":"La'ie","alternatenames":"La'ie,Laie,Lā‘ie","latitude":"21.64547","longitude":"-157.9225","feature_class":"P","feature_code":"PPL","country_code":"US","cc2":"","admin1_code":"HI","admin2_code":"003","admin3_code":"","admin4_code":"","population":"6138","elevation":"3","dem":"4","timezone":"Pacific/Honolulu","modification_date":"2013-03-07"},{"geonameid":"5850059","name":"Lāna‘i City","asciiname":"Lana'i City","alternatenames":"LNY,Lana'i City,Lanai,Lanai City,Lāna‘i City","latitude":"20.82757","longitude":"-156.92399","feature_class":"P","feature_code":"PPL","country_code":"US","cc2":"","admin1_code":"HI","admin2_code":"009","admin3_code":"","admin4_code":"","population":"3102","elevation":"499","dem":"489","timezone":"Pacific/Honolulu","modification_date":"2015-12-20"},{"geonameid":"5850181","name":"Lāwa‘i","asciiname":"Lawa'i","alternatenames":"","latitude":"21.92159","longitude":"-159.50376","feature_class":"P","feature_code":"PPL","country_code":"US","cc2":"","admin1_code":"HI","admin2_code":"007","admin3_code":"","admin4_code":"","population":"2363","elevation":"162","dem":"164","timezone":"Pacific/Honolulu","modification_date":"2013-03-07"},{"geonameid":"5850212","name":"Leilani Estates","asciiname":"Leilani Estates","alternatenames":"","latitude":"19.46972","longitude":"-154.91778","feature_class":"P","feature_code":"PPL","country_code":"US","cc2":"","admin1_code":"HI","admin2_code":"001","admin3_code":"","admin4_code":"","population":"1560","elevation":"235","dem":"238","timezone":"Pacific/Honolulu","modification_date":"2011-05-14"},{"geonameid":"5850213","name":"Leilani Estates","asciiname":"Leilani Estates","alternatenames":"","latitude":"19.4675","longitude":"-154.91722","feature_class":"P","feature_code":"PPL","country_code":"US","cc2":"","admin1_code":"HI","admin2_code":"001","admin3_code":"","admin4_code":"","population":"1560","elevation":"231","dem":"242","timezone":"Pacific/Honolulu","modification_date":"2011-05-14"},{"geonameid":"5850248","name":"Lihue","asciiname":"Lihue","alternatenames":"LIH,Lihu'e,Likhue,Likhueh,Līhuʻe,li hu ai,lihyu,rifue,Лихуе,Лихуэ,ליהואה,लिह्यु,リフエ,利胡埃","latitude":"21.98121","longitude":"-159.3721","feature_class":"P","feature_code":"PPLA2","country_code":"US","cc2":"","admin1_code":"HI","admin2_code":"007","admin3_code":"","admin4_code":"","population":"6455","elevation":"65","dem":"73","timezone":"Pacific/Honolulu","modification_date":"2015-03-24"},{"geonameid":"5850492","name":"Mā‘ili","asciiname":"Ma'ili","alternatenames":"Ma'ili,Maili,Mā‘ili","latitude":"21.41629","longitude":"-158.17531","feature_class":"P","feature_code":"PPL","country_code":"US","cc2":"","admin1_code":"HI","admin2_code":"003","admin3_code":"","admin4_code":"","population":"9488","elevation":"3","dem":"6","timezone":"Pacific/Honolulu","modification_date":"2013-03-07"},{"geonameid":"5850511","name":"Mākaha","asciiname":"Makaha","alternatenames":"Makaha","latitude":"21.46627","longitude":"-158.21037","feature_class":"P","feature_code":"PPL","country_code":"US","cc2":"","admin1_code":"HI","admin2_code":"003","admin3_code":"","admin4_code":"","population":"8278","elevation":"7","dem":"12","timezone":"Pacific/Honolulu","modification_date":"2013-03-07"},{"geonameid":"5850522","name":"Mākaha Valley","asciiname":"Makaha Valley","alternatenames":"Makaha Valley","latitude":"21.47583","longitude":"-158.19918","feature_class":"P","feature_code":"PPL","country_code":"US","cc2":"","admin1_code":"HI","admin2_code":"003","admin3_code":"","admin4_code":"","population":"1341","elevation":"64","dem":"70","timezone":"Pacific/Honolulu","modification_date":"2013-03-08"},{"geonameid":"5850554","name":"Makakilo City","asciiname":"Makakilo City","alternatenames":"","latitude":"21.34694","longitude":"-158.08583","feature_class":"P","feature_code":"PPL","country_code":"US","cc2":"","admin1_code":"HI","admin2_code":"003","admin3_code":"","admin4_code":"","population":"15383","elevation":"131","dem":"134","timezone":"Pacific/Honolulu","modification_date":"2006-01-17"},{"geonameid":"5850616","name":"Makawao","asciiname":"Makawao","alternatenames":"Makauao,Makavao,maka'ova,Макавао,Макауао,मकाओवा","latitude":"20.85694","longitude":"-156.31306","feature_class":"P","feature_code":"PPL","country_code":"US","cc2":"","admin1_code":"HI","admin2_code":"009","admin3_code":"","admin4_code":"","population":"7184","elevation":"481","dem":"486","timezone":"Pacific/Honolulu","modification_date":"2011-05-14"},{"geonameid":"5850966","name":"Maunawili","asciiname":"Maunawili","alternatenames":"","latitude":"21.37278","longitude":"-157.77056","feature_class":"P","feature_code":"PPL","country_code":"US","cc2":"","admin1_code":"HI","admin2_code":"003","admin3_code":"","admin4_code":"","population":"2040","elevation":"21","dem":"30","timezone":"Pacific/Honolulu","modification_date":"2011-05-14"},{"geonameid":"5851030","name":"Mililani Town","asciiname":"Mililani Town","alternatenames":"Mililani","latitude":"21.45","longitude":"-158.00111","feature_class":"P","feature_code":"PPL","country_code":"US","cc2":"","admin1_code":"HI","admin2_code":"003","admin3_code":"","admin4_code":"","population":"27629","elevation":"207","dem":"207","timezone":"Pacific/Honolulu","modification_date":"2011-05-14"},{"geonameid":"5851156","name":"Mokulēia","asciiname":"Mokuleia","alternatenames":"","latitude":"21.57967","longitude":"-158.15313","feature_class":"P","feature_code":"PPL","country_code":"US","cc2":"","admin1_code":"HI","admin2_code":"003","admin3_code":"","admin4_code":"","population":"1811","elevation":"0","dem":"9","timezone":"Pacific/Honolulu","modification_date":"2015-02-09"},{"geonameid":"5851253","name":"Mountain View","asciiname":"Mountain View","alternatenames":"Mauntin-V'ju,Маунтин-Вью","latitude":"19.55583","longitude":"-155.10806","feature_class":"P","feature_code":"PPL","country_code":"US","cc2":"","admin1_code":"HI","admin2_code":"001","admin3_code":"","admin4_code":"","population":"3924","elevation":"437","dem":"440","timezone":"Pacific/Honolulu","modification_date":"2011-05-14"},{"geonameid":"5851349","name":"Nānākuli","asciiname":"Nanakuli","alternatenames":"Nanakuli","latitude":"21.39362","longitude":"-158.15429","feature_class":"P","feature_code":"PPL","country_code":"US","cc2":"","admin1_code":"HI","admin2_code":"003","admin3_code":"","admin4_code":"","population":"12666","elevation":"3","dem":"6","timezone":"Pacific/Honolulu","modification_date":"2015-03-23"},{"geonameid":"5851364","name":"Nanawale Estates","asciiname":"Nanawale Estates","alternatenames":"","latitude":"19.50611","longitude":"-154.91194","feature_class":"P","feature_code":"PPL","country_code":"US","cc2":"","admin1_code":"HI","admin2_code":"001","admin3_code":"","admin4_code":"","population":"1426","elevation":"128","dem":"134","timezone":"Pacific/Honolulu","modification_date":"2011-05-14"},{"geonameid":"5851365","name":"Nanawale Estates","asciiname":"Nanawale Estates","alternatenames":"","latitude":"19.50694","longitude":"-154.91333","feature_class":"P","feature_code":"PPL","country_code":"US","cc2":"","admin1_code":"HI","admin2_code":"001","admin3_code":"","admin4_code":"","population":"1426","elevation":"127","dem":"130","timezone":"Pacific/Honolulu","modification_date":"2011-05-14"},{"geonameid":"5851719","name":"‘Ōma‘o","asciiname":"'Oma'o","alternatenames":"","latitude":"21.92581","longitude":"-159.48818","feature_class":"P","feature_code":"PPL","country_code":"US","cc2":"","admin1_code":"HI","admin2_code":"007","admin3_code":"","admin4_code":"","population":"1301","elevation":"138","dem":"137","timezone":"Pacific/Honolulu","modification_date":"2015-05-25"},{"geonameid":"5851821","name":"Orchidlands Estates","asciiname":"Orchidlands Estates","alternatenames":"","latitude":"19.56084","longitude":"-155.01527","feature_class":"P","feature_code":"PPL","country_code":"US","cc2":"","admin1_code":"HI","admin2_code":"001","admin3_code":"","admin4_code":"","population":"2815","elevation":"165","dem":"170","timezone":"Pacific/Honolulu","modification_date":"2014-10-08"},{"geonameid":"5851902","name":"Pāhala","asciiname":"Pahala","alternatenames":"Pahala","latitude":"19.20297","longitude":"-155.4786","feature_class":"P","feature_code":"PPL","country_code":"US","cc2":"","admin1_code":"HI","admin2_code":"001","admin3_code":"","admin4_code":"","population":"1356","elevation":"277","dem":"284","timezone":"Pacific/Honolulu","modification_date":"2015-05-23"},{"geonameid":"5851942","name":"Paia","asciiname":"Paia","alternatenames":"","latitude":"20.90333","longitude":"-156.36944","feature_class":"P","feature_code":"PPL","country_code":"US","cc2":"","admin1_code":"HI","admin2_code":"009","admin3_code":"","admin4_code":"","population":"2668","elevation":"70","dem":"74","timezone":"Pacific/Honolulu","modification_date":"2011-05-14"},{"geonameid":"5852140","name":"Pāpa‘ikou","asciiname":"Papa'ikou","alternatenames":"Papa'ikou,Papaikou,Pāpa‘ikou","latitude":"19.78718","longitude":"-155.09326","feature_class":"P","feature_code":"PPL","country_code":"US","cc2":"","admin1_code":"HI","admin2_code":"001","admin3_code":"","admin4_code":"","population":"1314","elevation":"69","dem":"68","timezone":"Pacific/Honolulu","modification_date":"2013-03-07"},{"geonameid":"5852275","name":"Pearl City","asciiname":"Pearl City","alternatenames":"","latitude":"21.39734","longitude":"-157.97516","feature_class":"P","feature_code":"PPL","country_code":"US","cc2":"","admin1_code":"HI","admin2_code":"003","admin3_code":"7306149","admin4_code":"","population":"47698","elevation":"27","dem":"31","timezone":"Pacific/Honolulu","modification_date":"2015-05-25"},{"geonameid":"5852322","name":"Pepeekeo","asciiname":"Pepeekeo","alternatenames":"","latitude":"19.83361","longitude":"-155.10722","feature_class":"P","feature_code":"PPL","country_code":"US","cc2":"","admin1_code":"HI","admin2_code":"001","admin3_code":"","admin4_code":"","population":"1789","elevation":"172","dem":"173","timezone":"Pacific/Honolulu","modification_date":"2011-05-14"},{"geonameid":"5852602","name":"Princeville","asciiname":"Princeville","alternatenames":"","latitude":"22.21758","longitude":"-159.47888","feature_class":"P","feature_code":"PPL","country_code":"US","cc2":"","admin1_code":"HI","admin2_code":"007","admin3_code":"","admin4_code":"","population":"2158","elevation":"73","dem":"77","timezone":"Pacific/Honolulu","modification_date":"2011-05-14"},{"geonameid":"5852676","name":"Puhi","asciiname":"Puhi","alternatenames":"","latitude":"21.96888","longitude":"-159.40012","feature_class":"P","feature_code":"PPL","country_code":"US","cc2":"","admin1_code":"HI","admin2_code":"007","admin3_code":"","admin4_code":"","population":"2906","elevation":"97","dem":"120","timezone":"Pacific/Honolulu","modification_date":"2015-03-25"},{"geonameid":"5852697","name":"Pukalani","asciiname":"Pukalani","alternatenames":"","latitude":"20.83667","longitude":"-156.33667","feature_class":"P","feature_code":"PPL","country_code":"US","cc2":"","admin1_code":"HI","admin2_code":"009","admin3_code":"","admin4_code":"","population":"7574","elevation":"465","dem":"467","timezone":"Pacific/Honolulu","modification_date":"2011-05-14"},{"geonameid":"5852773","name":"Punalu‘u","asciiname":"Punalu'u","alternatenames":"Punalu'u,Punaluu,Punalu‘u","latitude":"21.57045","longitude":"-157.87557","feature_class":"P","feature_code":"PPL","country_code":"US","cc2":"","admin1_code":"HI","admin2_code":"003","admin3_code":"","admin4_code":"","population":"1164","elevation":"3","dem":"10","timezone":"Pacific/Honolulu","modification_date":"2013-03-08"},{"geonameid":"5852774","name":"Punaluu","asciiname":"Punaluu","alternatenames":"","latitude":"21.57389","longitude":"-157.87861","feature_class":"P","feature_code":"PPL","country_code":"US","cc2":"","admin1_code":"HI","admin2_code":"003","admin3_code":"","admin4_code":"","population":"1164","elevation":"1","dem":"8","timezone":"Pacific/Honolulu","modification_date":"2011-05-14"},{"geonameid":"5852824","name":"Pupukea","asciiname":"Pupukea","alternatenames":"Pupukea,Pūpūkea","latitude":"21.65456","longitude":"-158.06065","feature_class":"P","feature_code":"PPL","country_code":"US","cc2":"","admin1_code":"HI","admin2_code":"003","admin3_code":"","admin4_code":"","population":"4551","elevation":"7","dem":"13","timezone":"Pacific/Honolulu","modification_date":"2014-09-26"},{"geonameid":"5853965","name":"Village Park","asciiname":"Village Park","alternatenames":"","latitude":"21.39806","longitude":"-158.03028","feature_class":"P","feature_code":"PPL","country_code":"US","cc2":"","admin1_code":"HI","admin2_code":"003","admin3_code":"","admin4_code":"","population":"11099","elevation":"101","dem":"109","timezone":"Pacific/Honolulu","modification_date":"2006-01-17"},{"geonameid":"5853971","name":"Volcano","asciiname":"Volcano","alternatenames":"Volcano Village","latitude":"19.44276","longitude":"-155.23398","feature_class":"P","feature_code":"PPL","country_code":"US","cc2":"","admin1_code":"HI","admin2_code":"001","admin3_code":"","admin4_code":"","population":"2575","elevation":"1143","dem":"1141","timezone":"Pacific/Honolulu","modification_date":"2014-08-18"},{"geonameid":"5853992","name":"Wahiawā","asciiname":"Wahiawa","alternatenames":"Wahiawa","latitude":"21.50279","longitude":"-158.02464","feature_class":"P","feature_code":"PPL","country_code":"US","cc2":"","admin1_code":"HI","admin2_code":"003","admin3_code":"","admin4_code":"","population":"17821","elevation":"287","dem":"290","timezone":"Pacific/Honolulu","modification_date":"2015-02-09"},{"geonameid":"5854171","name":"Waialua","asciiname":"Waialua","alternatenames":"Waialua,Waialua Farmlands","latitude":"21.57688","longitude":"-158.13154","feature_class":"P","feature_code":"PPL","country_code":"US","cc2":"","admin1_code":"HI","admin2_code":"003","admin3_code":"","admin4_code":"","population":"3860","elevation":"8","dem":"9","timezone":"Pacific/Honolulu","modification_date":"2015-10-15"},{"geonameid":"5854173","name":"Waialua","asciiname":"Waialua","alternatenames":"","latitude":"21.10028","longitude":"-156.76139","feature_class":"P","feature_code":"PPL","country_code":"US","cc2":"","admin1_code":"HI","admin2_code":"009","admin3_code":"","admin4_code":"","population":"3751","elevation":"32","dem":"23","timezone":"Pacific/Honolulu","modification_date":"2006-01-17"},{"geonameid":"5854189","name":"Waianae","asciiname":"Waianae","alternatenames":"Wai'anae,Waianae,Wai‘anae","latitude":"21.43621","longitude":"-158.1863","feature_class":"P","feature_code":"PPL","country_code":"US","cc2":"","admin1_code":"HI","admin2_code":"003","admin3_code":"","admin4_code":"","population":"13177","elevation":"5","dem":"0","timezone":"Pacific/Honolulu","modification_date":"2015-05-26"},{"geonameid":"5854354","name":"Waikapū","asciiname":"Waikapu","alternatenames":"Waikapu","latitude":"20.85806","longitude":"-156.50694","feature_class":"P","feature_code":"PPL","country_code":"US","cc2":"","admin1_code":"HI","admin2_code":"009","admin3_code":"","admin4_code":"","population":"2965","elevation":"147","dem":"146","timezone":"Pacific/Honolulu","modification_date":"2015-06-10"},{"geonameid":"5854410","name":"Waikoloa","asciiname":"Waikoloa","alternatenames":"WKL","latitude":"19.93942","longitude":"-155.78931","feature_class":"P","feature_code":"PPL","country_code":"US","cc2":"","admin1_code":"HI","admin2_code":"001","admin3_code":"","admin4_code":"","population":"4806","elevation":"262","dem":"269","timezone":"Pacific/Honolulu","modification_date":"2013-03-08"},{"geonameid":"5854421","name":"Waikoloa Village","asciiname":"Waikoloa Village","alternatenames":"","latitude":"19.9325","longitude":"-155.82778","feature_class":"P","feature_code":"PPL","country_code":"US","cc2":"","admin1_code":"HI","admin2_code":"001","admin3_code":"","admin4_code":"","population":"6362","elevation":"125","dem":"120","timezone":"Pacific/Honolulu","modification_date":"2011-05-14"},{"geonameid":"5854469","name":"Wailua","asciiname":"Wailua","alternatenames":"","latitude":"22.05271","longitude":"-159.33781","feature_class":"P","feature_code":"PPL","country_code":"US","cc2":"","admin1_code":"HI","admin2_code":"007","admin3_code":"","admin4_code":"","population":"2254","elevation":"6","dem":"10","timezone":"Pacific/Honolulu","modification_date":"2016-02-15"},{"geonameid":"5854471","name":"Wailua","asciiname":"Wailua","alternatenames":"","latitude":"20.84861","longitude":"-156.13639","feature_class":"P","feature_code":"PPL","country_code":"US","cc2":"","admin1_code":"HI","admin2_code":"009","admin3_code":"","admin4_code":"","population":"2156","elevation":"70","dem":"87","timezone":"Pacific/Honolulu","modification_date":"2006-01-17"},{"geonameid":"5854496","name":"Wailuku","asciiname":"Wailuku","alternatenames":"Vajluku,huai lu ku,vailuku,Вајлуку,وائلوکو، ہوائی,वैलुकु,怀卢库","latitude":"20.89133","longitude":"-156.50604","feature_class":"P","feature_code":"PPLA2","country_code":"US","cc2":"","admin1_code":"HI","admin2_code":"009","admin3_code":"","admin4_code":"","population":"15313","elevation":"76","dem":"77","timezone":"Pacific/Honolulu","modification_date":"2015-05-25"},{"geonameid":"5854530","name":"Waimalu","asciiname":"Waimalu","alternatenames":"","latitude":"21.40472","longitude":"-157.94333","feature_class":"P","feature_code":"PPL","country_code":"US","cc2":"","admin1_code":"HI","admin2_code":"003","admin3_code":"","admin4_code":"","population":"13730","elevation":"115","dem":"121","timezone":"Pacific/Honolulu","modification_date":"2011-05-14"},{"geonameid":"5854532","name":"Waimanalo","asciiname":"Waimanalo","alternatenames":"BLW,Waimanalo","latitude":"21.34614","longitude":"-157.7238","feature_class":"P","feature_code":"PPLA3","country_code":"US","cc2":"","admin1_code":"HI","admin2_code":"003","admin3_code":"","admin4_code":"","population":"5451","elevation":"7","dem":"10","timezone":"Pacific/Honolulu","modification_date":"2015-03-07"},{"geonameid":"5854535","name":"Waimānalo Beach","asciiname":"Waimanalo Beach","alternatenames":"Waimanalo Beach","latitude":"21.33407","longitude":"-157.70003","feature_class":"P","feature_code":"PPL","country_code":"US","cc2":"","admin1_code":"HI","admin2_code":"003","admin3_code":"","admin4_code":"","population":"4481","elevation":"6","dem":"7","timezone":"Pacific/Honolulu","modification_date":"2015-02-08"},{"geonameid":"5854564","name":"Waimea","asciiname":"Waimea","alternatenames":"Vaimea,Vajmija,vaimiya,waimea,Ваимеа,Вајмија,वैमिया,ワイメア","latitude":"21.95707","longitude":"-159.66893","feature_class":"P","feature_code":"PPL","country_code":"US","cc2":"","admin1_code":"HI","admin2_code":"007","admin3_code":"","admin4_code":"","population":"1855","elevation":"7","dem":"11","timezone":"Pacific/Honolulu","modification_date":"2011-05-14"},{"geonameid":"5854571","name":"Waimea","asciiname":"Waimea","alternatenames":"MUE,Waimea,Waimea - Bis Island","latitude":"20.02323","longitude":"-155.67288","feature_class":"P","feature_code":"PPL","country_code":"US","cc2":"","admin1_code":"HI","admin2_code":"001","admin3_code":"","admin4_code":"","population":"9212","elevation":"813","dem":"814","timezone":"Pacific/Honolulu","modification_date":"2016-01-05"},{"geonameid":"5854599","name":"Wainaku","asciiname":"Wainaku","alternatenames":"","latitude":"19.74472","longitude":"-155.095","feature_class":"P","feature_code":"PPL","country_code":"US","cc2":"","admin1_code":"HI","admin2_code":"001","admin3_code":"","admin4_code":"","population":"1224","elevation":"78","dem":"81","timezone":"Pacific/Honolulu","modification_date":"2011-05-14"},{"geonameid":"5854686","name":"Waipahu","asciiname":"Waipahu","alternatenames":"Vajpakhu,vaipahu,waipafu,Вајпаху,ואיפאהו,وائپاہو، ہوائی,वैपाहु,ワイパフ","latitude":"21.38667","longitude":"-158.00917","feature_class":"P","feature_code":"PPL","country_code":"US","cc2":"","admin1_code":"HI","admin2_code":"003","admin3_code":"","admin4_code":"","population":"38216","elevation":"19","dem":"24","timezone":"Pacific/Honolulu","modification_date":"2011-05-14"},{"geonameid":"5854717","name":"Waipio","asciiname":"Waipio","alternatenames":"Waipio","latitude":"21.41823","longitude":"-157.99906","feature_class":"P","feature_code":"PPL","country_code":"US","cc2":"","admin1_code":"HI","admin2_code":"003","admin3_code":"","admin4_code":"","population":"11674","elevation":"116","dem":"120","timezone":"Pacific/Honolulu","modification_date":"2015-02-08"},{"geonameid":"5854718","name":"Waipi‘o Acres","asciiname":"Waipi'o Acres","alternatenames":"Waipi'o Acres,Waipio Acres,Waipi‘o Acres","latitude":"21.46485","longitude":"-158.01331","feature_class":"P","feature_code":"PPL","country_code":"US","cc2":"","admin1_code":"HI","admin2_code":"003","admin3_code":"","admin4_code":"","population":"5236","elevation":"211","dem":"210","timezone":"Pacific/Honolulu","modification_date":"2013-03-07"},{"geonameid":"5854857","name":"Whitmore Village","asciiname":"Whitmore Village","alternatenames":"","latitude":"21.51429","longitude":"-158.02464","feature_class":"P","feature_code":"PPL","country_code":"US","cc2":"","admin1_code":"HI","admin2_code":"003","admin3_code":"","admin4_code":"","population":"4499","elevation":"309","dem":"308","timezone":"Pacific/Honolulu","modification_date":"2015-02-09"},{"geonameid":"5855028","name":"‘Ele‘ele","asciiname":"'Ele'ele","alternatenames":"Eleele","latitude":"21.90738","longitude":"-159.58322","feature_class":"P","feature_code":"PPL","country_code":"US","cc2":"","admin1_code":"HI","admin2_code":"007","admin3_code":"","admin4_code":"","population":"2390","elevation":"36","dem":"37","timezone":"Pacific/Honolulu","modification_date":"2015-05-15"},{"geonameid":"5855051","name":"‘Ewa Beach","asciiname":"'Ewa Beach","alternatenames":"'Ewa Beach,Ewa Beach,‘Ewa Beach","latitude":"21.31556","longitude":"-158.00722","feature_class":"P","feature_code":"PPL","country_code":"US","cc2":"","admin1_code":"HI","admin2_code":"003","admin3_code":"","admin4_code":"","population":"14955","elevation":"3","dem":"7","timezone":"Pacific/Honolulu","modification_date":"2014-10-07"},{"geonameid":"5855070","name":"‘Ewa Gentry","asciiname":"'Ewa Gentry","alternatenames":"'Ewa Gentry,Ewa Gentry,‘Ewa Gentry","latitude":"21.33999","longitude":"-158.03039","feature_class":"P","feature_code":"PPL","country_code":"US","cc2":"","admin1_code":"HI","admin2_code":"003","admin3_code":"","admin4_code":"","population":"22690","elevation":"12","dem":"14","timezone":"Pacific/Honolulu","modification_date":"2015-05-28"},{"geonameid":"5855073","name":"‘Ewa Villages","asciiname":"'Ewa Villages","alternatenames":"'Ewa Villages,Ewa Villages,‘Ewa Villages","latitude":"21.34127","longitude":"-158.0397","feature_class":"P","feature_code":"PPL","country_code":"US","cc2":"","admin1_code":"HI","admin2_code":"003","admin3_code":"","admin4_code":"","population":"6108","elevation":"15","dem":"19","timezone":"Pacific/Honolulu","modification_date":"2015-05-28"},{"geonameid":"5855088","name":"Fern Acres","asciiname":"Fern Acres","alternatenames":"","latitude":"19.51222","longitude":"-155.08028","feature_class":"P","feature_code":"PPL","country_code":"US","cc2":"","admin1_code":"HI","admin2_code":"001","admin3_code":"","admin4_code":"","population":"1504","elevation":"467","dem":"473","timezone":"Pacific/Honolulu","modification_date":"2011-05-14"},{"geonameid":"5855319","name":"Hālawa","asciiname":"Halawa","alternatenames":"Halawa","latitude":"21.37944","longitude":"-157.92167","feature_class":"P","feature_code":"PPL","country_code":"US","cc2":"","admin1_code":"HI","admin2_code":"003","admin3_code":"","admin4_code":"","population":"14014","elevation":"54","dem":"58","timezone":"Pacific/Honolulu","modification_date":"2011-05-15"},{"geonameid":"5855327","name":"Hālawa Heights","asciiname":"Halawa Heights","alternatenames":"","latitude":"21.37848","longitude":"-157.91388","feature_class":"P","feature_code":"PPL","country_code":"US","cc2":"","admin1_code":"HI","admin2_code":"003","admin3_code":"","admin4_code":"","population":"13408","elevation":"72","dem":"74","timezone":"Pacific/Honolulu","modification_date":"2013-03-07"},{"geonameid":"5855420","name":"Hale‘iwa","asciiname":"Hale'iwa","alternatenames":"Hale'iwa,Haleiwa,Hale‘iwa","latitude":"21.58849","longitude":"-158.11051","feature_class":"P","feature_code":"PPL","country_code":"US","cc2":"","admin1_code":"HI","admin2_code":"003","admin3_code":"","admin4_code":"","population":"3970","elevation":"1","dem":"6","timezone":"Pacific/Honolulu","modification_date":"2013-03-07"},{"geonameid":"5855471","name":"Hāna","asciiname":"Hana","alternatenames":"HNM,Hana","latitude":"20.75806","longitude":"-155.99028","feature_class":"P","feature_code":"PPL","country_code":"US","cc2":"","admin1_code":"HI","admin2_code":"009","admin3_code":"","admin4_code":"","population":"1235","elevation":"39","dem":"38","timezone":"Pacific/Honolulu","modification_date":"2011-05-15"},{"geonameid":"5855629","name":"Hanamā‘ulu","asciiname":"Hanama'ulu","alternatenames":"Hanamaulu","latitude":"21.99773","longitude":"-159.35918","feature_class":"P","feature_code":"PPL","country_code":"US","cc2":"","admin1_code":"HI","admin2_code":"007","admin3_code":"","admin4_code":"","population":"3835","elevation":"49","dem":"121","timezone":"Pacific/Honolulu","modification_date":"2015-05-15"},{"geonameid":"5855631","name":"Hanapēpē","asciiname":"Hanapepe","alternatenames":"Hanapepe","latitude":"21.90733","longitude":"-159.5944","feature_class":"P","feature_code":"PPL","country_code":"US","cc2":"","admin1_code":"HI","admin2_code":"007","admin3_code":"","admin4_code":"","population":"2638","elevation":"9","dem":"5","timezone":"Pacific/Honolulu","modification_date":"2013-03-07"},{"geonameid":"5855644","name":"Hanapēpē Heights","asciiname":"Hanapepe Heights","alternatenames":"","latitude":"21.91633","longitude":"-159.58995","feature_class":"P","feature_code":"PPL","country_code":"US","cc2":"","admin1_code":"HI","admin2_code":"007","admin3_code":"","admin4_code":"","population":"2692","elevation":"48","dem":"49","timezone":"Pacific/Honolulu","modification_date":"2013-03-07"},{"geonameid":"5855741","name":"Hau‘ula","asciiname":"Hau'ula","alternatenames":"Hau'ula,Hauula,Hau‘ula","latitude":"21.6076","longitude":"-157.90868","feature_class":"P","feature_code":"PPL","country_code":"US","cc2":"","admin1_code":"HI","admin2_code":"003","admin3_code":"","admin4_code":"","population":"4148","elevation":"1","dem":"5","timezone":"Pacific/Honolulu","modification_date":"2013-03-07"},{"geonameid":"5855802","name":"Hawaiian Beaches","asciiname":"Hawaiian Beaches","alternatenames":"","latitude":"19.54306","longitude":"-154.91583","feature_class":"P","feature_code":"PPL","country_code":"US","cc2":"","admin1_code":"HI","admin2_code":"001","admin3_code":"","admin4_code":"","population":"4280","elevation":"78","dem":"80","timezone":"Pacific/Honolulu","modification_date":"2011-05-14"},{"geonameid":"5855803","name":"Hawaiian Acres","asciiname":"Hawaiian Acres","alternatenames":"","latitude":"19.53806","longitude":"-155.05222","feature_class":"P","feature_code":"PPL","country_code":"US","cc2":"","admin1_code":"HI","admin2_code":"001","admin3_code":"","admin4_code":"","population":"2700","elevation":"309","dem":"316","timezone":"Pacific/Honolulu","modification_date":"2011-05-14"},{"geonameid":"5855809","name":"Hawaiian Paradise Park","asciiname":"Hawaiian Paradise Park","alternatenames":"","latitude":"19.59333","longitude":"-154.97306","feature_class":"P","feature_code":"PPL","country_code":"US","cc2":"","admin1_code":"HI","admin2_code":"001","admin3_code":"","admin4_code":"","population":"11404","elevation":"45","dem":"50","timezone":"Pacific/Honolulu","modification_date":"2011-05-14"},{"geonameid":"5855815","name":"Hawaiian Ocean View","asciiname":"Hawaiian Ocean View","alternatenames":"","latitude":"19.06861","longitude":"-155.765","feature_class":"P","feature_code":"PPL","country_code":"US","cc2":"","admin1_code":"HI","admin2_code":"001","admin3_code":"","admin4_code":"","population":"4437","elevation":"480","dem":"483","timezone":"Pacific/Honolulu","modification_date":"2011-05-14"},{"geonameid":"5855818","name":"Hawaiian Paradise Park","asciiname":"Hawaiian Paradise Park","alternatenames":"","latitude":"19.50139","longitude":"-154.97056","feature_class":"P","feature_code":"PPL","country_code":"US","cc2":"","admin1_code":"HI","admin2_code":"001","admin3_code":"","admin4_code":"","population":"11404","elevation":"222","dem":"225","timezone":"Pacific/Honolulu","modification_date":"2011-05-14"},{"geonameid":"5855841","name":"Hāwī","asciiname":"Hawi","alternatenames":"Hawi","latitude":"20.24122","longitude":"-155.83351","feature_class":"P","feature_code":"PPL","country_code":"US","cc2":"","admin1_code":"HI","admin2_code":"001","admin3_code":"","admin4_code":"","population":"1081","elevation":"159","dem":"170","timezone":"Pacific/Honolulu","modification_date":"2015-05-25"},{"geonameid":"5855847","name":"He‘eia","asciiname":"He'eia","alternatenames":"He'eia,Heeia,He‘eia","latitude":"21.43054","longitude":"-157.81611","feature_class":"P","feature_code":"PPL","country_code":"US","cc2":"","admin1_code":"HI","admin2_code":"003","admin3_code":"","admin4_code":"","population":"4963","elevation":"28","dem":"7","timezone":"Pacific/Honolulu","modification_date":"2015-05-27"},{"geonameid":"5855927","name":"Hilo","asciiname":"Hilo","alternatenames":"Baie de Hilo,Chilo,Hilas,Hilo,ITO,Khilo,hillo,hilo,hiro,hylw,xi lu,xi luo,Χίλο,Хило,Хіло,הילו,ہیلو، ہوائی,हिलो,ヒロ,希洛,希路,힐로","latitude":"19.72991","longitude":"-155.09073","feature_class":"P","feature_code":"PPLA2","country_code":"US","cc2":"","admin1_code":"HI","admin2_code":"001","admin3_code":"","admin4_code":"","population":"43263","elevation":"18","dem":"30","timezone":"Pacific/Honolulu","modification_date":"2015-02-09"},{"geonameid":"5856050","name":"Hōlualoa","asciiname":"Holualoa","alternatenames":"Holualoa","latitude":"19.61979","longitude":"-155.94831","feature_class":"P","feature_code":"PPL","country_code":"US","cc2":"","admin1_code":"HI","admin2_code":"001","admin3_code":"","admin4_code":"","population":"8538","elevation":"423","dem":"431","timezone":"Pacific/Honolulu","modification_date":"2013-03-07"},{"geonameid":"5856094","name":"Honalo","asciiname":"Honalo","alternatenames":"","latitude":"19.54639","longitude":"-155.93194","feature_class":"P","feature_code":"PPL","country_code":"US","cc2":"","admin1_code":"HI","admin2_code":"001","admin3_code":"","admin4_code":"","population":"2423","elevation":"424","dem":"433","timezone":"Pacific/Honolulu","modification_date":"2011-05-14"},{"geonameid":"5856111","name":"Honoka‘a","asciiname":"Honoka'a","alternatenames":"Honoka'a,Honokaa,Honoka‘a","latitude":"20.07931","longitude":"-155.46691","feature_class":"P","feature_code":"PPL","country_code":"US","cc2":"","admin1_code":"HI","admin2_code":"001","admin3_code":"","admin4_code":"","population":"2258","elevation":"332","dem":"334","timezone":"Pacific/Honolulu","modification_date":"2013-03-07"},{"geonameid":"5856195","name":"Honolulu","asciiname":"Honolulu","alternatenames":"Chonoloulou,Gonolulu,Gorad Ganalulu,HNL,Honolulu,Honolulú,Honolúlú,Khonolulu,Than-hiong-san,Thàn-hiông-sân,hanalulu,hanululu,honalulu,honollullu,honolulu,honoruru,hwnwlwlw,tan xiang shan,Χονολουλού,Гонолулу,Горад Ганалулу,Хонолулу,Һонолулу,Հոնոլուլու,האנאלולו,הונולולו,هونولولو,ہwnwlwlw  ہwayy,ہونولولو,ہونولولو، ہوائی,हानलूलू,होनालुलु,होनोलुलु,होनोलूलू,হনুলুলু,ହନଲୁଲୁ,ஹொனலுலு,ಹೊನೊಲುಲು,โฮโนลูลู,ཧོ་ནོ་ལུ་ལུ།,ဟိုနိုလူလူမြို့,ჰონოლულუ,ሆኖሉሉ,ホノルル,檀香山,호놀룰루","latitude":"21.30694","longitude":"-157.85833","feature_class":"P","feature_code":"PPLA","country_code":"US","cc2":"","admin1_code":"HI","admin2_code":"003","admin3_code":"","admin4_code":"","population":"371657","elevation":"5","dem":"18","timezone":"Pacific/Honolulu","modification_date":"2012-06-06"},{"geonameid":"5856430","name":"‘Aiea","asciiname":"'Aiea","alternatenames":"'Aiea,Aiea,‘Aiea","latitude":"21.38222","longitude":"-157.93361","feature_class":"P","feature_code":"PPL","country_code":"US","cc2":"","admin1_code":"HI","admin2_code":"003","admin3_code":"","admin4_code":"","population":"9338","elevation":"30","dem":"36","timezone":"Pacific/Honolulu","modification_date":"2011-05-14"},{"geonameid":"5856516","name":"‘Āhuimanu","asciiname":"'Ahuimanu","alternatenames":"'Ahuimanu,Ahuimanu,‘Āhuimanu","latitude":"21.44472","longitude":"-157.83778","feature_class":"P","feature_code":"PPL","country_code":"US","cc2":"","admin1_code":"HI","admin2_code":"003","admin3_code":"","admin4_code":"","population":"8810","elevation":"25","dem":"33","timezone":"Pacific/Honolulu","modification_date":"2011-05-14"},{"geonameid":"5856563","name":"Iroquois Point","asciiname":"Iroquois Point","alternatenames":"","latitude":"21.32776","longitude":"-157.98301","feature_class":"P","feature_code":"PPL","country_code":"US","cc2":"","admin1_code":"HI","admin2_code":"003","admin3_code":"","admin4_code":"","population":"3374","elevation":"2","dem":"8","timezone":"Pacific/Honolulu","modification_date":"2015-02-11"},{"geonameid":"5856759","name":"Ka‘a‘awa","asciiname":"Ka'a'awa","alternatenames":"Kaaawa","latitude":"21.55445","longitude":"-157.85103","feature_class":"P","feature_code":"PPL","country_code":"US","cc2":"","admin1_code":"HI","admin2_code":"003","admin3_code":"","admin4_code":"","population":"1379","elevation":"2","dem":"4","timezone":"Pacific/Honolulu","modification_date":"2015-05-15"},{"geonameid":"5856844","name":"Kā‘anapali","asciiname":"Ka'anapali","alternatenames":"Ka'anapali,Kaanapali,Kā‘anapali","latitude":"20.92881","longitude":"-156.69422","feature_class":"P","feature_code":"PPL","country_code":"US","cc2":"","admin1_code":"HI","admin2_code":"009","admin3_code":"","admin4_code":"","population":"1045","elevation":"1","dem":"6","timezone":"Pacific/Honolulu","modification_date":"2013-03-07"},{"geonameid":"5856852","name":"Kaanapali Landing","asciiname":"Kaanapali Landing","alternatenames":"","latitude":"20.9309","longitude":"-156.68778","feature_class":"P","feature_code":"PPL","country_code":"US","cc2":"","admin1_code":"HI","admin2_code":"009","admin3_code":"","admin4_code":"","population":"1943","elevation":"0","dem":"43","timezone":"Pacific/Honolulu","modification_date":"2008-05-23"},{"geonameid":"5857040","name":"Ainaloa","asciiname":"Ainaloa","alternatenames":"","latitude":"19.52694","longitude":"-154.99306","feature_class":"P","feature_code":"PPL","country_code":"US","cc2":"","admin1_code":"HI","admin2_code":"001","admin3_code":"","admin4_code":"","population":"2965","elevation":"215","dem":"219","timezone":"Pacific/Honolulu","modification_date":"2011-05-14"},{"geonameid":"5857121","name":"Anahola","asciiname":"Anahola","alternatenames":"","latitude":"22.14226","longitude":"-159.31388","feature_class":"P","feature_code":"PPL","country_code":"US","cc2":"","admin1_code":"HI","admin2_code":"007","admin3_code":"","admin4_code":"","population":"2223","elevation":"4","dem":"11","timezone":"Pacific/Honolulu","modification_date":"2011-05-14"},{"geonameid":"5857264","name":"Captain Cook","asciiname":"Captain Cook","alternatenames":"","latitude":"19.49694","longitude":"-155.92167","feature_class":"P","feature_code":"PPL","country_code":"US","cc2":"","admin1_code":"HI","admin2_code":"001","admin3_code":"","admin4_code":"","population":"3429","elevation":"381","dem":"381","timezone":"Pacific/Honolulu","modification_date":"2011-05-14"},{"geonameid":"5858289","name":"Butte","asciiname":"Butte","alternatenames":"","latitude":"61.54222","longitude":"-149.03333","feature_class":"P","feature_code":"PPL","country_code":"US","cc2":"","admin1_code":"AK","admin2_code":"170","admin3_code":"","admin4_code":"","population":"3246","elevation":"28","dem":"30","timezone":"America/Anchorage","modification_date":"2011-05-14"},{"geonameid":"5859679","name":"Cohoe","asciiname":"Cohoe","alternatenames":"","latitude":"60.36861","longitude":"-151.30639","feature_class":"P","feature_code":"PPL","country_code":"US","cc2":"","admin1_code":"AK","admin2_code":"122","admin3_code":"","admin4_code":"","population":"1364","elevation":"17","dem":"7","timezone":"America/Anchorage","modification_date":"2011-05-14"},{"geonameid":"5859699","name":"College","asciiname":"College","alternatenames":"","latitude":"64.85694","longitude":"-147.80278","feature_class":"P","feature_code":"PPL","country_code":"US","cc2":"","admin1_code":"AK","admin2_code":"090","admin3_code":"","admin4_code":"","population":"12964","elevation":"137","dem":"132","timezone":"America/Anchorage","modification_date":"2011-05-14"},{"geonameid":"5859888","name":"Cordova","asciiname":"Cordova","alternatenames":"CDV,Kordova,ke er duo wa,kodoba,kordobha,kwrdwfa,kwrdwwa  alaska,Кордова,كوردوفا,کوردووا، آلاسکا,कोर्दोभा,コードバ,科尔多瓦","latitude":"60.54278","longitude":"-145.7575","feature_class":"P","feature_code":"PPL","country_code":"US","cc2":"","admin1_code":"AK","admin2_code":"261","admin3_code":"","admin4_code":"","population":"2239","elevation":"29","dem":"43","timezone":"America/Anchorage","modification_date":"2011-05-14"},{"geonameid":"5860661","name":"Diamond Ridge","asciiname":"Diamond Ridge","alternatenames":"","latitude":"59.67611","longitude":"-151.5575","feature_class":"P","feature_code":"PPL","country_code":"US","cc2":"","admin1_code":"AK","admin2_code":"122","admin3_code":"","admin4_code":"","population":"1156","elevation":"324","dem":"326","timezone":"America/Anchorage","modification_date":"2011-05-14"},{"geonameid":"5860695","name":"Dillingham","asciiname":"Dillingham","alternatenames":"Curyuk,DLG,Dilingkham,Dillingkhem,Dillinkhehm,di lin e mu,dilingahyama,dylyngham  alaska,dylynjham,Дилингхам,Диллингхем,Диллинхэм,Діллінгхем,ديلينجهام,دیلینگهام، آلاسکا,ڈیلینگہیم، الاسکا,डिलिङ्गह्याम,迪林厄姆","latitude":"59.03972","longitude":"-158.4575","feature_class":"P","feature_code":"PPL","country_code":"US","cc2":"","admin1_code":"AK","admin2_code":"070","admin3_code":"","admin4_code":"","population":"2329","elevation":"31","dem":"26","timezone":"America/Anchorage","modification_date":"2013-05-22"},{"geonameid":"5861117","name":"Dutch Harbor","asciiname":"Dutch Harbor","alternatenames":"DUT,datchihaba,ダッチハーバー","latitude":"53.8898","longitude":"-166.5422","feature_class":"P","feature_code":"PPL","country_code":"US","cc2":"","admin1_code":"AK","admin2_code":"016","admin3_code":"","admin4_code":"","population":"4376","elevation":"4","dem":"16","timezone":"America/Adak","modification_date":"2011-04-12"},{"geonameid":"5861187","name":"Eagle River","asciiname":"Eagle River","alternatenames":"","latitude":"61.32139","longitude":"-149.56778","feature_class":"P","feature_code":"PPL","country_code":"US","cc2":"","admin1_code":"AK","admin2_code":"020","admin3_code":"","admin4_code":"","population":"24793","elevation":"98","dem":"106","timezone":"America/Anchorage","modification_date":"2013-05-31"},{"geonameid":"5861769","name":"Ester","asciiname":"Ester","alternatenames":"Ehster,Ester,astr  alaska,estara,Естер,Эстер,استر، آلاسکا,एस्टर","latitude":"64.84722","longitude":"-148.01444","feature_class":"P","feature_code":"PPL","country_code":"US","cc2":"","admin1_code":"AK","admin2_code":"090","admin3_code":"","admin4_code":"","population":"2422","elevation":"224","dem":"185","timezone":"America/Anchorage","modification_date":"2011-05-14"},{"geonameid":"5861897","name":"Fairbanks","asciiname":"Fairbanks","alternatenames":"FAI,Fairbanks,Fehrbanks,Fehrbenks,Ferbanks,Ferbenks,Ferbenksa,Feurbanks,Feyrbanks,Fērbenksa,feabankusu,fei er ban ke si,frbnks,fyrbanks,fyyr bynks  alaska,peeobaengkeuseu,pherabamksa,pheyarabyanksa,pyyrbnqs,Фербанкс,Фербенкс,Феърбанкс,Фэрбанкс,Фэрбенкс,פיירבנקס,فربنکس,فيربانكس,فیئر بینکس، الاسکا,फेयरब्याङ्क्स,फेरबँक्स,ფერბენკსი,フェアバンクス,費爾班克斯,페어뱅크스","latitude":"64.83778","longitude":"-147.71639","feature_class":"P","feature_code":"PPLA2","country_code":"US","cc2":"","admin1_code":"AK","admin2_code":"090","admin3_code":"","admin4_code":"","population":"31535","elevation":"136","dem":"132","timezone":"America/Anchorage","modification_date":"2011-05-14"},{"geonameid":"5862590","name":"Fritz Creek","asciiname":"Fritz Creek","alternatenames":"","latitude":"59.73611","longitude":"-151.29528","feature_class":"P","feature_code":"PPL","country_code":"US","cc2":"","admin1_code":"AK","admin2_code":"122","admin3_code":"","admin4_code":"","population":"1932","elevation":"366","dem":"381","timezone":"America/Anchorage","modification_date":"2011-05-14"},{"geonameid":"5862727","name":"Gateway","asciiname":"Gateway","alternatenames":"","latitude":"61.57278","longitude":"-149.24083","feature_class":"P","feature_code":"PPL","country_code":"US","cc2":"","admin1_code":"AK","admin2_code":"170","admin3_code":"","admin4_code":"","population":"5552","elevation":"63","dem":"60","timezone":"America/Anchorage","modification_date":"2011-05-14"},{"geonameid":"5862837","name":"Girdwood","asciiname":"Girdwood","alternatenames":"","latitude":"60.9425","longitude":"-149.16639","feature_class":"P","feature_code":"PPL","country_code":"US","cc2":"","admin1_code":"AK","admin2_code":"020","admin3_code":"","admin4_code":"","population":"2250","elevation":"11","dem":"37","timezone":"America/Anchorage","modification_date":"2013-05-31"},{"geonameid":"5863850","name":"Healy","asciiname":"Healy","alternatenames":"","latitude":"63.85694","longitude":"-148.96611","feature_class":"P","feature_code":"PPL","country_code":"US","cc2":"","admin1_code":"AK","admin2_code":"068","admin3_code":"","admin4_code":"","population":"1021","elevation":"403","dem":"421","timezone":"America/Anchorage","modification_date":"2014-10-08"},{"geonameid":"5864145","name":"Homer","asciiname":"Homer","alternatenames":"Gomer,HOM,Khomer,he ma,homa,homara,hwmr,hwmyr,mylr lndyng  alaska,Гомер,Хомер,הומר,میلر لندینگ، آلاسکا,هومير,ہومر، الاسکا,होमर,ホーマー,荷马","latitude":"59.6425","longitude":"-151.5494","feature_class":"P","feature_code":"PPL","country_code":"US","cc2":"","admin1_code":"AK","admin2_code":"122","admin3_code":"","admin4_code":"","population":"5003","elevation":"33","dem":"37","timezone":"America/Anchorage","modification_date":"2014-11-23"},{"geonameid":"5864197","name":"Hooper Bay","asciiname":"Hooper Bay","alternatenames":"HPB,Khuper Bej,Khuper-Bej,hu po wan,hupara be,hupeobei,hwbr bay,hwpr by  alaska,Хупер Беј,Хупер-Бей,هوبر باي,هوپر بی، آلاسکا,हूपर बे,胡珀湾,후퍼베이","latitude":"61.53111","longitude":"-166.09667","feature_class":"P","feature_code":"PPL","country_code":"US","cc2":"","admin1_code":"AK","admin2_code":"270","admin3_code":"","admin4_code":"","population":"1093","elevation":"8","dem":"1","timezone":"America/Nome","modification_date":"2011-05-14"},{"geonameid":"5864312","name":"Houston","asciiname":"Houston","alternatenames":"Kh'juston,Хьюстон","latitude":"61.63028","longitude":"-149.81806","feature_class":"P","feature_code":"PPL","country_code":"US","cc2":"","admin1_code":"AK","admin2_code":"170","admin3_code":"","admin4_code":"","population":"1912","elevation":"76","dem":"75","timezone":"America/Anchorage","modification_date":"2011-05-14"},{"geonameid":"5865702","name":"Kalifornsky","asciiname":"Kalifornsky","alternatenames":"","latitude":"60.41833","longitude":"-151.29","feature_class":"P","feature_code":"PPL","country_code":"US","cc2":"","admin1_code":"AK","admin2_code":"122","admin3_code":"","admin4_code":"","population":"7850","elevation":"7","dem":"14","timezone":"America/Anchorage","modification_date":"2011-05-14"},{"geonameid":"5866063","name":"Kenai","asciiname":"Kenai","alternatenames":"ENA,Kenaj,Kinaj,ji nai,kena'i,kinai,knay  alaska,kynay,kynayy  alaska,Кенай,Кинај,קנאי,كيناي,کنای، آلاسکا,کینائی، الاسکا,केनाइ,キナイ,基奈","latitude":"60.55444","longitude":"-151.25833","feature_class":"P","feature_code":"PPL","country_code":"US","cc2":"","admin1_code":"AK","admin2_code":"122","admin3_code":"","admin4_code":"","population":"7100","elevation":"22","dem":"1","timezone":"America/Anchorage","modification_date":"2011-05-14"},{"geonameid":"5866583","name":"Kodiak","asciiname":"Kodiak","alternatenames":"ADQ,Gorad Kadz'jak,Kad'jak,Kodiak,Kodiak uhartea,Kodijak,Saint Paul Harbor,ke di ya ke,kodiaeg,kodiakku,kodiyaka,kwdyak,kwdyak  alaska,Горад Кадзьяк,Кадьяк,Кодијак,קודיאק,كودياك,کودیاک، آلاسکا,کوڈیاک، الاسکا,कोदियाक,コディアック,科迪亚克,코디액","latitude":"57.79","longitude":"-152.40722","feature_class":"P","feature_code":"PPLA2","country_code":"US","cc2":"","admin1_code":"AK","admin2_code":"150","admin3_code":"","admin4_code":"","population":"6130","elevation":"15","dem":"9","timezone":"America/Anchorage","modification_date":"2014-02-26"},{"geonameid":"5866726","name":"Kotzebue","asciiname":"Kotzebue","alternatenames":"Kocebu,Kotzobue,OTZ,Qikiqtagruk,Qikiqtaġruk,ke ce bu,kotjebyu,kwtzabyw  alaska,kwtzbyw,Коцебу,كوتزبيو,کوتزابیو، الاسکا,کوتزه‌بیو، آلاسکا,कोत्जेब्यु,科策布","latitude":"66.89846","longitude":"-162.59809","feature_class":"P","feature_code":"PPLA2","country_code":"US","cc2":"","admin1_code":"AK","admin2_code":"188","admin3_code":"","admin4_code":"","population":"3201","elevation":"6","dem":"1","timezone":"America/Nome","modification_date":"2014-10-07"},{"geonameid":"5867241","name":"Lazy Mountain","asciiname":"Lazy Mountain","alternatenames":"","latitude":"61.62611","longitude":"-148.94556","feature_class":"P","feature_code":"PPL","country_code":"US","cc2":"","admin1_code":"AK","admin2_code":"170","admin3_code":"","admin4_code":"","population":"1479","elevation":"822","dem":"817","timezone":"America/Anchorage","modification_date":"2011-05-14"},{"geonameid":"5868651","name":"Meadow Lakes","asciiname":"Meadow Lakes","alternatenames":"","latitude":"61.62472","longitude":"-149.60111","feature_class":"P","feature_code":"PPL","country_code":"US","cc2":"","admin1_code":"AK","admin2_code":"170","admin3_code":"","admin4_code":"","population":"7570","elevation":"116","dem":"111","timezone":"America/Anchorage","modification_date":"2011-05-14"},{"geonameid":"5869956","name":"Nikiski","asciiname":"Nikiski","alternatenames":"","latitude":"60.69028","longitude":"-151.28889","feature_class":"P","feature_code":"PPL","country_code":"US","cc2":"","admin1_code":"AK","admin2_code":"122","admin3_code":"","admin4_code":"","population":"4493","elevation":"40","dem":"39","timezone":"America/Anchorage","modification_date":"2011-05-14"},{"geonameid":"5870133","name":"Nome","asciiname":"Nome","alternatenames":"Nom,Nome,Noum,OME,nom,noma,nome,nomu,nuo mu,nwm,nwm  alaska,nwmy,Ном,Ноум,נום,نوم، آلاسکا,نوم، الاسکا,نومي,नोम,नोमे,ノーム,诺姆,놈","latitude":"64.50111","longitude":"-165.40639","feature_class":"P","feature_code":"PPL","country_code":"US","cc2":"","admin1_code":"AK","admin2_code":"180","admin3_code":"","admin4_code":"","population":"3598","elevation":"6","dem":"5","timezone":"America/Nome","modification_date":"2011-05-14"},{"geonameid":"5870294","name":"North Pole","asciiname":"North Pole","alternatenames":"Nort Pol,Nort-Poul,bei ji,nartha pola,nosuporu,nwrth bwl,nwrth pwl  alaska,Норт Пол,Норт-Поул,نورث بول,نورث پول، آلاسکا,नर्थ पोल,ノースポール,北极","latitude":"64.75111","longitude":"-147.34944","feature_class":"P","feature_code":"PPL","country_code":"US","cc2":"","admin1_code":"AK","admin2_code":"090","admin3_code":"","admin4_code":"","population":"2117","elevation":"147","dem":"148","timezone":"America/Anchorage","modification_date":"2011-05-14"},{"geonameid":"5870441","name":"Nuiqsut","asciiname":"Nuiqsut","alternatenames":"NUI","latitude":"70.2175","longitude":"-150.97639","feature_class":"P","feature_code":"PPL","country_code":"US","cc2":"","admin1_code":"AK","admin2_code":"185","admin3_code":"","admin4_code":"","population":"3402","elevation":"4","dem":"6","timezone":"America/Anchorage","modification_date":"2012-03-02"},{"geonameid":"5871146","name":"Palmer","asciiname":"Palmer","alternatenames":"PAQ,Palmer,balmr,pa er mo,palmara,palmr  alaska,pama,pamr  alaska,Палмер,פאלמר,بالمر,پالمر، آلاسکا,پامر، الاسکا,पाल्मर,パーマー,帕尔默","latitude":"61.59972","longitude":"-149.11278","feature_class":"P","feature_code":"PPLA2","country_code":"US","cc2":"","admin1_code":"AK","admin2_code":"170","admin3_code":"","admin4_code":"","population":"5937","elevation":"72","dem":"62","timezone":"America/Anchorage","modification_date":"2011-05-14"},{"geonameid":"5872126","name":"Prudhoe Bay","asciiname":"Prudhoe Bay","alternatenames":"Prudhoe Bay,SCC","latitude":"70.25528","longitude":"-148.33722","feature_class":"P","feature_code":"PPL","country_code":"US","cc2":"","admin1_code":"AK","admin2_code":"185","admin3_code":"","admin4_code":"","population":"2174","elevation":"14","dem":"13","timezone":"America/Anchorage","modification_date":"2014-01-05"},{"geonameid":"5872730","name":"Ridgeway","asciiname":"Ridgeway","alternatenames":"","latitude":"60.53194","longitude":"-151.08528","feature_class":"P","feature_code":"PPL","country_code":"US","cc2":"","admin1_code":"AK","admin2_code":"122","admin3_code":"","admin4_code":"","population":"2022","elevation":"51","dem":"56","timezone":"America/Anchorage","modification_date":"2011-05-14"},{"geonameid":"5873349","name":"Sand Point","asciiname":"Sand Point","alternatenames":"Qagun Tayagungin,SDP,Sand Pojnt,Sand-Pojnt,sand bwynt,sang de bo yin te,snd pwynt  alaska,syanda po'inta,Санд Појнт,Санд-Пойнт,ساند بوينت,سند پوینت، آلاسکا,स्यान्ड पोइन्ट,桑德波因特","latitude":"55.33655","longitude":"-160.4988","feature_class":"P","feature_code":"PPLA2","country_code":"US","cc2":"","admin1_code":"AK","admin2_code":"013","admin3_code":"","admin4_code":"","population":"976","elevation":"12","dem":"12","timezone":"America/Anchorage","modification_date":"2011-05-14"},{"geonameid":"5873776","name":"Seward","asciiname":"Seward","alternatenames":"S'juard,SWD,Sivard,Sivod,sevarda,su e de,suwado,swward  alaska,syueodeu,syward,Сивод,Сьюард,سووارد، آلاسکا,سيوارد,سیویرڈ، الاسکا,सेवार्द,スワード,苏厄德,슈어드","latitude":"60.10426","longitude":"-149.4435","feature_class":"P","feature_code":"PPL","country_code":"US","cc2":"","admin1_code":"AK","admin2_code":"122","admin3_code":"","admin4_code":"","population":"2693","elevation":"28","dem":"52","timezone":"America/Anchorage","modification_date":"2014-11-24"},{"geonameid":"5874678","name":"Soldotna","asciiname":"Soldotna","alternatenames":"SXQ,Soldotna,soldotna,suo er duo te na,swldwtna,swldwtna  alaska,Солдотна,سولدوتنا,سولدوتنا، آلاسکا,سولڈاٹنا، الاسکا,सोल्दोत्ना,索尔多特纳","latitude":"60.48778","longitude":"-151.05833","feature_class":"P","feature_code":"PPL","country_code":"US","cc2":"","admin1_code":"AK","admin2_code":"122","admin3_code":"","admin4_code":"","population":"4163","elevation":"33","dem":"26","timezone":"America/Anchorage","modification_date":"2011-05-14"},{"geonameid":"5875173","name":"Sterling","asciiname":"Sterling","alternatenames":"Sterling,Стерлинг","latitude":"60.53722","longitude":"-150.76472","feature_class":"P","feature_code":"PPL","country_code":"US","cc2":"","admin1_code":"AK","admin2_code":"122","admin3_code":"","admin4_code":"","population":"5617","elevation":"67","dem":"46","timezone":"America/Anchorage","modification_date":"2011-05-14"},{"geonameid":"5875796","name":"Tanaina","asciiname":"Tanaina","alternatenames":"","latitude":"61.62694","longitude":"-149.42806","feature_class":"P","feature_code":"PPL","country_code":"US","cc2":"","admin1_code":"AK","admin2_code":"170","admin3_code":"","admin4_code":"","population":"8197","elevation":"152","dem":"145","timezone":"America/Anchorage","modification_date":"2011-05-14"},{"geonameid":"5876363","name":"Tok","asciiname":"Tok","alternatenames":"TKJ,Tok,toka,twk  alaska,Ток,توک، آلاسکا,तोक","latitude":"63.33667","longitude":"-142.98556","feature_class":"P","feature_code":"PPL","country_code":"US","cc2":"","admin1_code":"AK","admin2_code":"240","admin3_code":"","admin4_code":"","population":"1258","elevation":"496","dem":"503","timezone":"America/Anchorage","modification_date":"2011-05-14"},{"geonameid":"5877208","name":"Unalaska","asciiname":"Unalaska","alternatenames":"Analaska,Iluulux,Iluulux̂,Isola di Unalaska,Unalashka,Unalashkae,Unalaska,Unalaška,Unaljaska,awnalaska,eoneollaeseuka seom,unalashka,unalaska,unarasuka,wu na la si ka,Аналаска,Уналаска,Уналашкæ,Уналашка,Уналяска,אנאלסקה,أونالاسكا,उनालस्का,ウナラスカ,乌纳拉斯卡,어널래스카 섬","latitude":"53.87361","longitude":"-166.53667","feature_class":"P","feature_code":"PPL","country_code":"US","cc2":"","admin1_code":"AK","admin2_code":"016","admin3_code":"","admin4_code":"","population":"4376","elevation":"4","dem":"6","timezone":"America/Adak","modification_date":"2013-11-22"},{"geonameid":"5877389","name":"Valdez","asciiname":"Valdez","alternatenames":"VDZ,Valdes,Valdiz,barudizu,bhaldeja,faldyz,wa er di ci,waldyz  alaska,waldz  alaska,Валдиз,Валдіз,فالديز,والدز، آلاسکا,والدیز، الاسکا,भाल्देज,バルディーズ,瓦尔迪兹","latitude":"61.13083","longitude":"-146.34833","feature_class":"P","feature_code":"PPL","country_code":"US","cc2":"","admin1_code":"AK","admin2_code":"261","admin3_code":"","admin4_code":"","population":"3976","elevation":"30","dem":"1","timezone":"America/Anchorage","modification_date":"2011-05-14"},{"geonameid":"5877641","name":"Wasilla","asciiname":"Wasilla","alternatenames":"Uasilla,Vasila,Vasilla,WWA,vasila,vasilla,wa xi la,washira,wasilla,wasyla,wysyla  alaska,Васила,Василла,Васілла,Уасилла,ואסילה,واسيلا,واسیلا,ویسیلا، الاسکا,वासिला,वासिल्ला,ワシラ,瓦西拉,와실라","latitude":"61.58139","longitude":"-149.43944","feature_class":"P","feature_code":"PPL","country_code":"US","cc2":"","admin1_code":"AK","admin2_code":"170","admin3_code":"","admin4_code":"","population":"7831","elevation":"106","dem":"121","timezone":"America/Anchorage","modification_date":"2011-05-14"},{"geonameid":"5878102","name":"Willow","asciiname":"Willow","alternatenames":"WOW,Willow","latitude":"61.74722","longitude":"-150.0375","feature_class":"P","feature_code":"PPL","country_code":"US","cc2":"","admin1_code":"AK","admin2_code":"170","admin3_code":"","admin4_code":"","population":"2102","elevation":"64","dem":"71","timezone":"America/Anchorage","modification_date":"2014-04-13"},{"geonameid":"5879048","name":"Akutan","asciiname":"Akutan","alternatenames":"Akutan,KQA,a ku tan,akutana,akwtan,akwtan  alaska,Акутан,آکوتان، آلاسکا,أكوتان,अकुतान,阿库坦","latitude":"54.13556","longitude":"-165.77306","feature_class":"P","feature_code":"PPL","country_code":"US","cc2":"","admin1_code":"AK","admin2_code":"013","admin3_code":"","admin4_code":"","population":"1027","elevation":"51","dem":"42","timezone":"America/Nome","modification_date":"2011-05-14"},{"geonameid":"5879400","name":"Anchorage","asciiname":"Anchorage","alternatenames":"ANC,An'koreitz,Anchorage,Ancoraria,Ankoric,Ankoridz,Ankoridza,Ankoridzas,Ankoridzh,Ankoridž,Ankoridža,Ankoridžas,Ankorij,Ankuridzh,Enkoridz,Gorad Ankorydzh,Kisagvik,Kisaġvik,aengkeoliji,amkareja,an ke la zhi,ancorage byuro,ankarej,ankarejji,ankwryj,aynkrayj  alaska,enkarej,enkoreja,ʼnqwrg,Ανκορέιτζ,Анкоридж,Анкъридж,Горад Анкорыдж,Енкориџ,Անքորեջ շրջան,אנקורג,أنكوريج,انکوریج,اینکرایج، الاسکا,अँकरेज,एंकोरेज,অ্যাংকারিজ,আন্চোরগে ব্যুরো,ஏங்கரெஜ்,ആങ്കറേജ്,ანკორიჯი,アンカレッジ,安克拉治,앵커리지","latitude":"61.21806","longitude":"-149.90028","feature_class":"P","feature_code":"PPLA2","country_code":"US","cc2":"","admin1_code":"AK","admin2_code":"020","admin3_code":"","admin4_code":"","population":"291826","elevation":"31","dem":"16","timezone":"America/Anchorage","modification_date":"2011-05-14"},{"geonameid":"5879403","name":"Anchor Point","asciiname":"Anchor Point","alternatenames":"","latitude":"59.77667","longitude":"-151.83139","feature_class":"P","feature_code":"PPL","country_code":"US","cc2":"","admin1_code":"AK","admin2_code":"122","admin3_code":"","admin4_code":"","population":"1930","elevation":"39","dem":"49","timezone":"America/Anchorage","modification_date":"2011-05-14"},{"geonameid":"5879898","name":"Badger","asciiname":"Badger","alternatenames":"","latitude":"64.8","longitude":"-147.53333","feature_class":"P","feature_code":"PPL","country_code":"US","cc2":"","admin1_code":"AK","admin2_code":"090","admin3_code":"","admin4_code":"","population":"19482","elevation":"144","dem":"146","timezone":"America/Anchorage","modification_date":"2011-05-14"},{"geonameid":"5880054","name":"Barrow","asciiname":"Barrow","alternatenames":"BRW,Barou,Barrou,Barrow,Borrou,Mis Barrou,Utqiagvik,Utqiaġvik,ba luo,baelo,baro,barw,barw  alaska,byaro,byrw  alaska,Бароу,Барроу,Мис Барроу,بارو,بارو، آلاسکا,بیرو، الاسکا,ब्यारो,バロー,巴羅,배로","latitude":"71.29058","longitude":"-156.78872","feature_class":"P","feature_code":"PPLA2","country_code":"US","cc2":"","admin1_code":"AK","admin2_code":"185","admin3_code":"","admin4_code":"","population":"4212","elevation":"3","dem":"5","timezone":"America/Anchorage","modification_date":"2011-05-14"},{"geonameid":"5880147","name":"Bear Creek","asciiname":"Bear Creek","alternatenames":"","latitude":"60.16417","longitude":"-149.395","feature_class":"P","feature_code":"PPL","country_code":"US","cc2":"","admin1_code":"AK","admin2_code":"122","admin3_code":"","admin4_code":"","population":"1956","elevation":"33","dem":"72","timezone":"America/Anchorage","modification_date":"2011-05-14"},{"geonameid":"5880568","name":"Bethel","asciiname":"Bethel","alternatenames":"BET,Betel,Bethel,beseol,beseru,bethela,bo te li,btl  alaska,bythl,Бетел,בתאל,بتل، آلاسکا,بيثل,बेथेल,ベセル,伯特利,베설","latitude":"60.79222","longitude":"-161.75583","feature_class":"P","feature_code":"PPL","country_code":"US","cc2":"","admin1_code":"AK","admin2_code":"050","admin3_code":"","admin4_code":"","population":"6080","elevation":"1","dem":"1","timezone":"America/Anchorage","modification_date":"2011-05-14"},{"geonameid":"5880661","name":"Big Lake","asciiname":"Big Lake","alternatenames":"BGQ","latitude":"61.52139","longitude":"-149.95444","feature_class":"P","feature_code":"PPL","country_code":"US","cc2":"","admin1_code":"AK","admin2_code":"170","admin3_code":"","admin4_code":"","population":"3350","elevation":"44","dem":"43","timezone":"America/Anchorage","modification_date":"2011-05-14"},{"geonameid":"6331908","name":"Milton","asciiname":"Milton","alternatenames":"","latitude":"34.13216","longitude":"-84.30067","feature_class":"P","feature_code":"PPL","country_code":"US","cc2":"","admin1_code":"GA","admin2_code":"121","admin3_code":"","admin4_code":"","population":"32661","elevation":"299","dem":"305","timezone":"America/New_York","modification_date":"2011-05-14"},{"geonameid":"6331909","name":"Johns Creek","asciiname":"Johns Creek","alternatenames":"Dzons Krik,janz kryk  jarjya,janz kryk  jwrjya,jonseukeulig,jwnz kryk,Џонс Крик,جانز کریک، جارجیا,جانز کریک، جورجیا,جونز كريك,존스크릭","latitude":"34.02893","longitude":"-84.19858","feature_class":"P","feature_code":"PPL","country_code":"US","cc2":"","admin1_code":"GA","admin2_code":"121","admin3_code":"","admin4_code":"","population":"76728","elevation":"286","dem":"293","timezone":"America/New_York","modification_date":"2011-05-14"},{"geonameid":"6331910","name":"Grant-Valkaria","asciiname":"Grant-Valkaria","alternatenames":"","latitude":"27.9398","longitude":"-80.57104","feature_class":"P","feature_code":"PPL","country_code":"US","cc2":"","admin1_code":"FL","admin2_code":"009","admin3_code":"","admin4_code":"","population":"3850","elevation":"7","dem":"9","timezone":"America/New_York","modification_date":"2011-05-14"},{"geonameid":"6331911","name":"Helena-West Helena","asciiname":"Helena-West Helena","alternatenames":"Khelena-Vest Khelena,herena=u~esutoherena,hlna wst hlna,hylyna wyst hylana,Хелена-Вест Хелена,هلنا وست هلنا,هيلينا ويست هيلانا,ヘレナ＝ウェストへレナ","latitude":"34.5291","longitude":"-90.59","feature_class":"P","feature_code":"PPL","country_code":"US","cc2":"","admin1_code":"AR","admin2_code":"107","admin3_code":"","admin4_code":"","population":"12282","elevation":"60","dem":"62","timezone":"America/Chicago","modification_date":"2011-05-14"},{"geonameid":"6332118","name":"Summerset","asciiname":"Summerset","alternatenames":"","latitude":"44.18998","longitude":"-103.34384","feature_class":"P","feature_code":"PPL","country_code":"US","cc2":"","admin1_code":"SD","admin2_code":"093","admin3_code":"","admin4_code":"","population":"1814","elevation":"1109","dem":"1107","timezone":"America/Denver","modification_date":"2011-05-14"},{"geonameid":"6332120","name":"Columbus","asciiname":"Columbus","alternatenames":"Kolumbus,Колумбус","latitude":"45.26522","longitude":"-93.05015","feature_class":"P","feature_code":"PPL","country_code":"US","cc2":"","admin1_code":"MN","admin2_code":"003","admin3_code":"","admin4_code":"","population":"3914","elevation":"278","dem":"274","timezone":"America/Chicago","modification_date":"2011-05-14"},{"geonameid":"6332309","name":"Cutler Bay","asciiname":"Cutler Bay","alternatenames":"Cutler Ridge,Katler Bej,Katler-Bej,ka te lei wan,katlara rija,katlr by  flwryda,kwtlr bay,Катлер Беј,Катлер-Бей,كوتلر باي,کاتلر بی، فلوریدا,कट्लर रीज,卡特勒湾","latitude":"25.5783","longitude":"-80.3377","feature_class":"P","feature_code":"PPL","country_code":"US","cc2":"","admin1_code":"FL","admin2_code":"086","admin3_code":"","admin4_code":"","population":"40286","elevation":"2","dem":"8","timezone":"America/New_York","modification_date":"2011-05-14"},{"geonameid":"6332439","name":"Alafaya","asciiname":"Alafaya","alternatenames":"","latitude":"28.5641","longitude":"-81.2114","feature_class":"P","feature_code":"PPL","country_code":"US","cc2":"","admin1_code":"FL","admin2_code":"095","admin3_code":"","admin4_code":"","population":"78113","elevation":"24","dem":"31","timezone":"America/New_York","modification_date":"2011-05-14"},{"geonameid":"6332680","name":"New Fairview","asciiname":"New Fairview","alternatenames":"","latitude":"33.09917","longitude":"-97.44639","feature_class":"P","feature_code":"PPL","country_code":"US","cc2":"","admin1_code":"TX","admin2_code":"497","admin3_code":"","admin4_code":"","population":"1258","elevation":"286","dem":"286","timezone":"America/Chicago","modification_date":"2011-05-14"},{"geonameid":"6332739","name":"Cobb Island","asciiname":"Cobb Island","alternatenames":"","latitude":"38.25846","longitude":"-76.84386","feature_class":"P","feature_code":"PPL","country_code":"US","cc2":"","admin1_code":"MD","admin2_code":"017","admin3_code":"","admin4_code":"","population":"1166","elevation":"3","dem":"12","timezone":"America/New_York","modification_date":"2011-05-14"},{"geonameid":"6424355","name":"St Johnsbury","asciiname":"St Johnsbury","alternatenames":"","latitude":"44.42526","longitude":"-72.01512","feature_class":"P","feature_code":"PPL","country_code":"US","cc2":"","admin1_code":"VT","admin2_code":"005","admin3_code":"","admin4_code":"","population":"7571","elevation":"212","dem":"188","timezone":"America/New_York","modification_date":"2007-03-21"},{"geonameid":"6545140","name":"Dayton","asciiname":"Dayton","alternatenames":"","latitude":"43.54972","longitude":"-70.57555","feature_class":"P","feature_code":"PPL","country_code":"US","cc2":"","admin1_code":"ME","admin2_code":"031","admin3_code":"","admin4_code":"","population":"1805","elevation":"","dem":"78","timezone":"America/New_York","modification_date":"2007-06-25"},{"geonameid":"6930979","name":"Village of Campton Hills","asciiname":"Village of Campton Hills","alternatenames":"Campton Hills","latitude":"41.9366","longitude":"-88.3975","feature_class":"P","feature_code":"PPL","country_code":"US","cc2":"","admin1_code":"IL","admin2_code":"089","admin3_code":"","admin4_code":"","population":"13483","elevation":"","dem":"245","timezone":"America/Chicago","modification_date":"2012-05-31"},{"geonameid":"6941080","name":"Fort Bragg","asciiname":"Fort Bragg","alternatenames":"Fort Brag,Fort Bregg,Fort-Brehgg,Ft. Bragg,fwrt brg,poteu beulaegeu,Форт Браг,Форт Брегг,Форт-Брэгг,פורט בראג,فورت برگ,포트 브래그","latitude":"35.139","longitude":"-79.00603","feature_class":"P","feature_code":"PPL","country_code":"US","cc2":"","admin1_code":"NC","admin2_code":"051","admin3_code":"","admin4_code":"","population":"29183","elevation":"","dem":"104","timezone":"America/New_York","modification_date":"2013-07-19"},{"geonameid":"7121608","name":"Elko New Market","asciiname":"Elko New Market","alternatenames":"","latitude":"44.56472","longitude":"-93.32694","feature_class":"P","feature_code":"PPL","country_code":"US","cc2":"","admin1_code":"MN","admin2_code":"139","admin3_code":"","admin4_code":"","population":"4110","elevation":"348","dem":"350","timezone":"America/Chicago","modification_date":"2011-05-14"},{"geonameid":"7123765","name":"South Blooming Grove","asciiname":"South Blooming Grove","alternatenames":"","latitude":"41.37337","longitude":"-74.17843","feature_class":"P","feature_code":"PPL","country_code":"US","cc2":"","admin1_code":"NY","admin2_code":"071","admin3_code":"","admin4_code":"","population":"3234","elevation":"163","dem":"172","timezone":"America/New_York","modification_date":"2011-05-14"},{"geonameid":"7149330","name":"Dewey-Humboldt","asciiname":"Dewey-Humboldt","alternatenames":"","latitude":"34.53","longitude":"-112.24222","feature_class":"P","feature_code":"PPL","country_code":"US","cc2":"","admin1_code":"AZ","admin2_code":"025","admin3_code":"","admin4_code":"","population":"3894","elevation":"1397","dem":"1395","timezone":"America/Phoenix","modification_date":"2011-05-14"},{"geonameid":"7160204","name":"City of Milford (balance)","asciiname":"City of Milford (balance)","alternatenames":"","latitude":"41.22374","longitude":"-73.06164","feature_class":"P","feature_code":"PPL","country_code":"US","cc2":"","admin1_code":"CT","admin2_code":"009","admin3_code":"","admin4_code":"","population":"51271","elevation":"16","dem":"19","timezone":"America/New_York","modification_date":"2013-03-08"},{"geonameid":"7161969","name":"Peppermill Village","asciiname":"Peppermill Village","alternatenames":"Carmody Hills-Pepper Mill Village","latitude":"38.89472","longitude":"-76.88654","feature_class":"P","feature_code":"PPL","country_code":"US","cc2":"","admin1_code":"MD","admin2_code":"033","admin3_code":"","admin4_code":"","population":"4895","elevation":"60","dem":"60","timezone":"America/New_York","modification_date":"2011-05-15"},{"geonameid":"7172778","name":"Boulevard Gardens","asciiname":"Boulevard Gardens","alternatenames":"","latitude":"26.12326","longitude":"-80.17997","feature_class":"P","feature_code":"PPL","country_code":"US","cc2":"","admin1_code":"FL","admin2_code":"011","admin3_code":"","admin4_code":"","population":"1274","elevation":"2","dem":"9","timezone":"America/New_York","modification_date":"2011-05-14"},{"geonameid":"7172786","name":"High Point","asciiname":"High Point","alternatenames":"","latitude":"28.54687","longitude":"-82.52468","feature_class":"P","feature_code":"PPL","country_code":"US","cc2":"","admin1_code":"FL","admin2_code":"053","admin3_code":"","admin4_code":"","population":"3686","elevation":"18","dem":"25","timezone":"America/New_York","modification_date":"2011-05-14"},{"geonameid":"7172798","name":"Roosevelt Gardens","asciiname":"Roosevelt Gardens","alternatenames":"","latitude":"26.14087","longitude":"-80.18027","feature_class":"P","feature_code":"PPL","country_code":"US","cc2":"","admin1_code":"FL","admin2_code":"011","admin3_code":"","admin4_code":"","population":"2456","elevation":"2","dem":"10","timezone":"America/New_York","modification_date":"2011-05-14"},{"geonameid":"7172886","name":"Butte-Silver Bow (Balance)","asciiname":"Butte-Silver Bow (Balance)","alternatenames":"","latitude":"45.90194","longitude":"-112.65708","feature_class":"P","feature_code":"PPL","country_code":"US","cc2":"","admin1_code":"MT","admin2_code":"093","admin3_code":"","admin4_code":"","population":"33525","elevation":"1776","dem":"1776","timezone":"America/Denver","modification_date":"2013-03-08"},{"geonameid":"7174365","name":"City of Sammamish","asciiname":"City of Sammamish","alternatenames":"","latitude":"47.60444","longitude":"-122.03768","feature_class":"P","feature_code":"PPL","country_code":"US","cc2":"","admin1_code":"WA","admin2_code":"033","admin3_code":"","admin4_code":"","population":"45780","elevation":"146","dem":"144","timezone":"America/Los_Angeles","modification_date":"2014-09-15"},{"geonameid":"7176003","name":"Bayview","asciiname":"Bayview","alternatenames":"","latitude":"38.00702","longitude":"-122.31878","feature_class":"P","feature_code":"PPL","country_code":"US","cc2":"","admin1_code":"CA","admin2_code":"013","admin3_code":"","admin4_code":"","population":"1754","elevation":"11","dem":"12","timezone":"America/Los_Angeles","modification_date":"2011-05-14"},{"geonameid":"7176022","name":"Las Maravillas","asciiname":"Las Maravillas","alternatenames":"","latitude":"34.73815","longitude":"-106.66854","feature_class":"P","feature_code":"PPL","country_code":"US","cc2":"","admin1_code":"NM","admin2_code":"061","admin3_code":"","admin4_code":"","population":"1628","elevation":"1528","dem":"1527","timezone":"America/Denver","modification_date":"2011-05-14"},{"geonameid":"7176024","name":"Monterey Park","asciiname":"Monterey Park","alternatenames":"","latitude":"34.75898","longitude":"-106.64085","feature_class":"P","feature_code":"PPL","country_code":"US","cc2":"","admin1_code":"NM","admin2_code":"061","admin3_code":"","admin4_code":"","population":"1567","elevation":"1537","dem":"1536","timezone":"America/Denver","modification_date":"2011-05-14"},{"geonameid":"7176028","name":"Peaceful Valley","asciiname":"Peaceful Valley","alternatenames":"","latitude":"48.93815","longitude":"-122.14733","feature_class":"P","feature_code":"PPL","country_code":"US","cc2":"","admin1_code":"WA","admin2_code":"073","admin3_code":"","admin4_code":"","population":"3324","elevation":"142","dem":"155","timezone":"America/Los_Angeles","modification_date":"2011-05-14"},{"geonameid":"7176030","name":"Rancho Tehama Reserve","asciiname":"Rancho Tehama Reserve","alternatenames":"","latitude":"40.01569","longitude":"-122.40072","feature_class":"P","feature_code":"PPL","country_code":"US","cc2":"","admin1_code":"CA","admin2_code":"103","admin3_code":"","admin4_code":"","population":"1485","elevation":"160","dem":"168","timezone":"America/Los_Angeles","modification_date":"2011-05-14"},{"geonameid":"7176031","name":"Rio Communities","asciiname":"Rio Communities","alternatenames":"","latitude":"34.64959","longitude":"-106.73403","feature_class":"P","feature_code":"PPL","country_code":"US","cc2":"","admin1_code":"NM","admin2_code":"061","admin3_code":"","admin4_code":"","population":"4723","elevation":"1471","dem":"1470","timezone":"America/Denver","modification_date":"2011-05-14"},{"geonameid":"7176035","name":"Silver Firs","asciiname":"Silver Firs","alternatenames":"","latitude":"47.86602","longitude":"-122.1551","feature_class":"P","feature_code":"PPL","country_code":"US","cc2":"","admin1_code":"WA","admin2_code":"061","admin3_code":"","admin4_code":"","population":"20891","elevation":"157","dem":"158","timezone":"America/Los_Angeles","modification_date":"2011-05-14"},{"geonameid":"7176038","name":"Verde Village","asciiname":"Verde Village","alternatenames":"Cottonwood-Verde Village","latitude":"34.7105","longitude":"-112.01152","feature_class":"P","feature_code":"PPL","country_code":"US","cc2":"","admin1_code":"AZ","admin2_code":"025","admin3_code":"","admin4_code":"","population":"11605","elevation":"1054","dem":"1057","timezone":"America/Phoenix","modification_date":"2011-05-15"},{"geonameid":"7176039","name":"Vineyard","asciiname":"Vineyard","alternatenames":"","latitude":"38.46449","longitude":"-121.34692","feature_class":"P","feature_code":"PPL","country_code":"US","cc2":"","admin1_code":"CA","admin2_code":"067","admin3_code":"","admin4_code":"","population":"24836","elevation":"27","dem":"26","timezone":"America/Los_Angeles","modification_date":"2011-05-14"},{"geonameid":"7179381","name":"Chattahoochee Hills","asciiname":"Chattahoochee Hills","alternatenames":"","latitude":"33.55063","longitude":"-84.76049","feature_class":"P","feature_code":"PPL","country_code":"US","cc2":"","admin1_code":"GA","admin2_code":"121","admin3_code":"","admin4_code":"","population":"2378","elevation":"249","dem":"248","timezone":"America/New_York","modification_date":"2011-05-14"},{"geonameid":"7220609","name":"Desert Edge","asciiname":"Desert Edge","alternatenames":"","latitude":"33.92417","longitude":"-116.44139","feature_class":"P","feature_code":"PPL","country_code":"US","cc2":"","admin1_code":"CA","admin2_code":"065","admin3_code":"","admin4_code":"","population":"3822","elevation":"299","dem":"298","timezone":"America/Los_Angeles","modification_date":"2011-05-14"},{"geonameid":"7220835","name":"Fox Chase","asciiname":"Fox Chase","alternatenames":"","latitude":"40.39557","longitude":"-75.96216","feature_class":"P","feature_code":"PPL","country_code":"US","cc2":"","admin1_code":"PA","admin2_code":"011","admin3_code":"","admin4_code":"","population":"1622","elevation":"99","dem":"101","timezone":"America/New_York","modification_date":"2011-05-14"},{"geonameid":"7223060","name":"Saint Augustine South","asciiname":"Saint Augustine South","alternatenames":"","latitude":"29.84249","longitude":"-81.31448","feature_class":"P","feature_code":"PPL","country_code":"US","cc2":"","admin1_code":"FL","admin2_code":"109","admin3_code":"","admin4_code":"","population":"4998","elevation":"7","dem":"12","timezone":"America/New_York","modification_date":"2011-05-14"},{"geonameid":"7231955","name":"Captains Cove","asciiname":"Captains Cove","alternatenames":"","latitude":"37.98996","longitude":"-75.42272","feature_class":"P","feature_code":"PPL","country_code":"US","cc2":"","admin1_code":"VA","admin2_code":"001","admin3_code":"","admin4_code":"","population":"1042","elevation":"5","dem":"7","timezone":"America/New_York","modification_date":"2011-05-14"},{"geonameid":"7234896","name":"Cross Roads","asciiname":"Cross Roads","alternatenames":"","latitude":"33.23065","longitude":"-97.0019","feature_class":"P","feature_code":"PPL","country_code":"US","cc2":"","admin1_code":"TX","admin2_code":"121","admin3_code":"","admin4_code":"","population":"1563","elevation":"183","dem":"186","timezone":"America/Chicago","modification_date":"2011-05-14"},{"geonameid":"7238057","name":"Weston Lakes","asciiname":"Weston Lakes","alternatenames":"","latitude":"29.68324","longitude":"-95.93571","feature_class":"P","feature_code":"PPL","country_code":"US","cc2":"","admin1_code":"TX","admin2_code":"157","admin3_code":"","admin4_code":"","population":"2482","elevation":"31","dem":"35","timezone":"America/Chicago","modification_date":"2011-05-14"},{"geonameid":"7257357","name":"Conning Towers-Nautilus Park","asciiname":"Conning Towers-Nautilus Park","alternatenames":"","latitude":"41.38548","longitude":"-72.06877","feature_class":"P","feature_code":"PPL","country_code":"US","cc2":"","admin1_code":"CT","admin2_code":"011","admin3_code":"","admin4_code":"","population":"8834","elevation":"58","dem":"70","timezone":"America/New_York","modification_date":"2011-05-14"},{"geonameid":"7257361","name":"Deep River Center","asciiname":"Deep River Center","alternatenames":"","latitude":"41.38221","longitude":"-72.43862","feature_class":"P","feature_code":"PPL","country_code":"US","cc2":"","admin1_code":"CT","admin2_code":"007","admin3_code":"","admin4_code":"","population":"2484","elevation":"19","dem":"15","timezone":"America/New_York","modification_date":"2011-05-14"},{"geonameid":"7257367","name":"Essex Village","asciiname":"Essex Village","alternatenames":"","latitude":"41.35544","longitude":"-72.39101","feature_class":"P","feature_code":"PPL","country_code":"US","cc2":"","admin1_code":"CT","admin2_code":"007","admin3_code":"","admin4_code":"","population":"2495","elevation":"22","dem":"21","timezone":"America/New_York","modification_date":"2011-05-14"},{"geonameid":"7257370","name":"Guilford Center","asciiname":"Guilford Center","alternatenames":"","latitude":"41.28156","longitude":"-72.67619","feature_class":"P","feature_code":"PPL","country_code":"US","cc2":"","admin1_code":"CT","admin2_code":"009","admin3_code":"","admin4_code":"","population":"2597","elevation":"11","dem":"4","timezone":"America/New_York","modification_date":"2011-05-14"},{"geonameid":"7257377","name":"Madison Center","asciiname":"Madison Center","alternatenames":"","latitude":"41.27925","longitude":"-72.60048","feature_class":"P","feature_code":"PPL","country_code":"US","cc2":"","admin1_code":"CT","admin2_code":"009","admin3_code":"","admin4_code":"","population":"2290","elevation":"7","dem":"9","timezone":"America/New_York","modification_date":"2011-05-14"},{"geonameid":"7257382","name":"New Hartford Center","asciiname":"New Hartford Center","alternatenames":"","latitude":"41.87996","longitude":"-72.9753","feature_class":"P","feature_code":"PPL","country_code":"US","cc2":"","admin1_code":"CT","admin2_code":"005","admin3_code":"","admin4_code":"","population":"1385","elevation":"125","dem":"130","timezone":"America/New_York","modification_date":"2011-05-14"},{"geonameid":"7257391","name":"Northwest Harwinton","asciiname":"Northwest Harwinton","alternatenames":"","latitude":"41.77685","longitude":"-73.07922","feature_class":"P","feature_code":"PPL","country_code":"US","cc2":"","admin1_code":"CT","admin2_code":"005","admin3_code":"","admin4_code":"","population":"3252","elevation":"289","dem":"295","timezone":"America/New_York","modification_date":"2011-05-14"},{"geonameid":"7257394","name":"Old Saybrook Center","asciiname":"Old Saybrook Center","alternatenames":"","latitude":"41.2915","longitude":"-72.36528","feature_class":"P","feature_code":"PPL","country_code":"US","cc2":"","admin1_code":"CT","admin2_code":"007","admin3_code":"","admin4_code":"","population":"2039","elevation":"0","dem":"1","timezone":"America/New_York","modification_date":"2011-05-14"},{"geonameid":"7257396","name":"Oxoboxo River","asciiname":"Oxoboxo River","alternatenames":"","latitude":"41.44391","longitude":"-72.12502","feature_class":"P","feature_code":"PPL","country_code":"US","cc2":"","admin1_code":"CT","admin2_code":"011","admin3_code":"","admin4_code":"","population":"3165","elevation":"35","dem":"49","timezone":"America/New_York","modification_date":"2011-05-14"},{"geonameid":"7257398","name":"Plainfield Village","asciiname":"Plainfield Village","alternatenames":"","latitude":"41.67686","longitude":"-71.92489","feature_class":"P","feature_code":"PPL","country_code":"US","cc2":"","admin1_code":"CT","admin2_code":"015","admin3_code":"","admin4_code":"","population":"2557","elevation":"54","dem":"60","timezone":"America/New_York","modification_date":"2011-05-14"},{"geonameid":"7257408","name":"Simsbury Center","asciiname":"Simsbury Center","alternatenames":"","latitude":"41.88088","longitude":"-72.81116","feature_class":"P","feature_code":"PPL","country_code":"US","cc2":"","admin1_code":"CT","admin2_code":"003","admin3_code":"","admin4_code":"","population":"5836","elevation":"88","dem":"87","timezone":"America/New_York","modification_date":"2011-05-14"},{"geonameid":"7257422","name":"Wallingford Center","asciiname":"Wallingford Center","alternatenames":"","latitude":"41.44987","longitude":"-72.81892","feature_class":"P","feature_code":"PPL","country_code":"US","cc2":"","admin1_code":"CT","admin2_code":"009","admin3_code":"","admin4_code":"","population":"18209","elevation":"40","dem":"43","timezone":"America/New_York","modification_date":"2011-05-14"},{"geonameid":"7257425","name":"Westbrook Center","asciiname":"Westbrook Center","alternatenames":"","latitude":"41.27997","longitude":"-72.44254","feature_class":"P","feature_code":"PPL","country_code":"US","cc2":"","admin1_code":"CT","admin2_code":"007","admin3_code":"","admin4_code":"","population":"2413","elevation":"4","dem":"3","timezone":"America/New_York","modification_date":"2011-05-14"},{"geonameid":"7257433","name":"Woodbury Center","asciiname":"Woodbury Center","alternatenames":"","latitude":"41.54453","longitude":"-73.20476","feature_class":"P","feature_code":"PPL","country_code":"US","cc2":"","admin1_code":"CT","admin2_code":"005","admin3_code":"","admin4_code":"","population":"1294","elevation":"130","dem":"138","timezone":"America/New_York","modification_date":"2011-05-14"},{"geonameid":"7257523","name":"Acushnet Center","asciiname":"Acushnet Center","alternatenames":"","latitude":"41.68508","longitude":"-70.90642","feature_class":"P","feature_code":"PPL","country_code":"US","cc2":"","admin1_code":"MA","admin2_code":"005","admin3_code":"","admin4_code":"","population":"3073","elevation":"28","dem":"6","timezone":"America/New_York","modification_date":"2011-05-14"},{"geonameid":"7257572","name":"Green Harbor-Cedar Crest","asciiname":"Green Harbor-Cedar Crest","alternatenames":"","latitude":"42.07495","longitude":"-70.65843","feature_class":"P","feature_code":"PPL","country_code":"US","cc2":"","admin1_code":"MA","admin2_code":"023","admin3_code":"","admin4_code":"","population":"2609","elevation":"7","dem":"16","timezone":"America/New_York","modification_date":"2011-05-14"},{"geonameid":"7257575","name":"Harwich Center","asciiname":"Harwich Center","alternatenames":"","latitude":"41.69235","longitude":"-70.06938","feature_class":"P","feature_code":"PPL","country_code":"US","cc2":"","admin1_code":"MA","admin2_code":"001","admin3_code":"","admin4_code":"","population":"1798","elevation":"13","dem":"17","timezone":"America/New_York","modification_date":"2011-05-14"},{"geonameid":"7257618","name":"Hillsborough","asciiname":"Hillsborough","alternatenames":"Hillsboro,Hillsborough","latitude":"43.1141","longitude":"-71.8992","feature_class":"P","feature_code":"PPL","country_code":"US","cc2":"","admin1_code":"NH","admin2_code":"011","admin3_code":"","admin4_code":"","population":"1976","elevation":"195","dem":"198","timezone":"America/New_York","modification_date":"2015-07-18"},{"geonameid":"7257640","name":"Tilton-Northfield","asciiname":"Tilton-Northfield","alternatenames":"","latitude":"43.443","longitude":"-71.59364","feature_class":"P","feature_code":"PPL","country_code":"US","cc2":"","admin1_code":"NH","admin2_code":"013","admin3_code":"","admin4_code":"","population":"3075","elevation":"133","dem":"137","timezone":"America/New_York","modification_date":"2011-05-14"},{"geonameid":"7257658","name":"Newport East","asciiname":"Newport East","alternatenames":"","latitude":"41.51579","longitude":"-71.28752","feature_class":"P","feature_code":"PPL","country_code":"US","cc2":"","admin1_code":"RI","admin2_code":"005","admin3_code":"","admin4_code":"","population":"11769","elevation":"34","dem":"14","timezone":"America/New_York","modification_date":"2011-05-14"},{"geonameid":"7257663","name":"Wakefield-Peacedale","asciiname":"Wakefield-Peacedale","alternatenames":"","latitude":"41.44606","longitude":"-71.5004","feature_class":"P","feature_code":"PPL","country_code":"US","cc2":"","admin1_code":"RI","admin2_code":"009","admin3_code":"","admin4_code":"","population":"8487","elevation":"11","dem":"15","timezone":"America/New_York","modification_date":"2011-05-14"},{"geonameid":"7257704","name":"Mansfield Center","asciiname":"Mansfield Center","alternatenames":"","latitude":"42.02262","longitude":"-71.21808","feature_class":"P","feature_code":"PPL","country_code":"US","cc2":"","admin1_code":"MA","admin2_code":"005","admin3_code":"","admin4_code":"","population":"7360","elevation":"45","dem":"23","timezone":"America/New_York","modification_date":"2011-05-14"},{"geonameid":"7257706","name":"Marion Center","asciiname":"Marion Center","alternatenames":"","latitude":"41.70424","longitude":"-70.76286","feature_class":"P","feature_code":"PPL","country_code":"US","cc2":"","admin1_code":"MA","admin2_code":"023","admin3_code":"","admin4_code":"","population":"1111","elevation":"5","dem":"1","timezone":"America/New_York","modification_date":"2011-05-14"},{"geonameid":"7257710","name":"Mattapoisett Center","asciiname":"Mattapoisett Center","alternatenames":"","latitude":"41.66595","longitude":"-70.8072","feature_class":"P","feature_code":"PPL","country_code":"US","cc2":"","admin1_code":"MA","admin2_code":"023","admin3_code":"","admin4_code":"","population":"2915","elevation":"25","dem":"30","timezone":"America/New_York","modification_date":"2011-05-14"},{"geonameid":"7257713","name":"Middleborough Center","asciiname":"Middleborough Center","alternatenames":"","latitude":"41.8946","longitude":"-70.92618","feature_class":"P","feature_code":"PPL","country_code":"US","cc2":"","admin1_code":"MA","admin2_code":"023","admin3_code":"","admin4_code":"","population":"7319","elevation":"28","dem":"32","timezone":"America/New_York","modification_date":"2011-05-14"},{"geonameid":"7257716","name":"Millis-Clicquot","asciiname":"Millis-Clicquot","alternatenames":"","latitude":"42.1648","longitude":"-71.35442","feature_class":"P","feature_code":"PPL","country_code":"US","cc2":"","admin1_code":"MA","admin2_code":"021","admin3_code":"","admin4_code":"","population":"4403","elevation":"53","dem":"54","timezone":"America/New_York","modification_date":"2011-05-14"},{"geonameid":"7257719","name":"Monson Center","asciiname":"Monson Center","alternatenames":"","latitude":"42.09898","longitude":"-72.30481","feature_class":"P","feature_code":"PPL","country_code":"US","cc2":"","admin1_code":"MA","admin2_code":"013","admin3_code":"","admin4_code":"","population":"2107","elevation":"167","dem":"174","timezone":"America/New_York","modification_date":"2011-05-14"},{"geonameid":"7257737","name":"Northwest Harwich","asciiname":"Northwest Harwich","alternatenames":"","latitude":"41.69029","longitude":"-70.1025","feature_class":"P","feature_code":"PPL","country_code":"US","cc2":"","admin1_code":"MA","admin2_code":"001","admin3_code":"","admin4_code":"","population":"3929","elevation":"9","dem":"7","timezone":"America/New_York","modification_date":"2011-05-14"},{"geonameid":"7257739","name":"Norton Center","asciiname":"Norton Center","alternatenames":"","latitude":"41.97254","longitude":"-71.18535","feature_class":"P","feature_code":"PPL","country_code":"US","cc2":"","admin1_code":"MA","admin2_code":"005","admin3_code":"","admin4_code":"","population":"2671","elevation":"26","dem":"3","timezone":"America/New_York","modification_date":"2011-05-14"},{"geonameid":"7257741","name":"Ocean Bluff-Brant Rock","asciiname":"Ocean Bluff-Brant Rock","alternatenames":"","latitude":"42.10234","longitude":"-70.65736","feature_class":"P","feature_code":"PPL","country_code":"US","cc2":"","admin1_code":"MA","admin2_code":"023","admin3_code":"","admin4_code":"","population":"4970","elevation":"2","dem":"1","timezone":"America/New_York","modification_date":"2011-05-14"},{"geonameid":"7257796","name":"Bethlehem Village","asciiname":"Bethlehem Village","alternatenames":"","latitude":"41.6401","longitude":"-73.20308","feature_class":"P","feature_code":"PPL","country_code":"US","cc2":"","admin1_code":"CT","admin2_code":"005","admin3_code":"","admin4_code":"","population":"2021","elevation":"279","dem":"275","timezone":"America/New_York","modification_date":"2011-05-14"},{"geonameid":"7257798","name":"Branford Center","asciiname":"Branford Center","alternatenames":"","latitude":"41.27738","longitude":"-72.81511","feature_class":"P","feature_code":"PPL","country_code":"US","cc2":"","admin1_code":"CT","admin2_code":"009","admin3_code":"","admin4_code":"","population":"5819","elevation":"16","dem":"17","timezone":"America/New_York","modification_date":"2011-05-14"},{"geonameid":"7257804","name":"Central Waterford","asciiname":"Central Waterford","alternatenames":"","latitude":"41.34504","longitude":"-72.12948","feature_class":"P","feature_code":"PPL","country_code":"US","cc2":"","admin1_code":"CT","admin2_code":"011","admin3_code":"","admin4_code":"","population":"2887","elevation":"23","dem":"29","timezone":"America/New_York","modification_date":"2011-05-14"},{"geonameid":"7257805","name":"Cheshire Village","asciiname":"Cheshire Village","alternatenames":"","latitude":"41.5026","longitude":"-72.89952","feature_class":"P","feature_code":"PPL","country_code":"US","cc2":"","admin1_code":"CT","admin2_code":"009","admin3_code":"","admin4_code":"","population":"5786","elevation":"76","dem":"75","timezone":"America/New_York","modification_date":"2011-05-14"},{"geonameid":"7257806","name":"Chester Center","asciiname":"Chester Center","alternatenames":"","latitude":"41.40132","longitude":"-72.4527","feature_class":"P","feature_code":"PPL","country_code":"US","cc2":"","admin1_code":"CT","admin2_code":"007","admin3_code":"","admin4_code":"","population":"1558","elevation":"4","dem":"14","timezone":"America/New_York","modification_date":"2011-05-14"},{"geonameid":"7257872","name":"Fairview-Ferndale","asciiname":"Fairview-Ferndale","alternatenames":"","latitude":"40.78037","longitude":"-76.57528","feature_class":"P","feature_code":"PPL","country_code":"US","cc2":"","admin1_code":"PA","admin2_code":"097","admin3_code":"","admin4_code":"","population":"2139","elevation":"297","dem":"301","timezone":"America/New_York","modification_date":"2011-05-14"},{"geonameid":"7257902","name":"Fort Belvoir","asciiname":"Fort Belvoir","alternatenames":"DAA,Fort Belvar,Fort Belvor,fwrt blwwar,Форт Белвар,Форт Белвор,فورت بلووار","latitude":"38.7119","longitude":"-77.14589","feature_class":"P","feature_code":"PPL","country_code":"US","cc2":"","admin1_code":"VA","admin2_code":"059","admin3_code":"","admin4_code":"","population":"7100","elevation":"42","dem":"43","timezone":"America/New_York","modification_date":"2011-05-14"},{"geonameid":"7257905","name":"Fort Drum","asciiname":"Fort Drum","alternatenames":"Fort Dram,de la mu bao,Форт Драм,德拉姆堡","latitude":"44.05843","longitude":"-75.76189","feature_class":"P","feature_code":"PPL","country_code":"US","cc2":"","admin1_code":"NY","admin2_code":"045","admin3_code":"","admin4_code":"","population":"12955","elevation":"158","dem":"160","timezone":"America/New_York","modification_date":"2011-05-14"},{"geonameid":"7257908","name":"Fort Lee","asciiname":"Fort Lee","alternatenames":"Ft. Lee","latitude":"37.24694","longitude":"-77.33442","feature_class":"P","feature_code":"PPL","country_code":"US","cc2":"","admin1_code":"VA","admin2_code":"149","admin3_code":"","admin4_code":"","population":"3393","elevation":"30","dem":"29","timezone":"America/New_York","modification_date":"2013-05-31"},{"geonameid":"7257909","name":"Fort Meade","asciiname":"Fort Meade","alternatenames":"FME,Fort George Meade","latitude":"39.10815","longitude":"-76.74323","feature_class":"P","feature_code":"PPL","country_code":"US","cc2":"","admin1_code":"MD","admin2_code":"003","admin3_code":"","admin4_code":"","population":"9327","elevation":"53","dem":"57","timezone":"America/New_York","modification_date":"2013-04-16"},{"geonameid":"7257914","name":"Aberdeen Proving Ground","asciiname":"Aberdeen Proving Ground","alternatenames":"","latitude":"39.46686","longitude":"-76.13066","feature_class":"P","feature_code":"PPL","country_code":"US","cc2":"","admin1_code":"MD","admin2_code":"025","admin3_code":"","admin4_code":"","population":"2093","elevation":"7","dem":"9","timezone":"America/New_York","modification_date":"2011-05-14"},{"geonameid":"7257935","name":"Andrews AFB","asciiname":"Andrews AFB","alternatenames":"ADW,Andrews AFB CDP,Andrews Air Force Base,Andrews Air Force Base CDP,Andrews Air Force Base Census Designated Place","latitude":"38.80531","longitude":"-76.8746","feature_class":"P","feature_code":"PPL","country_code":"US","cc2":"","admin1_code":"MD","admin2_code":"033","admin3_code":"","admin4_code":"","population":"2973","elevation":"80","dem":"81","timezone":"America/New_York","modification_date":"2014-04-07"},{"geonameid":"7257953","name":"Ashton-Sandy Spring","asciiname":"Ashton-Sandy Spring","alternatenames":"","latitude":"39.14976","longitude":"-77.00504","feature_class":"P","feature_code":"PPL","country_code":"US","cc2":"","admin1_code":"MD","admin2_code":"031","admin3_code":"","admin4_code":"","population":"5628","elevation":"148","dem":"153","timezone":"America/New_York","modification_date":"2011-05-14"},{"geonameid":"7257988","name":"Beaverdam Lake-Salisbury Mills","asciiname":"Beaverdam Lake-Salisbury Mills","alternatenames":"","latitude":"41.44162","longitude":"-74.11629","feature_class":"P","feature_code":"PPL","country_code":"US","cc2":"","admin1_code":"NY","admin2_code":"071","admin3_code":"","admin4_code":"","population":"2242","elevation":"101","dem":"104","timezone":"America/New_York","modification_date":"2011-05-14"},{"geonameid":"7257991","name":"Bel Air North","asciiname":"Bel Air North","alternatenames":"","latitude":"39.55429","longitude":"-76.37309","feature_class":"P","feature_code":"PPL","country_code":"US","cc2":"","admin1_code":"MD","admin2_code":"025","admin3_code":"","admin4_code":"","population":"30568","elevation":"138","dem":"136","timezone":"America/New_York","modification_date":"2011-05-14"},{"geonameid":"7257992","name":"Bel Air South","asciiname":"Bel Air South","alternatenames":"","latitude":"39.50506","longitude":"-76.31977","feature_class":"P","feature_code":"PPL","country_code":"US","cc2":"","admin1_code":"MD","admin2_code":"025","admin3_code":"","admin4_code":"","population":"47709","elevation":"99","dem":"96","timezone":"America/New_York","modification_date":"2011-05-14"},{"geonameid":"7258044","name":"Brittany Farms-Highlands","asciiname":"Brittany Farms-Highlands","alternatenames":"","latitude":"40.26901","longitude":"-75.21401","feature_class":"P","feature_code":"PPL","country_code":"US","cc2":"","admin1_code":"PA","admin2_code":"017","admin3_code":"","admin4_code":"","population":"3695","elevation":"123","dem":"126","timezone":"America/New_York","modification_date":"2011-05-14"},{"geonameid":"7258078","name":"Carmel Hamlet","asciiname":"Carmel Hamlet","alternatenames":"","latitude":"41.41485","longitude":"-73.68524","feature_class":"P","feature_code":"PPL","country_code":"US","cc2":"","admin1_code":"NY","admin2_code":"079","admin3_code":"","admin4_code":"","population":"6817","elevation":"155","dem":"159","timezone":"America/New_York","modification_date":"2011-05-14"},{"geonameid":"7258082","name":"Carnot-Moon","asciiname":"Carnot-Moon","alternatenames":"","latitude":"40.51856","longitude":"-80.21736","feature_class":"P","feature_code":"PPL","country_code":"US","cc2":"","admin1_code":"PA","admin2_code":"003","admin3_code":"","admin4_code":"","population":"11372","elevation":"338","dem":"346","timezone":"America/New_York","modification_date":"2011-05-14"},{"geonameid":"7258090","name":"Cecil-Bishop","asciiname":"Cecil-Bishop","alternatenames":"","latitude":"40.31819","longitude":"-80.19331","feature_class":"P","feature_code":"PPL","country_code":"US","cc2":"","admin1_code":"PA","admin2_code":"125","admin3_code":"","admin4_code":"","population":"2476","elevation":"349","dem":"347","timezone":"America/New_York","modification_date":"2011-05-14"},{"geonameid":"7258153","name":"Conneaut Lakeshore","asciiname":"Conneaut Lakeshore","alternatenames":"","latitude":"41.62711","longitude":"-80.31008","feature_class":"P","feature_code":"PPL","country_code":"US","cc2":"","admin1_code":"PA","admin2_code":"039","admin3_code":"","admin4_code":"","population":"2395","elevation":"327","dem":"325","timezone":"America/New_York","modification_date":"2011-05-14"},{"geonameid":"7258161","name":"Cortland West","asciiname":"Cortland West","alternatenames":"","latitude":"42.59431","longitude":"-76.22587","feature_class":"P","feature_code":"PPL","country_code":"US","cc2":"","admin1_code":"NY","admin2_code":"023","admin3_code":"","admin4_code":"","population":"1356","elevation":"390","dem":"399","timezone":"America/New_York","modification_date":"2011-05-14"},{"geonameid":"7258211","name":"Dover Base Housing","asciiname":"Dover Base Housing","alternatenames":"","latitude":"39.11763","longitude":"-75.48393","feature_class":"P","feature_code":"PPL","country_code":"US","cc2":"","admin1_code":"DE","admin2_code":"001","admin3_code":"","admin4_code":"","population":"3450","elevation":"6","dem":"8","timezone":"America/New_York","modification_date":"2011-05-14"},{"geonameid":"7258233","name":"East Hampton North","asciiname":"East Hampton North","alternatenames":"","latitude":"40.97276","longitude":"-72.18911","feature_class":"P","feature_code":"PPL","country_code":"US","cc2":"","admin1_code":"NY","admin2_code":"103","admin3_code":"","admin4_code":"","population":"4142","elevation":"17","dem":"19","timezone":"America/New_York","modification_date":"2011-05-14"},{"geonameid":"7258259","name":"McGuire AFB","asciiname":"McGuire AFB","alternatenames":"","latitude":"40.03977","longitude":"-74.58174","feature_class":"P","feature_code":"PPL","country_code":"US","cc2":"","admin1_code":"NJ","admin2_code":"005","admin3_code":"","admin4_code":"","population":"3710","elevation":"36","dem":"35","timezone":"America/New_York","modification_date":"2011-05-14"},{"geonameid":"7258303","name":"Moorestown-Lenola","asciiname":"Moorestown-Lenola","alternatenames":"","latitude":"39.96591","longitude":"-74.96441","feature_class":"P","feature_code":"PPL","country_code":"US","cc2":"","admin1_code":"NJ","admin2_code":"005","admin3_code":"","admin4_code":"","population":"14217","elevation":"19","dem":"25","timezone":"America/New_York","modification_date":"2011-05-14"},{"geonameid":"7258310","name":"Mount Gay-Shamrock","asciiname":"Mount Gay-Shamrock","alternatenames":"","latitude":"37.83857","longitude":"-82.0297","feature_class":"P","feature_code":"PPL","country_code":"US","cc2":"","admin1_code":"WV","admin2_code":"045","admin3_code":"","admin4_code":"","population":"1779","elevation":"320","dem":"327","timezone":"America/New_York","modification_date":"2011-05-14"},{"geonameid":"7258318","name":"Mount Vernon","asciiname":"Mount Vernon","alternatenames":"Maunt Vernon,Маунт Вернон,ماؤنٹ ورنن، ورجینیا","latitude":"38.71919","longitude":"-77.10726","feature_class":"P","feature_code":"PPL","country_code":"US","cc2":"","admin1_code":"VA","admin2_code":"059","admin3_code":"","admin4_code":"","population":"12416","elevation":"10","dem":"14","timezone":"America/New_York","modification_date":"2011-05-14"},{"geonameid":"7258330","name":"Naval Academy","asciiname":"Naval Academy","alternatenames":"","latitude":"38.98568","longitude":"-76.48774","feature_class":"P","feature_code":"PPL","country_code":"US","cc2":"","admin1_code":"MD","admin2_code":"003","admin3_code":"","admin4_code":"","population":"4802","elevation":"0","dem":"1","timezone":"America/New_York","modification_date":"2011-05-14"},{"geonameid":"7258338","name":"New Castle Northwest","asciiname":"New Castle Northwest","alternatenames":"","latitude":"41.02208","longitude":"-80.35682","feature_class":"P","feature_code":"PPL","country_code":"US","cc2":"","admin1_code":"PA","admin2_code":"073","admin3_code":"","admin4_code":"","population":"1413","elevation":"320","dem":"317","timezone":"America/New_York","modification_date":"2011-05-14"},