{"nextFile":"cities.109.json","rows":[{"geonameid":"3082012","name":"Wilczogóra","asciiname":"Wilczogora","alternatenames":"","latitude":"52.47348","longitude":"18.16744","feature_class":"P","feature_code":"PPL","country_code":"PL","cc2":"","admin1_code":"86","admin2_code":"3010","admin3_code":"301014","admin4_code":"","population":"1198","elevation":"","dem":"104","timezone":"Europe/Warsaw","modification_date":"2010-10-15"},{"geonameid":"3082016","name":"Wilcza","asciiname":"Wilcza","alternatenames":"Wilcza,Wilcza Dolna","latitude":"50.18899","longitude":"18.59668","feature_class":"P","feature_code":"PPL","country_code":"PL","cc2":"PL","admin1_code":"83","admin2_code":"2405","admin3_code":"240504","admin4_code":"","population":"2063","elevation":"","dem":"249","timezone":"Europe/Warsaw","modification_date":"2010-09-06"},{"geonameid":"3082025","name":"Wilamowice","asciiname":"Wilamowice","alternatenames":"Vilaemovice,Vilamovice,Viljamovice,Vilämovice,Wilamowicy,wei la mo wei cai,Виламовице,Вилямовице,Вілямовіце,維拉莫維采","latitude":"49.91701","longitude":"19.15237","feature_class":"P","feature_code":"PPL","country_code":"PL","cc2":"","admin1_code":"83","admin2_code":"2402","admin3_code":"240209","admin4_code":"","population":"2813","elevation":"","dem":"284","timezone":"Europe/Warsaw","modification_date":"2010-09-09"},{"geonameid":"3082044","name":"Wijewo","asciiname":"Wijewo","alternatenames":"","latitude":"51.91627","longitude":"16.18552","feature_class":"P","feature_code":"PPLA3","country_code":"PL","cc2":"","admin1_code":"86","admin2_code":"3013","admin3_code":"301306","admin4_code":"","population":"1200","elevation":"","dem":"63","timezone":"Europe/Warsaw","modification_date":"2010-10-16"},{"geonameid":"3082061","name":"Wieszowa","asciiname":"Wieszowa","alternatenames":"","latitude":"50.38444","longitude":"18.75924","feature_class":"P","feature_code":"PPL","country_code":"PL","cc2":"","admin1_code":"83","admin2_code":"2413","admin3_code":"241309","admin4_code":"","population":"1860","elevation":"","dem":"275","timezone":"Europe/Warsaw","modification_date":"2010-09-06"},{"geonameid":"3082101","name":"Wierzchucino","asciiname":"Wierzchucino","alternatenames":"","latitude":"54.78797","longitude":"18.00307","feature_class":"P","feature_code":"PPL","country_code":"PL","cc2":"","admin1_code":"82","admin2_code":"2211","admin3_code":"221106","admin4_code":"","population":"1536","elevation":"","dem":"14","timezone":"Europe/Warsaw","modification_date":"2010-10-21"},{"geonameid":"3082110","name":"Wierzchowo","asciiname":"Wierzchowo","alternatenames":"Virchow,Wierzchowo","latitude":"53.46013","longitude":"16.09961","feature_class":"P","feature_code":"PPL","country_code":"PL","cc2":"PL","admin1_code":"87","admin2_code":"3203","admin3_code":"320305","admin4_code":"","population":"1541","elevation":"","dem":"136","timezone":"Europe/Warsaw","modification_date":"2010-09-28"},{"geonameid":"3082119","name":"Wierzchosławice","asciiname":"Wierzchoslawice","alternatenames":"","latitude":"52.86923","longitude":"18.35609","feature_class":"P","feature_code":"PPL","country_code":"PL","cc2":"","admin1_code":"73","admin2_code":"0407","admin3_code":"040703","admin4_code":"","population":"1400","elevation":"","dem":"81","timezone":"Europe/Warsaw","modification_date":"2010-09-17"},{"geonameid":"3082130","name":"Wierzchlas","asciiname":"Wierzchlas","alternatenames":"","latitude":"51.20457","longitude":"18.66543","feature_class":"P","feature_code":"PPL","country_code":"PL","cc2":"","admin1_code":"74","admin2_code":"1017","admin3_code":"101710","admin4_code":"","population":"2000","elevation":"","dem":"205","timezone":"Europe/Warsaw","modification_date":"2010-09-06"},{"geonameid":"3082144","name":"Wierzbno","asciiname":"Wierzbno","alternatenames":"","latitude":"50.93674","longitude":"17.17961","feature_class":"P","feature_code":"PPL","country_code":"PL","cc2":"","admin1_code":"72","admin2_code":"0215","admin3_code":"021502","admin4_code":"","population":"1047","elevation":"","dem":"140","timezone":"Europe/Warsaw","modification_date":"2010-09-18"},{"geonameid":"3082153","name":"Wierzbinek","asciiname":"Wierzbinek","alternatenames":"","latitude":"52.44026","longitude":"18.51085","feature_class":"P","feature_code":"PPLA3","country_code":"PL","cc2":"","admin1_code":"86","admin2_code":"3010","admin3_code":"301013","admin4_code":"","population":"380","elevation":"","dem":"92","timezone":"Europe/Warsaw","modification_date":"2010-10-15"},{"geonameid":"3082176","name":"Wieruszów","asciiname":"Wieruszow","alternatenames":"Verushov,Verushuv,Verusova,Verušova,Vjerushov,Wieruszow,Wieruszów,wei lu shu fu,wyyrwswb,Верушов,Верушув,Вјерушов,ויירושוב,維魯舒夫","latitude":"51.29488","longitude":"18.15547","feature_class":"P","feature_code":"PPLA2","country_code":"PL","cc2":"","admin1_code":"74","admin2_code":"1018","admin3_code":"101807","admin4_code":"","population":"8692","elevation":"","dem":"154","timezone":"Europe/Warsaw","modification_date":"2010-10-16"},{"geonameid":"3082192","name":"Wieprz","asciiname":"Wieprz","alternatenames":"","latitude":"49.89093","longitude":"19.35688","feature_class":"P","feature_code":"PPL","country_code":"PL","cc2":"","admin1_code":"77","admin2_code":"1218","admin3_code":"121810","admin4_code":"","population":"5002","elevation":"","dem":"289","timezone":"Europe/Warsaw","modification_date":"2010-09-09"},{"geonameid":"3082193","name":"Wieprz","asciiname":"Wieprz","alternatenames":"","latitude":"49.64746","longitude":"19.18007","feature_class":"P","feature_code":"PPL","country_code":"PL","cc2":"","admin1_code":"83","admin2_code":"2417","admin3_code":"241710","admin4_code":"","population":"3535","elevation":"","dem":"368","timezone":"Europe/Warsaw","modification_date":"2010-09-06"},{"geonameid":"3082197","name":"Wieluń","asciiname":"Wielun","alternatenames":"Gorad Veljun',Veliunis,Veljun,Veljun',Veluna,Veluņa,Velyun',Vieloun,Vielun,Vjelun,Weilun,Wielun,Wieluń,biellun,vu~ieruni,wei long,wylwn,wyylwn,Βιέλουν,Велюн,Велюнь,Вјелуњ,Горад Велюнь,ויילון,ویلون,ヴィエルニ,维隆,비엘룬","latitude":"51.22097","longitude":"18.56964","feature_class":"P","feature_code":"PPL","country_code":"PL","cc2":"","admin1_code":"74","admin2_code":"1017","admin3_code":"101709","admin4_code":"","population":"24384","elevation":"","dem":"180","timezone":"Europe/Warsaw","modification_date":"2010-09-25"},{"geonameid":"3082206","name":"Wielowieś","asciiname":"Wielowies","alternatenames":"Langendorf,Wielowies,Wielowieś","latitude":"50.50966","longitude":"18.61608","feature_class":"P","feature_code":"PPL","country_code":"PL","cc2":"PL","admin1_code":"83","admin2_code":"2405","admin3_code":"240508","admin4_code":"","population":"1811","elevation":"","dem":"262","timezone":"Europe/Warsaw","modification_date":"2010-09-06"},{"geonameid":"3082282","name":"Wielka Wieś","asciiname":"Wielka Wies","alternatenames":"","latitude":"50.15694","longitude":"19.84363","feature_class":"P","feature_code":"PPL","country_code":"PL","cc2":"","admin1_code":"77","admin2_code":"1206","admin3_code":"120615","admin4_code":"","population":"1127","elevation":"","dem":"384","timezone":"Europe/Warsaw","modification_date":"2010-09-10"},{"geonameid":"3082287","name":"Wielka Nieszawka","asciiname":"Wielka Nieszawka","alternatenames":"","latitude":"52.99619","longitude":"18.50973","feature_class":"P","feature_code":"PPLA3","country_code":"PL","cc2":"","admin1_code":"73","admin2_code":"0415","admin3_code":"041508","admin4_code":"","population":"460","elevation":"","dem":"37","timezone":"Europe/Warsaw","modification_date":"2010-09-16"},{"geonameid":"3082299","name":"Wielichowo","asciiname":"Wielichowo","alternatenames":"Velihovo,Velikhovo,Vjelikhovo,Wielichowo,wei li huo wo,Велихово,Веліхово,Вјелихово,維利霍沃","latitude":"52.11573","longitude":"16.3518","feature_class":"P","feature_code":"PPLA3","country_code":"PL","cc2":"","admin1_code":"86","admin2_code":"3005","admin3_code":"300505","admin4_code":"","population":"1736","elevation":"","dem":"70","timezone":"Europe/Warsaw","modification_date":"2010-10-16"},{"geonameid":"3082310","name":"Wielgie","asciiname":"Wielgie","alternatenames":"","latitude":"52.74076","longitude":"19.2635","feature_class":"P","feature_code":"PPLA3","country_code":"PL","cc2":"","admin1_code":"73","admin2_code":"0408","admin3_code":"040809","admin4_code":"","population":"1081","elevation":"","dem":"115","timezone":"Europe/Warsaw","modification_date":"2010-09-15"},{"geonameid":"3082319","name":"Wieleń","asciiname":"Wielen","alternatenames":"Filehne,Velen',Velena,Veleņa,Vielene,Vielenė,Vjelen,Wielen,Wieleń,Wieléń,wei lun,Велень,Вјелењ,维伦","latitude":"52.89461","longitude":"16.17136","feature_class":"P","feature_code":"PPLA3","country_code":"PL","cc2":"PL","admin1_code":"86","admin2_code":"3002","admin3_code":"300208","admin4_code":"","population":"6067","elevation":"","dem":"35","timezone":"Europe/Warsaw","modification_date":"2010-10-16"},{"geonameid":"3082333","name":"Większyce","asciiname":"Wiekszyce","alternatenames":"","latitude":"50.33659","longitude":"18.10221","feature_class":"P","feature_code":"PPL","country_code":"PL","cc2":"","admin1_code":"79","admin2_code":"1603","admin3_code":"160306","admin4_code":"","population":"1055","elevation":"","dem":"189","timezone":"Europe/Warsaw","modification_date":"2010-10-20"},{"geonameid":"3082364","name":"Więcbork","asciiname":"Wiecbork","alternatenames":"Vandsburg,Vencbork,Vencborka,Vjencbork,Wiacborg,Wiebork,Wiecbork,Wiãcbórg,Więcbork,wen ci bao,Венцборк,Вјенцборк,溫茨堡","latitude":"53.35384","longitude":"17.49064","feature_class":"P","feature_code":"PPLA3","country_code":"PL","cc2":"PL","admin1_code":"73","admin2_code":"0413","admin3_code":"041304","admin4_code":"","population":"5953","elevation":"","dem":"113","timezone":"Europe/Warsaw","modification_date":"2010-09-16"},{"geonameid":"3082376","name":"Widuchowa","asciiname":"Widuchowa","alternatenames":"Fiddichow,Widuchowo","latitude":"53.12693","longitude":"14.39074","feature_class":"P","feature_code":"PPLA3","country_code":"PL","cc2":"PL","admin1_code":"87","admin2_code":"3206","admin3_code":"320609","admin4_code":"","population":"1300","elevation":"","dem":"19","timezone":"Europe/Warsaw","modification_date":"2010-10-16"},{"geonameid":"3082390","name":"Widawa","asciiname":"Widawa","alternatenames":"Comuna de Widawa,Gmina Vidava,Gmina Widawa,Vidava,Видава,Ґміна Відава","latitude":"51.43855","longitude":"18.94421","feature_class":"P","feature_code":"PPLA3","country_code":"PL","cc2":"","admin1_code":"74","admin2_code":"1003","admin3_code":"100304","admin4_code":"","population":"1300","elevation":"","dem":"150","timezone":"Europe/Warsaw","modification_date":"2010-10-15"},{"geonameid":"3082411","name":"Wiązów","asciiname":"Wiazow","alternatenames":"V'onzov,Vjonzhov,Vjonzova,Vjonzuv,Wansen,Wiazow,Wiezow,Wiezów,Wiązów,wei weng zu fu,Вйонзув,Вьонзов,Вёнзув,Вјонжов,維翁祖夫","latitude":"50.81399","longitude":"17.20214","feature_class":"P","feature_code":"PPL","country_code":"PL","cc2":"PL","admin1_code":"72","admin2_code":"0217","admin3_code":"021705","admin4_code":"","population":"2340","elevation":"","dem":"152","timezone":"Europe/Warsaw","modification_date":"2010-09-12"},{"geonameid":"3082473","name":"Wejherowo","asciiname":"Wejherowo","alternatenames":"Neustadt,Veiherovas,Vejgerovo,Vejherovo,Vejkherovo,Veykherovo,Weiherowo,Wejherowo,Wejrowo,Wejrowò,vu~eiherovu~o,wei yi hai luo wo,Вейгерово,Вейхерово,Вејхерово,ヴェイヘロヴォ,韋伊海羅沃","latitude":"54.60568","longitude":"18.23559","feature_class":"P","feature_code":"PPLA2","country_code":"PL","cc2":"","admin1_code":"82","admin2_code":"2215","admin3_code":"221503","admin4_code":"","population":"46820","elevation":"","dem":"27","timezone":"Europe/Warsaw","modification_date":"2010-10-21"},{"geonameid":"3082481","name":"Węgry","asciiname":"Wegry","alternatenames":"","latitude":"50.74319","longitude":"18.01741","feature_class":"P","feature_code":"PPL","country_code":"PL","cc2":"","admin1_code":"79","admin2_code":"1609","admin3_code":"160913","admin4_code":"","population":"1010","elevation":"","dem":"160","timezone":"Europe/Warsaw","modification_date":"2010-09-30"},{"geonameid":"3082485","name":"Węgorzyno","asciiname":"Wegorzyno","alternatenames":"Gorad Vehngazhyna,Vengojino,Vengozhino,Vengozino,Vengožino,Veñgojıno,Wagorzeno,Wangerin,Wãgòrzëno,wen ge ri nuo,Венгожино,Горад Вэнгажына,文戈日諾","latitude":"53.54101","longitude":"15.55964","feature_class":"P","feature_code":"PPL","country_code":"PL","cc2":"PL","admin1_code":"87","admin2_code":"3218","admin3_code":"321805","admin4_code":"","population":"3009","elevation":"","dem":"94","timezone":"Europe/Warsaw","modification_date":"2010-09-12"},{"geonameid":"3082500","name":"Węgliniec","asciiname":"Wegliniec","alternatenames":"Kalawsk,Kaławsk,Kohlfurt,Venglinec,Venglinec',Venglineca,Vengliņeca,Wegliniec,Węgliniec,wen ge li nie ci,Венглинец,Венглињец,Венґлінець,文格利涅茨","latitude":"51.28753","longitude":"15.22894","feature_class":"P","feature_code":"PPLA3","country_code":"PL","cc2":"PL","admin1_code":"72","admin2_code":"0225","admin3_code":"022506","admin4_code":"","population":"2992","elevation":"","dem":"192","timezone":"Europe/Warsaw","modification_date":"2011-07-31"},{"geonameid":"3082510","name":"Węgierska Górka","asciiname":"Wegierska Gorka","alternatenames":"","latitude":"49.60776","longitude":"19.11638","feature_class":"P","feature_code":"PPL","country_code":"PL","cc2":"","admin1_code":"83","admin2_code":"2417","admin3_code":"241715","admin4_code":"","population":"4233","elevation":"","dem":"408","timezone":"Europe/Warsaw","modification_date":"2010-09-06"},{"geonameid":"3082556","name":"Wąsosz","asciiname":"Wasosz","alternatenames":"Herrnstadt,Vonsosa,Vonsosh,Vonsoša,Wasosz,Wąsosz,weng suo shen,Вонсош,翁索什","latitude":"51.56224","longitude":"16.69059","feature_class":"P","feature_code":"PPL","country_code":"PL","cc2":"","admin1_code":"72","admin2_code":"0204","admin3_code":"020404","admin4_code":"","population":"2789","elevation":"","dem":"87","timezone":"Europe/Warsaw","modification_date":"2015-09-02"},{"geonameid":"3082581","name":"Wartkowice","asciiname":"Wartkowice","alternatenames":"","latitude":"51.97626","longitude":"19.0018","feature_class":"P","feature_code":"PPLA3","country_code":"PL","cc2":"","admin1_code":"74","admin2_code":"1011","admin3_code":"101105","admin4_code":"","population":"691","elevation":"","dem":"111","timezone":"Europe/Warsaw","modification_date":"2010-10-16"},{"geonameid":"3082587","name":"Warta","asciiname":"Warta","alternatenames":"","latitude":"51.71049","longitude":"18.62483","feature_class":"P","feature_code":"PPLA3","country_code":"PL","cc2":"","admin1_code":"74","admin2_code":"1014","admin3_code":"101409","admin4_code":"","population":"3400","elevation":"","dem":"130","timezone":"Europe/Warsaw","modification_date":"2010-10-16"},{"geonameid":"3082607","name":"Warnice","asciiname":"Warnice","alternatenames":"Warnice,Warnitz","latitude":"53.25376","longitude":"14.99402","feature_class":"P","feature_code":"PPLA3","country_code":"PL","cc2":"","admin1_code":"87","admin2_code":"3212","admin3_code":"321206","admin4_code":"","population":"695","elevation":"","dem":"26","timezone":"Europe/Warsaw","modification_date":"2010-09-21"},{"geonameid":"3082611","name":"Warlubie","asciiname":"Warlubie","alternatenames":"Varljube,Warlubie,Варлюбе","latitude":"53.58751","longitude":"18.63444","feature_class":"P","feature_code":"PPL","country_code":"PL","cc2":"","admin1_code":"73","admin2_code":"0414","admin3_code":"041411","admin4_code":"","population":"2043","elevation":"","dem":"72","timezone":"Europe/Warsaw","modification_date":"2010-09-13"},{"geonameid":"3082635","name":"Wapno","asciiname":"Wapno","alternatenames":"Wapno,Wapno Nowe","latitude":"52.90804","longitude":"17.47504","feature_class":"P","feature_code":"PPLA3","country_code":"PL","cc2":"PL","admin1_code":"86","admin2_code":"3028","admin3_code":"302806","admin4_code":"","population":"1700","elevation":"","dem":"101","timezone":"Europe/Warsaw","modification_date":"2010-09-28"},{"geonameid":"3082647","name":"Wąpielsk","asciiname":"Wapielsk","alternatenames":"","latitude":"53.13761","longitude":"19.27792","feature_class":"P","feature_code":"PPLA3","country_code":"PL","cc2":"","admin1_code":"73","admin2_code":"0412","admin3_code":"041206","admin4_code":"","population":"803","elevation":"","dem":"101","timezone":"Europe/Warsaw","modification_date":"2010-09-15"},{"geonameid":"3082678","name":"Walim","asciiname":"Walim","alternatenames":"Walim,Wuestewaltersdorf,Wustelwaltersdorf,Wusterwaltersdorf,Wüstelwaltersdorf,Wüsterwaltersdorf,Wüstewaltersdorf","latitude":"50.69749","longitude":"16.44482","feature_class":"P","feature_code":"PPL","country_code":"PL","cc2":"PL","admin1_code":"72","admin2_code":"0221","admin3_code":"022108","admin4_code":"","population":"2763","elevation":"","dem":"525","timezone":"Europe/Warsaw","modification_date":"2015-09-02"},{"geonameid":"3082680","name":"Walichnowy","asciiname":"Walichnowy","alternatenames":"","latitude":"51.29579","longitude":"18.38073","feature_class":"P","feature_code":"PPL","country_code":"PL","cc2":"","admin1_code":"74","admin2_code":"1018","admin3_code":"101806","admin4_code":"","population":"1100","elevation":"","dem":"182","timezone":"Europe/Warsaw","modification_date":"2010-10-16"},{"geonameid":"3082704","name":"Wałcz","asciiname":"Walcz","alternatenames":"Deutsch Krone,Gorad Valch,Valca,Valcas,Valch,Valča,Valčas,Walcz,Wałcz,Wolcz,Wôłcz,wa wu qi,Валч,Горад Валч,瓦烏奇","latitude":"53.27787","longitude":"16.47122","feature_class":"P","feature_code":"PPLA3","country_code":"PL","cc2":"","admin1_code":"87","admin2_code":"3217","admin3_code":"321701","admin4_code":"","population":"25971","elevation":"","dem":"112","timezone":"Europe/Warsaw","modification_date":"2011-07-31"},{"geonameid":"3082705","name":"Walce","asciiname":"Walce","alternatenames":"","latitude":"50.37322","longitude":"18.00427","feature_class":"P","feature_code":"PPLA3","country_code":"PL","cc2":"","admin1_code":"79","admin2_code":"1605","admin3_code":"160504","admin4_code":"","population":"2100","elevation":"","dem":"182","timezone":"Europe/Warsaw","modification_date":"2010-09-25"},{"geonameid":"3082707","name":"Wałbrzych","asciiname":"Walbrzych","alternatenames":"Gorad Valbzhykh,Valbzhikh,Valbziha,Valbzychas,Valbžiha,Valbžychas,Walbrzych,Waldenburg,Waldenburg in Schlesien,Wałbrzych,baubeujiheu,vu~aubujifu,wa lb cik,wa wu bu ri he,wawb jykh,wawb zhykh,wlbzyk,Валбжих,Горад Валбжых,ולבזיך,واوب جيخ,واوب ژیخ,วาลบ์จิก,ヴァウブジフ,瓦烏布日赫,바우브지흐","latitude":"50.77141","longitude":"16.28432","feature_class":"P","feature_code":"PPLA3","country_code":"PL","cc2":"","admin1_code":"72","admin2_code":"0221","admin3_code":"022109","admin4_code":"","population":"127431","elevation":"","dem":"495","timezone":"Europe/Warsaw","modification_date":"2011-07-31"},{"geonameid":"3082712","name":"Wągrowiec","asciiname":"Wagrowiec","alternatenames":"Eichenbruck,Eichenbrück,Vongrovec,Vongrovec',Vongroveca,Vongrovecas,Vongrovjec,Wagrowiec,Wągrowiec,weng ge luo wei ci,Вонгровец,Вонгровець,Вонгровјец,翁格羅維茨","latitude":"52.80842","longitude":"17.19961","feature_class":"P","feature_code":"PPL","country_code":"PL","cc2":"","admin1_code":"86","admin2_code":"3028","admin3_code":"302801","admin4_code":"","population":"24428","elevation":"","dem":"82","timezone":"Europe/Warsaw","modification_date":"2010-09-28"},{"geonameid":"3082718","name":"Waganiec","asciiname":"Waganiec","alternatenames":"","latitude":"52.8012","longitude":"18.87589","feature_class":"P","feature_code":"PPL","country_code":"PL","cc2":"","admin1_code":"73","admin2_code":"0401","admin3_code":"040108","admin4_code":"","population":"1300","elevation":"","dem":"85","timezone":"Europe/Warsaw","modification_date":"2010-09-14"},{"geonameid":"3082722","name":"Wadowice","asciiname":"Wadowice","alternatenames":"Bantobitse,Gorad Vadavicy,Vadovice,Wadowice,badobiche,vu~adovu~itsu~e,wa duo wei cai,wdwbyzh,Βαντοβίτσε,Вадовице,Вадовіце,Горад Вадавіцы,ודוביצה,ヴァドヴィツェ,瓦多維采,바도비체","latitude":"49.88335","longitude":"19.49292","feature_class":"P","feature_code":"PPLA2","country_code":"PL","cc2":"","admin1_code":"77","admin2_code":"1218","admin3_code":"121809","admin4_code":"","population":"19238","elevation":"","dem":"271","timezone":"Europe/Warsaw","modification_date":"2010-09-22"},{"geonameid":"3082734","name":"Wąbrzeźno","asciiname":"Wabrzezno","alternatenames":"Briesen,Vombzezno,Vombzhez'no,Vombzhezhno,Vombzhezno,Vombžezno,Wabrzezno,Wąbrzeźno,Wąbrzézno,vu~onbujejino,weng bu re yi nuo,Вомбжежно,Вомбжезно,Вомбжезьно,ヴォンブジェジノ,翁布熱伊諾","latitude":"53.27989","longitude":"18.94773","feature_class":"P","feature_code":"PPLA2","country_code":"PL","cc2":"","admin1_code":"73","admin2_code":"0417","admin3_code":"041701","admin4_code":"","population":"13911","elevation":"","dem":"105","timezone":"Europe/Warsaw","modification_date":"2010-09-16"},{"geonameid":"3082745","name":"Ustronie Morskie","asciiname":"Ustronie Morskie","alternatenames":"Henkenhagen,Ustronie Morskie,Ustronie Polana","latitude":"54.21517","longitude":"15.75568","feature_class":"P","feature_code":"PPL","country_code":"PL","cc2":"PL","admin1_code":"87","admin2_code":"3208","admin3_code":"320807","admin4_code":"","population":"2081","elevation":"","dem":"7","timezone":"Europe/Warsaw","modification_date":"2010-09-07"},{"geonameid":"3082751","name":"Ustroń","asciiname":"Ustron","alternatenames":"Ustron,Ustron',Ustrona,Ustroń,Ustroņa,Ustroň,Ustrune,Ustrůńe,wu si te long,Устрон,Устронь,Устроњ,烏斯特龍","latitude":"49.72153","longitude":"18.80198","feature_class":"P","feature_code":"PPLA3","country_code":"PL","cc2":"","admin1_code":"83","admin2_code":"2403","admin3_code":"240302","admin4_code":"","population":"15637","elevation":"","dem":"355","timezone":"Europe/Warsaw","modification_date":"2011-07-31"},{"geonameid":"3082756","name":"Ustka","asciiname":"Ustka","alternatenames":"Stolpmunde,Stolpmünde,Usko,Ustka,useuteuka,usutoka,wu si te ka,Ùskô,Устка,ウストカ,乌斯特卡,우스트카","latitude":"54.58048","longitude":"16.86194","feature_class":"P","feature_code":"PPLA3","country_code":"PL","cc2":"","admin1_code":"82","admin2_code":"2212","admin3_code":"221201","admin4_code":"","population":"16250","elevation":"","dem":"2","timezone":"Europe/Warsaw","modification_date":"2010-09-24"},{"geonameid":"3082785","name":"Unisław","asciiname":"Unislaw","alternatenames":"Unislav,Unislaw,Unisław,Унислав","latitude":"53.21241","longitude":"18.38622","feature_class":"P","feature_code":"PPL","country_code":"PL","cc2":"","admin1_code":"73","admin2_code":"0404","admin3_code":"040407","admin4_code":"","population":"3490","elevation":"","dem":"89","timezone":"Europe/Warsaw","modification_date":"2010-09-13"},{"geonameid":"3082801","name":"Uniejów","asciiname":"Uniejow","alternatenames":"Unejov,Unejova,Unejuv,Uniejow,Uniejów,Uņejova,wu nie you fu,Ùniejów,Унеюв,Уњејов,אונייוב,烏涅尤夫","latitude":"51.97428","longitude":"18.79308","feature_class":"P","feature_code":"PPLA3","country_code":"PL","cc2":"","admin1_code":"74","admin2_code":"1011","admin3_code":"101104","admin4_code":"","population":"2932","elevation":"","dem":"116","timezone":"Europe/Warsaw","modification_date":"2010-10-16"},{"geonameid":"3082837","name":"Ujsoły","asciiname":"Ujsoly","alternatenames":"","latitude":"49.4829","longitude":"19.13801","feature_class":"P","feature_code":"PPL","country_code":"PL","cc2":"","admin1_code":"83","admin2_code":"2417","admin3_code":"241714","admin4_code":"","population":"2392","elevation":"","dem":"551","timezone":"Europe/Warsaw","modification_date":"2010-09-06"},{"geonameid":"3082838","name":"Ujście","asciiname":"Ujscie","alternatenames":"Ujs'ce,Ujsce,Ujscie,Ujshce,Ujście,Usce,wu yi xi qie,Ùscé,Уйсце,Уйсьце,Ујшће,烏伊希切","latitude":"53.05339","longitude":"16.73201","feature_class":"P","feature_code":"PPLA3","country_code":"PL","cc2":"","admin1_code":"86","admin2_code":"3019","admin3_code":"301907","admin4_code":"","population":"3869","elevation":"","dem":"52","timezone":"Europe/Warsaw","modification_date":"2011-07-31"},{"geonameid":"3082854","name":"Ujazd","asciiname":"Ujazd","alternatenames":"","latitude":"51.59781","longitude":"19.92225","feature_class":"P","feature_code":"PPLA3","country_code":"PL","cc2":"","admin1_code":"74","admin2_code":"1016","admin3_code":"101610","admin4_code":"","population":"1700","elevation":"","dem":"174","timezone":"Europe/Warsaw","modification_date":"2010-10-15"},{"geonameid":"3082855","name":"Ujazd","asciiname":"Ujazd","alternatenames":"Bischofstal,Ujazd,Ujazda,Ujest,Ujest Oberschlesien,wu ya zi de,Уязд,Ујазд,אוייזד,烏亞茲德","latitude":"50.38938","longitude":"18.34929","feature_class":"P","feature_code":"PPLA3","country_code":"PL","cc2":"PL","admin1_code":"79","admin2_code":"1611","admin3_code":"161106","admin4_code":"","population":"1638","elevation":"","dem":"194","timezone":"Europe/Warsaw","modification_date":"2010-09-24"},{"geonameid":"3082866","name":"Udanin","asciiname":"Udanin","alternatenames":"Udanin","latitude":"51.0374","longitude":"16.45469","feature_class":"P","feature_code":"PPLA3","country_code":"PL","cc2":"","admin1_code":"72","admin2_code":"0218","admin3_code":"021805","admin4_code":"","population":"982","elevation":"","dem":"178","timezone":"Europe/Warsaw","modification_date":"2010-10-19"},{"geonameid":"3082870","name":"Uciechów","asciiname":"Uciechow","alternatenames":"","latitude":"50.75487","longitude":"16.68175","feature_class":"P","feature_code":"PPL","country_code":"PL","cc2":"","admin1_code":"72","admin2_code":"0202","admin3_code":"020205","admin4_code":"","population":"1017","elevation":"","dem":"260","timezone":"Europe/Warsaw","modification_date":"2010-10-20"},{"geonameid":"3082887","name":"Tyniec Mały","asciiname":"Tyniec Maly","alternatenames":"Tyniec Maly,Tyniec Mały","latitude":"51.01948","longitude":"16.91998","feature_class":"P","feature_code":"PPL","country_code":"PL","cc2":"","admin1_code":"72","admin2_code":"0223","admin3_code":"022305","admin4_code":"","population":"1622","elevation":"","dem":"146","timezone":"Europe/Warsaw","modification_date":"2010-09-30"},{"geonameid":"3082914","name":"Tychy","asciiname":"Tychy","alternatenames":"Tichau,Tihi,Tikhi,Tychos,Tychy,Tykhy,Tıhı,di hei,thi khi,tihi,tixa,tyshy,Тихи,Тыхы,تیشی,ทิคี,ティヒ,蒂黑,티히","latitude":"50.13717","longitude":"18.96641","feature_class":"P","feature_code":"PPLA3","country_code":"PL","cc2":"","admin1_code":"83","admin2_code":"2477","admin3_code":"247701","admin4_code":"","population":"130000","elevation":"","dem":"259","timezone":"Europe/Warsaw","modification_date":"2011-07-31"},{"geonameid":"3082916","name":"Tychowo","asciiname":"Tychowo","alternatenames":"Gross Tychow,Techowo,Tihovo,Tikhovo,Tychowo,Tëchòwò,di huo wo,Тихово,蒂霍沃","latitude":"53.92774","longitude":"16.25771","feature_class":"P","feature_code":"PPLA3","country_code":"PL","cc2":"PL","admin1_code":"87","admin2_code":"3201","admin3_code":"320104","admin4_code":"","population":"2507","elevation":"","dem":"69","timezone":"Europe/Warsaw","modification_date":"2011-01-08"},{"geonameid":"3082931","name":"Tworóg","asciiname":"Tworog","alternatenames":"Horneck,Tworog,Tworóg","latitude":"50.531","longitude":"18.71572","feature_class":"P","feature_code":"PPLA3","country_code":"PL","cc2":"PL","admin1_code":"83","admin2_code":"2413","admin3_code":"241308","admin4_code":"","population":"3607","elevation":"","dem":"248","timezone":"Europe/Warsaw","modification_date":"2010-09-21"},{"geonameid":"3082933","name":"Tworków","asciiname":"Tworkow","alternatenames":"","latitude":"50.00559","longitude":"18.23576","feature_class":"P","feature_code":"PPL","country_code":"PL","cc2":"","admin1_code":"83","admin2_code":"2411","admin3_code":"241104","admin4_code":"","population":"2800","elevation":"","dem":"209","timezone":"Europe/Warsaw","modification_date":"2010-09-06"},{"geonameid":"3082938","name":"Twardogóra","asciiname":"Twardogora","alternatenames":"Festenberg,Tvardogora,Tvardogura,Twarda Gora,Twarda Góra,Twardogora,Twardogóra,te wa er duo gu la,Твардогора,Твардогура,Твардоґура,特瓦爾多古拉","latitude":"51.36487","longitude":"17.46878","feature_class":"P","feature_code":"PPL","country_code":"PL","cc2":"PL","admin1_code":"72","admin2_code":"0214","admin3_code":"021408","admin4_code":"","population":"6840","elevation":"","dem":"181","timezone":"Europe/Warsaw","modification_date":"2010-09-12"},{"geonameid":"3082940","name":"Twardawa","asciiname":"Twardawa","alternatenames":"","latitude":"50.34349","longitude":"17.99097","feature_class":"P","feature_code":"PPL","country_code":"PL","cc2":"","admin1_code":"79","admin2_code":"1610","admin3_code":"161002","admin4_code":"","population":"1029","elevation":"","dem":"193","timezone":"Europe/Warsaw","modification_date":"2010-10-20"},{"geonameid":"3082945","name":"Tuszyn","asciiname":"Tuszyn","alternatenames":"Tushin,Tusina,Tuszyn,Tušina,tu shen,twchyn,Тушин,توچین,圖申","latitude":"51.60949","longitude":"19.53009","feature_class":"P","feature_code":"PPLA3","country_code":"PL","cc2":"","admin1_code":"74","admin2_code":"1006","admin3_code":"100611","admin4_code":"","population":"7124","elevation":"","dem":"209","timezone":"Europe/Warsaw","modification_date":"2011-07-31"},{"geonameid":"3082966","name":"Turza Śląska","asciiname":"Turza Slaska","alternatenames":"Turza,Turza Slaska,Turza Śląska","latitude":"49.97231","longitude":"18.43781","feature_class":"P","feature_code":"PPL","country_code":"PL","cc2":"PL","admin1_code":"83","admin2_code":"2415","admin3_code":"241506","admin4_code":"","population":"3085","elevation":"","dem":"225","timezone":"Europe/Warsaw","modification_date":"2010-09-06"},{"geonameid":"3082998","name":"Turek","asciiname":"Turek","alternatenames":"Turek,Турек","latitude":"52.01548","longitude":"18.50055","feature_class":"P","feature_code":"PPLA2","country_code":"PL","cc2":"","admin1_code":"86","admin2_code":"3027","admin3_code":"302701","admin4_code":"","population":"29533","elevation":"","dem":"121","timezone":"Europe/Warsaw","modification_date":"2014-06-26"},{"geonameid":"3083004","name":"Tuplice","asciiname":"Tuplice","alternatenames":"Klein Teuplitz,Teuplitz,Tuplice","latitude":"51.67639","longitude":"14.82914","feature_class":"P","feature_code":"PPLA3","country_code":"PL","cc2":"PL","admin1_code":"76","admin2_code":"0811","admin3_code":"081109","admin4_code":"","population":"1500","elevation":"","dem":"117","timezone":"Europe/Warsaw","modification_date":"2010-10-16"},{"geonameid":"3083015","name":"Tułowice","asciiname":"Tulowice","alternatenames":"Tillowitz,Tulowice,Tułowice","latitude":"50.59577","longitude":"17.65323","feature_class":"P","feature_code":"PPL","country_code":"PL","cc2":"PL","admin1_code":"79","admin2_code":"1609","admin3_code":"160912","admin4_code":"","population":"4290","elevation":"","dem":"174","timezone":"Europe/Warsaw","modification_date":"2010-09-12"},{"geonameid":"3083017","name":"Tuliszków","asciiname":"Tuliszkow","alternatenames":"Comuna de Tuliszkow,Comuna de Tuliszków,Gmina Tulishkuv,Gmina Tuliszkow,Gmina Tuliszków,Tulishkuv,Tuliszkow,Tuliszków,Тулишкув,Ґміна Тулішкув","latitude":"52.07658","longitude":"18.29549","feature_class":"P","feature_code":"PPLA3","country_code":"PL","cc2":"","admin1_code":"86","admin2_code":"3027","admin3_code":"302707","admin4_code":"","population":"3371","elevation":"","dem":"130","timezone":"Europe/Warsaw","modification_date":"2014-06-27"},{"geonameid":"3083026","name":"Tuczno","asciiname":"Tuczno","alternatenames":"Teczno,Tuchno,Tucno,Tuetz,Tučno,Tëczno,Tütz,tu qi nuo,Тучно,圖奇諾","latitude":"53.19374","longitude":"16.15368","feature_class":"P","feature_code":"PPLA3","country_code":"PL","cc2":"PL","admin1_code":"87","admin2_code":"3217","admin3_code":"321704","admin4_code":"","population":"1919","elevation":"","dem":"92","timezone":"Europe/Warsaw","modification_date":"2011-07-31"},{"geonameid":"3083039","name":"Tuchomie","asciiname":"Tuchomie","alternatenames":"Goss Tuchen,Gross Tuchen,Tuchomie,Tuchonie","latitude":"54.11522","longitude":"17.33634","feature_class":"P","feature_code":"PPLA3","country_code":"PL","cc2":"PL","admin1_code":"82","admin2_code":"2201","admin3_code":"220110","admin4_code":"","population":"1365","elevation":"","dem":"148","timezone":"Europe/Warsaw","modification_date":"2010-09-24"},{"geonameid":"3083043","name":"Tuchola","asciiname":"Tuchola","alternatenames":"Techolo,Tuchola,Tuhola,Tukhola,Tukholja,Tëchòlô,tu huo la,twkhla,Тухола,Тухоля,توخلا,圖霍拉","latitude":"53.58792","longitude":"17.85905","feature_class":"P","feature_code":"PPLA2","country_code":"PL","cc2":"","admin1_code":"73","admin2_code":"0416","admin3_code":"041606","admin4_code":"","population":"13686","elevation":"","dem":"109","timezone":"Europe/Warsaw","modification_date":"2010-09-16"},{"geonameid":"3083077","name":"Trzemeszno","asciiname":"Trzemeszno","alternatenames":"Trzemeszno,Tsemesno,Tshemeshno,Tšemešno,chmsnw,qie mei shen nuo,Тшемешно,چمسنو,切梅什諾","latitude":"52.56139","longitude":"17.82311","feature_class":"P","feature_code":"PPLA3","country_code":"PL","cc2":"","admin1_code":"86","admin2_code":"3003","admin3_code":"300309","admin4_code":"","population":"7840","elevation":"","dem":"107","timezone":"Europe/Warsaw","modification_date":"2010-10-15"},{"geonameid":"3083087","name":"Trzebunia","asciiname":"Trzebunia","alternatenames":"Trzebunia,Trzebunie","latitude":"49.79146","longitude":"19.84715","feature_class":"P","feature_code":"PPL","country_code":"PL","cc2":"PL","admin1_code":"77","admin2_code":"1209","admin3_code":"120904","admin4_code":"","population":"2059","elevation":"","dem":"406","timezone":"Europe/Warsaw","modification_date":"2010-10-23"},{"geonameid":"3083103","name":"Trzebnica","asciiname":"Trzebnica","alternatenames":"Trebnitz,Trzebnica,Tsebnica,Tshebnica,Tshebnicja,Tšebņica,chbnyka,qie bu ni cha,Тшебница,Тшебниця,Тшебњица,چبنیکا,切布尼察","latitude":"51.31076","longitude":"17.06331","feature_class":"P","feature_code":"PPL","country_code":"PL","cc2":"","admin1_code":"72","admin2_code":"0220","admin3_code":"022003","admin4_code":"","population":"12212","elevation":"","dem":"181","timezone":"Europe/Warsaw","modification_date":"2010-09-12"},{"geonameid":"3083111","name":"Trzebinia","asciiname":"Trzebinia","alternatenames":"Trzebinia,Tsebina,Tshebina,Tshebinja,Tšebiņa,chbynya,qie bi ni ya,toshebinya,trzbynya,tsbynyh,Тшебиня,Тшебиња,Тшебіня,טשביניה,ترزبينيا,چبینیا,トシェビニャ,切比尼亞","latitude":"50.15931","longitude":"19.46966","feature_class":"P","feature_code":"PPLA3","country_code":"PL","cc2":"","admin1_code":"77","admin2_code":"1203","admin3_code":"120305","admin4_code":"","population":"18828","elevation":"","dem":"314","timezone":"Europe/Warsaw","modification_date":"2010-10-21"},{"geonameid":"3083112","name":"Trzebinia","asciiname":"Trzebinia","alternatenames":"","latitude":"49.65024","longitude":"19.22264","feature_class":"P","feature_code":"PPL","country_code":"PL","cc2":"","admin1_code":"83","admin2_code":"2417","admin3_code":"241713","admin4_code":"","population":"1721","elevation":"","dem":"427","timezone":"Europe/Warsaw","modification_date":"2010-09-06"},{"geonameid":"3083133","name":"Trzebielino","asciiname":"Trzebielino","alternatenames":"Treblin,Trzebielino,chbylynw,چبیلینو","latitude":"54.19996","longitude":"17.08726","feature_class":"P","feature_code":"PPLA3","country_code":"PL","cc2":"PL","admin1_code":"82","admin2_code":"2201","admin3_code":"220109","admin4_code":"","population":"744","elevation":"","dem":"86","timezone":"Europe/Warsaw","modification_date":"2010-09-24"},{"geonameid":"3083134","name":"Trzebiel","asciiname":"Trzebiel","alternatenames":"Triebel,Trjebule,Trzebiel,chbyl,چبیل","latitude":"51.63496","longitude":"14.81609","feature_class":"P","feature_code":"PPLA3","country_code":"PL","cc2":"PL","admin1_code":"76","admin2_code":"0811","admin3_code":"081108","admin4_code":"","population":"1400","elevation":"","dem":"131","timezone":"Europe/Warsaw","modification_date":"2010-10-16"},{"geonameid":"3083140","name":"Trzebiechów","asciiname":"Trzebiechow","alternatenames":"","latitude":"52.02113","longitude":"15.7362","feature_class":"P","feature_code":"PPLA3","country_code":"PL","cc2":"","admin1_code":"76","admin2_code":"0809","admin3_code":"080908","admin4_code":"","population":"920","elevation":"","dem":"54","timezone":"Europe/Warsaw","modification_date":"2010-10-16"},{"geonameid":"3083145","name":"Trzebiatów","asciiname":"Trzebiatow","alternatenames":"Gorad Tshehbjatau,Preptow,Treptow,Treptow Rega,Treptow an de Rega,Treptow an der Rega,Trzebiatow,Trzebiatowo,Trzebiatów,Trzébiatowò,Tsebiatuvas,Tsebjatova,Tsebyatuv,Tshebjatov,Tshebjatuv,Tšebiatuvas,Tšebjatova,chbyatw,qie bi ya tu fu,toshebyato~ufu,Горад Тшэбятаў,Тшебятув,Тшебјатов,Տշեբյատուվ,چبیاتو,トシェビャトゥフ,切比亞圖夫","latitude":"54.06147","longitude":"15.26475","feature_class":"P","feature_code":"PPLA3","country_code":"PL","cc2":"","admin1_code":"87","admin2_code":"3205","admin3_code":"320508","admin4_code":"","population":"10322","elevation":"","dem":"18","timezone":"Europe/Warsaw","modification_date":"2010-09-22"},{"geonameid":"3083158","name":"Trzcińsko Zdrój","asciiname":"Trzcinsko Zdroj","alternatenames":"Bad Schonfliess,Bad Schönfliess,Schonfliess,Schönfliess,Zdroj Schonfliess,Zdrój Schönfliess","latitude":"52.96487","longitude":"14.60667","feature_class":"P","feature_code":"PPL","country_code":"PL","cc2":"PL","admin1_code":"87","admin2_code":"3206","admin3_code":"320608","admin4_code":"","population":"2466","elevation":"","dem":"56","timezone":"Europe/Warsaw","modification_date":"2015-09-05"},{"geonameid":"3083169","name":"Trzcinica","asciiname":"Trzcinica","alternatenames":"","latitude":"51.16707","longitude":"18.00453","feature_class":"P","feature_code":"PPLA3","country_code":"PL","cc2":"","admin1_code":"86","admin2_code":"3008","admin3_code":"300807","admin4_code":"","population":"1158","elevation":"","dem":"183","timezone":"Europe/Warsaw","modification_date":"2010-10-16"},{"geonameid":"3083177","name":"Trzciel","asciiname":"Trzciel","alternatenames":"Neu Tirschtiegel,Tirschtiegel,Trzciel,Tscela,Tshcel,Tshcel',Tšcela,ashchyl,chchyl,qi qie er,Тшцель,Тшћел,اشچیل,چچیل,奇切爾","latitude":"52.36504","longitude":"15.87306","feature_class":"P","feature_code":"PPLA3","country_code":"PL","cc2":"","admin1_code":"76","admin2_code":"0803","admin3_code":"080306","admin4_code":"","population":"2335","elevation":"","dem":"56","timezone":"Europe/Warsaw","modification_date":"2010-10-15"},{"geonameid":"3083185","name":"Trzcianka","asciiname":"Trzcianka","alternatenames":"Kreisstadt Schonlanke,Kreisstadt Schönlanke,Schonlanke,Schönlanke,Trzcianka,Trzconka,Trzcónka,Tscjanka,Tshcanka,Tshchanka,Tshchjanka,Tshcjanka,Tšcjanka,ashchyanka,chchanka,qi qiang ka,Тшцянка,Тшчанка,Тшчянка,Тшћанка,اشچیانکا,چچانکا,奇強卡","latitude":"53.04063","longitude":"16.45629","feature_class":"P","feature_code":"PPLA3","country_code":"PL","cc2":"","admin1_code":"86","admin2_code":"3002","admin3_code":"300207","admin4_code":"","population":"16914","elevation":"","dem":"78","timezone":"Europe/Warsaw","modification_date":"2011-07-31"},{"geonameid":"3083201","name":"Truskolasy","asciiname":"Truskolasy","alternatenames":"","latitude":"50.86692","longitude":"18.82705","feature_class":"P","feature_code":"PPL","country_code":"PL","cc2":"","admin1_code":"83","admin2_code":"2406","admin3_code":"240609","admin4_code":"","population":"2044","elevation":"","dem":"264","timezone":"Europe/Warsaw","modification_date":"2010-09-07"},{"geonameid":"3083255","name":"Trąbki Wielkie","asciiname":"Trabki Wielkie","alternatenames":"Gross Trampken,Trabki Wielkie,Trąbki Wielkie,trwmpky wylkyh,ترومپکی ویلکیه","latitude":"54.17062","longitude":"18.54003","feature_class":"P","feature_code":"PPL","country_code":"PL","cc2":"PL","admin1_code":"82","admin2_code":"2204","admin3_code":"220408","admin4_code":"","population":"1407","elevation":"","dem":"103","timezone":"Europe/Warsaw","modification_date":"2010-09-06"},{"geonameid":"3083263","name":"Toszek","asciiname":"Toszek","alternatenames":"Toczek,Toseka,Toshek,Tost,Toszek,Tošeka,tuo xie ke,twsq,Тошек,טושק,托謝克","latitude":"50.45442","longitude":"18.52209","feature_class":"P","feature_code":"PPL","country_code":"PL","cc2":"PL","admin1_code":"83","admin2_code":"2405","admin3_code":"240507","admin4_code":"","population":"3633","elevation":"","dem":"255","timezone":"Europe/Warsaw","modification_date":"2010-09-10"},{"geonameid":"3083264","name":"Torzym","asciiname":"Torzym","alternatenames":"Sternberg,Sternberg Neumark,Torun Lubuski,Toruń Lubuski,Tozhim,Tozima,Tožima,tuo ri mu,twrzym,Тожим,تورزيم,托日姆","latitude":"52.31331","longitude":"15.08243","feature_class":"P","feature_code":"PPLA3","country_code":"PL","cc2":"PL","admin1_code":"76","admin2_code":"0807","admin3_code":"080705","admin4_code":"","population":"2466","elevation":"","dem":"94","timezone":"Europe/Warsaw","modification_date":"2010-10-16"},{"geonameid":"3083271","name":"Toruń","asciiname":"Torun","alternatenames":"Gorad Torun',Thorn,Thorunium,Torn,Toroun,Torun,Torun',Toruna,Torune,Toruni,Torunj,Torunė,Toruń,Toruņa,Toruň,Torń,Torůń,thx run,tolun,torun,trwny,tuo lun,twrwn,twryny,Τόρουν,Горад Торунь,Торун,Торунь,Торуњ,טורון,ترونی,تورون,تورینی,تۆرون,ทอรูน,ტორუნი,トルン,托伦,토룬","latitude":"53.01375","longitude":"18.59814","feature_class":"P","feature_code":"PPL","country_code":"PL","cc2":"","admin1_code":"73","admin2_code":"0463","admin3_code":"046301","admin4_code":"","population":"208717","elevation":"","dem":"51","timezone":"Europe/Warsaw","modification_date":"2010-09-14"},{"geonameid":"3083275","name":"Toporzysko","asciiname":"Toporzysko","alternatenames":"","latitude":"49.62495","longitude":"19.80226","feature_class":"P","feature_code":"PPL","country_code":"PL","cc2":"","admin1_code":"77","admin2_code":"1215","admin3_code":"121505","admin4_code":"","population":"1833","elevation":"","dem":"484","timezone":"Europe/Warsaw","modification_date":"2010-09-22"},{"geonameid":"3083288","name":"Topólka","asciiname":"Topolka","alternatenames":"Topolka,Topul'ka,Topólka,Топулька","latitude":"52.50327","longitude":"18.71246","feature_class":"P","feature_code":"PPLA3","country_code":"PL","cc2":"","admin1_code":"73","admin2_code":"0411","admin3_code":"041107","admin4_code":"","population":"449","elevation":"","dem":"86","timezone":"Europe/Warsaw","modification_date":"2010-09-15"},{"geonameid":"3083320","name":"Tomice","asciiname":"Tomice","alternatenames":"","latitude":"49.89773","longitude":"19.48357","feature_class":"P","feature_code":"PPLA3","country_code":"PL","cc2":"","admin1_code":"77","admin2_code":"1218","admin3_code":"121808","admin4_code":"","population":"2185","elevation":"","dem":"267","timezone":"Europe/Warsaw","modification_date":"2010-10-17"},{"geonameid":"3083334","name":"Tolkmicko","asciiname":"Tolkmicko","alternatenames":"Tol'kmic'ko,Tol'kmicko,Tolkemit,Tolkmicko,tuo er ke mi ci ke,Толкмицко,Толькмицко,Толькмицько,托爾克米茨科","latitude":"54.32038","longitude":"19.52695","feature_class":"P","feature_code":"PPLA3","country_code":"PL","cc2":"PL","admin1_code":"85","admin2_code":"2804","admin3_code":"280409","admin4_code":"","population":"2700","elevation":"","dem":"3","timezone":"Europe/Warsaw","modification_date":"2014-06-27"},{"geonameid":"3083349","name":"Tokarnia","asciiname":"Tokarnia","alternatenames":"","latitude":"49.7272","longitude":"19.87161","feature_class":"P","feature_code":"PPL","country_code":"PL","cc2":"","admin1_code":"77","admin2_code":"1209","admin3_code":"120908","admin4_code":"","population":"3100","elevation":"","dem":"417","timezone":"Europe/Warsaw","modification_date":"2010-09-10"},{"geonameid":"3083365","name":"Tłuchowo","asciiname":"Tluchowo","alternatenames":"","latitude":"52.74715","longitude":"19.46563","feature_class":"P","feature_code":"PPLA3","country_code":"PL","cc2":"","admin1_code":"73","admin2_code":"0408","admin3_code":"040808","admin4_code":"","population":"1159","elevation":"","dem":"98","timezone":"Europe/Warsaw","modification_date":"2010-09-15"},{"geonameid":"3083410","name":"Tenczynek","asciiname":"Tenczynek","alternatenames":"Tenczynek,Tенцынеҟ","latitude":"50.11986","longitude":"19.61308","feature_class":"P","feature_code":"PPL","country_code":"PL","cc2":"","admin1_code":"77","admin2_code":"1206","admin3_code":"120606","admin4_code":"","population":"3436","elevation":"","dem":"263","timezone":"Europe/Warsaw","modification_date":"2010-10-17"},{"geonameid":"3083426","name":"Tczew","asciiname":"Tczew","alternatenames":"Derszewo,Dirschau,Dërszewò,Tceva,Tcevas,Tchev,Tczew,Tčeva,Tčevas,Тчев","latitude":"54.09242","longitude":"18.77787","feature_class":"P","feature_code":"PPLA2","country_code":"PL","cc2":"","admin1_code":"82","admin2_code":"2214","admin3_code":"221401","admin4_code":"","population":"60133","elevation":"","dem":"29","timezone":"Europe/Warsaw","modification_date":"2014-06-27"},{"geonameid":"3083440","name":"Tarnowskie Góry","asciiname":"Tarnowskie Gory","alternatenames":"Tarnovs'ki Guri,Tarnovske Gori,Tarnovske Gurai,Tarnovske Guri,Tarnovske-Gury,Tarnovskje Gori,Tarnowitz,Tarnowske Gury,Tarnowske Gůry,Tarnowskie Gory,Tarnowskie Góry,ta er nuo fu si kai gu lei,taleunopeuseukieguli,Тарновске Гори,Тарновске-Гуры,Тарновскје Гори,Тарновські Гури,タルノフスキェ・グルィ,塔爾諾夫斯凱古雷,타르노프스키에구리","latitude":"50.44548","longitude":"18.86147","feature_class":"P","feature_code":"PPLA2","country_code":"PL","cc2":"","admin1_code":"83","admin2_code":"2413","admin3_code":"241304","admin4_code":"","population":"60938","elevation":"","dem":"297","timezone":"Europe/Warsaw","modification_date":"2010-09-20"},{"geonameid":"3083441","name":"Tarnów Opolski","asciiname":"Tarnow Opolski","alternatenames":"Tarnau,Tarnow,Tarnow Opolski,Tarnów,Tarnów Opolski","latitude":"50.57631","longitude":"18.08367","feature_class":"P","feature_code":"PPL","country_code":"PL","cc2":"PL","admin1_code":"79","admin2_code":"1609","admin3_code":"160911","admin4_code":"","population":"3800","elevation":"","dem":"178","timezone":"Europe/Warsaw","modification_date":"2010-09-12"},{"geonameid":"3083442","name":"Tarnowo Podgórne","asciiname":"Tarnowo Podgorne","alternatenames":"","latitude":"52.46642","longitude":"16.66326","feature_class":"P","feature_code":"PPLA3","country_code":"PL","cc2":"","admin1_code":"86","admin2_code":"3021","admin3_code":"302117","admin4_code":"","population":"4235","elevation":"","dem":"97","timezone":"Europe/Warsaw","modification_date":"2010-10-16"},{"geonameid":"3083453","name":"Tarnówka","asciiname":"Tarnowka","alternatenames":"Tarnowka,Tarnowke,Tarnówka","latitude":"53.34174","longitude":"16.85273","feature_class":"P","feature_code":"PPL","country_code":"PL","cc2":"PL","admin1_code":"86","admin2_code":"3031","admin3_code":"303106","admin4_code":"","population":"1300","elevation":"","dem":"121","timezone":"Europe/Warsaw","modification_date":"2010-09-28"},{"geonameid":"3083492","name":"Targanice","asciiname":"Targanice","alternatenames":"Targanica","latitude":"49.80575","longitude":"19.32444","feature_class":"P","feature_code":"PPL","country_code":"PL","cc2":"PL","admin1_code":"77","admin2_code":"1218","admin3_code":"121801","admin4_code":"","population":"3860","elevation":"","dem":"419","timezone":"Europe/Warsaw","modification_date":"2010-10-17"},{"geonameid":"3083576","name":"Szydłowo","asciiname":"Szydlowo","alternatenames":"","latitude":"53.16212","longitude":"16.61171","feature_class":"P","feature_code":"PPLA3","country_code":"PL","cc2":"","admin1_code":"86","admin2_code":"3019","admin3_code":"301906","admin4_code":"","population":"750","elevation":"","dem":"129","timezone":"Europe/Warsaw","modification_date":"2010-09-18"},{"geonameid":"3083611","name":"Szubin","asciiname":"Szubin","alternatenames":"Comuna de Szubin,Gmina Shubin,Gmina Szubin,Schubin,Shubin,Szubin,Шубин,Ґміна Шубін","latitude":"53.00967","longitude":"17.74","feature_class":"P","feature_code":"PPLA3","country_code":"PL","cc2":"","admin1_code":"73","admin2_code":"0410","admin3_code":"041005","admin4_code":"","population":"9206","elevation":"","dem":"80","timezone":"Europe/Warsaw","modification_date":"2010-09-15"},{"geonameid":"3083616","name":"Sztum","asciiname":"Sztum","alternatenames":"Shhum,Shtum,Stuhm,Stuma,Stumas,Sztem,Sztum,Sztëm,ch tum,shen tu mu,Štuma,Štumas,Штум,Щум,ชตุม,什圖姆","latitude":"53.92077","longitude":"19.03072","feature_class":"P","feature_code":"PPLA3","country_code":"PL","cc2":"","admin1_code":"82","admin2_code":"2216","admin3_code":"221605","admin4_code":"","population":"9766","elevation":"","dem":"58","timezone":"Europe/Warsaw","modification_date":"2011-07-31"},{"geonameid":"3083632","name":"Szprotawa","asciiname":"Szprotawa","alternatenames":"Shprotava,Sprotava,Sprotawa,Sprottau,Szprotawa,shen pu luo ta wa,Šprotava,Шпротава,什普羅塔瓦","latitude":"51.56563","longitude":"15.53664","feature_class":"P","feature_code":"PPL","country_code":"PL","cc2":"","admin1_code":"76","admin2_code":"0810","admin3_code":"081007","admin4_code":"","population":"12786","elevation":"","dem":"130","timezone":"Europe/Warsaw","modification_date":"2010-09-10"},{"geonameid":"3083664","name":"Szlichtyngowa","asciiname":"Szlichtyngowa","alternatenames":"Schlichtingsheim,Shlikhtingova,Shlikhtyngova,Slihtingova,Szlichtyngowa,shen li he teng ge wa,Šlihtingova,Шлихтингова,Шлихтынгова,Шліхтинґова,什利赫滕戈瓦","latitude":"51.71222","longitude":"16.24427","feature_class":"P","feature_code":"PPLA3","country_code":"PL","cc2":"","admin1_code":"76","admin2_code":"0812","admin3_code":"081202","admin4_code":"","population":"1372","elevation":"","dem":"79","timezone":"Europe/Warsaw","modification_date":"2015-09-03"},{"geonameid":"3083667","name":"Szlachta","asciiname":"Szlachta","alternatenames":"","latitude":"53.76827","longitude":"18.11367","feature_class":"P","feature_code":"PPL","country_code":"PL","cc2":"","admin1_code":"82","admin2_code":"2213","admin3_code":"221307","admin4_code":"","population":"1200","elevation":"","dem":"123","timezone":"Europe/Warsaw","modification_date":"2010-09-18"},{"geonameid":"3083677","name":"Szklarska Poręba","asciiname":"Szklarska Poreba","alternatenames":"Schreiberhau,Schreibhau,Shklarska Poremba,Shkljars'ka Poremba,Shkljarska Poremba,Shkljarska-Poremba,Sklarska Poremba,Szklarska Porbe,Szklarska Poreba,Szklarska Poręba,ashklarska prmba,shen ke la er si ka-bo lun ba,Šklarska Poremba,Шкларска Поремба,Шклярска Поремба,Шклярска-Поремба,Шклярська Поремба,اشکلارسکا پرمبا,什克拉爾斯卡-波倫巴","latitude":"50.82567","longitude":"15.52274","feature_class":"P","feature_code":"PPL","country_code":"PL","cc2":"PL","admin1_code":"72","admin2_code":"0206","admin3_code":"020604","admin4_code":"","population":"6970","elevation":"","dem":"647","timezone":"Europe/Warsaw","modification_date":"2010-09-12"},{"geonameid":"3083725","name":"Szemud","asciiname":"Szemud","alternatenames":"Shemud,Szemold,Szemud,Szëmôłd,Шемуд","latitude":"54.48709","longitude":"18.2228","feature_class":"P","feature_code":"PPLA3","country_code":"PL","cc2":"","admin1_code":"82","admin2_code":"2215","admin3_code":"221509","admin4_code":"","population":"1639","elevation":"","dem":"175","timezone":"Europe/Warsaw","modification_date":"2010-10-21"},{"geonameid":"3083749","name":"Szczytna","asciiname":"Szczytna","alternatenames":"Scitna,Shchitna,Shhitna,Zhitna,Ščitna,Житна,Шчитна,Щитна","latitude":"50.41343","longitude":"16.44743","feature_class":"P","feature_code":"PPL","country_code":"PL","cc2":"","admin1_code":"72","admin2_code":"0208","admin3_code":"020814","admin4_code":"","population":"5234","elevation":"","dem":"457","timezone":"Europe/Warsaw","modification_date":"2010-09-12"},{"geonameid":"3083752","name":"Szczyrk","asciiname":"Szczyrk","alternatenames":"Scirka,Shchirk,Shhirk,Szczyrk,shen qie er ke,Ščirka,Шчирк,Щирк,什切爾克","latitude":"49.71724","longitude":"19.03183","feature_class":"P","feature_code":"PPLA3","country_code":"PL","cc2":"","admin1_code":"83","admin2_code":"2402","admin3_code":"240201","admin4_code":"","population":"5860","elevation":"","dem":"501","timezone":"Europe/Warsaw","modification_date":"2011-07-31"},{"geonameid":"3083762","name":"Szczutowo","asciiname":"Szczutowo","alternatenames":"Szczutowo,Szszutowo","latitude":"52.94047","longitude":"19.57438","feature_class":"P","feature_code":"PPLA3","country_code":"PL","cc2":"PL","admin1_code":"78","admin2_code":"1427","admin3_code":"142706","admin4_code":"","population":"620","elevation":"","dem":"117","timezone":"Europe/Warsaw","modification_date":"2010-09-19"},{"geonameid":"3083788","name":"Szczerców","asciiname":"Szczercow","alternatenames":"Szczercow,Szczerców,szrzwb,שצרצוב","latitude":"51.33319","longitude":"19.10977","feature_class":"P","feature_code":"PPLA3","country_code":"PL","cc2":"","admin1_code":"74","admin2_code":"1001","admin3_code":"100107","admin4_code":"","population":"3300","elevation":"","dem":"167","timezone":"Europe/Warsaw","modification_date":"2010-10-15"},{"geonameid":"3083800","name":"Szczepanów","asciiname":"Szczepanow","alternatenames":"","latitude":"51.19796","longitude":"16.61064","feature_class":"P","feature_code":"PPL","country_code":"PL","cc2":"","admin1_code":"72","admin2_code":"0218","admin3_code":"021804","admin4_code":"","population":"1700","elevation":"","dem":"106","timezone":"Europe/Warsaw","modification_date":"2010-10-21"},{"geonameid":"3083814","name":"Szczekociny","asciiname":"Szczekociny","alternatenames":"Gorad Shchehkaciny,Scekocini,Shchekochini,Shchekocini,Shhekocini,Shhekociny,Szczekociny,shen qie ke qi nei,syuchekochini,szqwzyny,Ščekocini,Горад Шчэкаціны,Шчекочини,Шчекоћини,Щекоцини,Щекоцины,שצקוציני,什切科齊內,슈체코치니","latitude":"50.62669","longitude":"19.825","feature_class":"P","feature_code":"PPL","country_code":"PL","cc2":"","admin1_code":"83","admin2_code":"2416","admin3_code":"241608","admin4_code":"","population":"3841","elevation":"","dem":"258","timezone":"Europe/Warsaw","modification_date":"2011-06-25"},{"geonameid":"3083826","name":"Szczecinek","asciiname":"Szczecinek","alternatenames":"Gorad Shchacinak,Neustettin,Neustettiu,Scecineka,Scecinekas,Shchechinek,Shchecinek,Shhecinek,Szczecenko,Szczecinek,Szczecënkò,shen qie qi nei ke,Ščecineka,Ščecinekas,Горад Шчацінак,Шчечинек,Шчећинек,Щецинек,什切齊內克","latitude":"53.70791","longitude":"16.69937","feature_class":"P","feature_code":"PPLA3","country_code":"PL","cc2":"","admin1_code":"87","admin2_code":"3215","admin3_code":"321501","admin4_code":"","population":"38496","elevation":"","dem":"139","timezone":"Europe/Warsaw","modification_date":"2011-07-31"},{"geonameid":"3083829","name":"Szczecin","asciiname":"Szczecin","alternatenames":"Estetino,Estettin,Gorad Shchehcin,SZZ,Scecin,Scecina,Scecinas,Scetsin,Shchechin,Shchecin,Shchekin,Shchetsin,Shchétsin,Shhechin,Shhecin,Stetin,Stettin,Stettino,Stettinum,Stsetsin,Szczecin,Szczetno,Szczëtno,Sztetin,shchchyn,shchetsini,shen qie qing,shshychn,shttyn,shuchechin,stecina,syuchechin,sz'z'yn,Şçetsin,Şçeçin,Štetín,Štětín,Šćećin,Ščecin,Ščecina,Ščecinas,Στσέτσιν,Горад Шчэцін,Шчечин,Шчећин,Шчеќин,Шчэцін,Щецин,Щечин,שטעטין,שצ'צ'ין,شتتين,ششیچن,شچچین,श्टेचिन,შჩეცინი,シュチェチン,什切青,슈체친","latitude":"53.42894","longitude":"14.55302","feature_class":"P","feature_code":"PPLA","country_code":"PL","cc2":"PL","admin1_code":"87","admin2_code":"3262","admin3_code":"326201","admin4_code":"","population":"407811","elevation":"149","dem":"25","timezone":"Europe/Warsaw","modification_date":"2012-01-18"},{"geonameid":"3083835","name":"Szczawno-Zdrój","asciiname":"Szczawno-Zdroj","alternatenames":"Bad Salzbrunn,Ober Salzbrunn,Scavnozdroja,Shchavno-Zdroj,Shhavno-Zdruj,Solice Zdroj,Solice-Zdruj,Solice-Zdrůj,Szczawno Zdroj,Szczawno Zdrój,Szczawno-Zdroj,Szczawno-Zdrój,shchawnw-zdrwyy,Ščavnozdroja,Шчавно-Здрој,Щавно-Здруй,شچاونو-زدروئی","latitude":"50.80352","longitude":"16.25655","feature_class":"P","feature_code":"PPL","country_code":"PL","cc2":"PL","admin1_code":"72","admin2_code":"0221","admin3_code":"022103","admin4_code":"","population":"5586","elevation":"","dem":"413","timezone":"Europe/Warsaw","modification_date":"2010-11-13"},{"geonameid":"3083847","name":"Szczaniec","asciiname":"Szczaniec","alternatenames":"","latitude":"52.26874","longitude":"15.6817","feature_class":"P","feature_code":"PPLA3","country_code":"PL","cc2":"","admin1_code":"76","admin2_code":"0808","admin3_code":"080804","admin4_code":"","population":"1473","elevation":"","dem":"70","timezone":"Europe/Warsaw","modification_date":"2010-10-16"},{"geonameid":"3083878","name":"Szamotuły","asciiname":"Szamotuly","alternatenames":"Gorad Shamatuly,Samotuli,Samter,Shamotuli,Shamotuly,Szamotuly,Szamotuły,sha mo tu wei,shamoto~uu~i,Šamotuli,Горад Шаматулы,Шамотули,Шамотулы,シャモトゥウィ,沙莫圖維","latitude":"52.61201","longitude":"16.57794","feature_class":"P","feature_code":"PPLA2","country_code":"PL","cc2":"","admin1_code":"86","admin2_code":"3024","admin3_code":"302407","admin4_code":"","population":"18588","elevation":"","dem":"71","timezone":"Europe/Warsaw","modification_date":"2015-04-21"},{"geonameid":"3083880","name":"Szamocin","asciiname":"Szamocin","alternatenames":"Samotschin,Szamocin","latitude":"53.02795","longitude":"17.12653","feature_class":"P","feature_code":"PPLA3","country_code":"PL","cc2":"PL","admin1_code":"86","admin2_code":"3001","admin3_code":"300105","admin4_code":"","population":"4258","elevation":"","dem":"79","timezone":"Europe/Warsaw","modification_date":"2010-10-28"},{"geonameid":"3083904","name":"Szadek","asciiname":"Szadek","alternatenames":"Sadeka,Shadek,Szadek,sha dai ke,Šadeka,Шадек,שאדיק,שאדק,沙代克","latitude":"51.69174","longitude":"18.97549","feature_class":"P","feature_code":"PPLA3","country_code":"PL","cc2":"","admin1_code":"74","admin2_code":"1019","admin3_code":"101902","admin4_code":"","population":"2012","elevation":"","dem":"162","timezone":"Europe/Warsaw","modification_date":"2010-10-16"},{"geonameid":"3083907","name":"Syrynia","asciiname":"Syrynia","alternatenames":"","latitude":"50.02004","longitude":"18.34597","feature_class":"P","feature_code":"PPL","country_code":"PL","cc2":"","admin1_code":"83","admin2_code":"2415","admin3_code":"241507","admin4_code":"","population":"3138","elevation":"","dem":"208","timezone":"Europe/Warsaw","modification_date":"2010-09-06"},{"geonameid":"3083908","name":"Sypniewo","asciiname":"Sypniewo","alternatenames":"Sypniewo,Zippnow","latitude":"53.46823","longitude":"16.60583","feature_class":"P","feature_code":"PPL","country_code":"PL","cc2":"PL","admin1_code":"86","admin2_code":"3031","admin3_code":"303102","admin4_code":"","population":"1300","elevation":"","dem":"136","timezone":"Europe/Warsaw","modification_date":"2010-09-18"},{"geonameid":"3083909","name":"Sypniewo","asciiname":"Sypniewo","alternatenames":"","latitude":"53.36981","longitude":"17.3269","feature_class":"P","feature_code":"PPL","country_code":"PL","cc2":"","admin1_code":"73","admin2_code":"0413","admin3_code":"041304","admin4_code":"","population":"1300","elevation":"","dem":"131","timezone":"Europe/Warsaw","modification_date":"2010-09-18"},{"geonameid":"3083921","name":"Syców","asciiname":"Sycow","alternatenames":"Gross Wartenberg,Sicov,Sicova,Sicuv,Sycow,Sycuv,Sycuw,Syców,Sycůw,se chu fu,Сицов,Сицув,Сыцув,瑟楚夫","latitude":"51.30814","longitude":"17.71979","feature_class":"P","feature_code":"PPL","country_code":"PL","cc2":"","admin1_code":"72","admin2_code":"0214","admin3_code":"021407","admin4_code":"","population":"10809","elevation":"","dem":"169","timezone":"Europe/Warsaw","modification_date":"2010-09-12"},{"geonameid":"3083955","name":"Świnoujście","asciiname":"Swinoujscie","alternatenames":"Gorad Svinaujs'ce,Sbinooustsie,Shvinoujshche,Svinouiscis,Svinoujs'ce,Svinoujsce,Svinoujshce,Svinousti,Svinouyscie,Svinoústí,Swienemuenn,Swienemünn,Swina,Swinemude,Swinemunde,Swinemüde,Swinemünde,Swinioujscie,Swinmunde,Swinmutha,Swinoujsce,Swinoujscie,Swīnmūþa,ashwynwawyshchh,chfi nx xu xichche,shifinouishiche,sibinou-isichie,svinujsi,swwynwz'y,xi wei nuo wu yi xi qie,Świnoujście,Świnoujśće,Σβινόουστσιε,Горад Свінауйсьце,Свиноуйсьце,Свиноујшће,Свіноуйсьце,Швиноуйшче,סווינוצ'י,اشوینواویشچه,स्विनूज्सी,ชฟีนออูอีชเช,シフィノウイシチェ,希維諾烏伊希切,시비노우이시치에","latitude":"53.91053","longitude":"14.24712","feature_class":"P","feature_code":"PPLA2","country_code":"PL","cc2":"","admin1_code":"87","admin2_code":"3263","admin3_code":"326301","admin4_code":"","population":"40919","elevation":"","dem":"4","timezone":"Europe/Warsaw","modification_date":"2010-10-16"},{"geonameid":"3083958","name":"Świnna","asciiname":"Swinna","alternatenames":"","latitude":"49.65802","longitude":"19.25406","feature_class":"P","feature_code":"PPL","country_code":"PL","cc2":"","admin1_code":"83","admin2_code":"2417","admin3_code":"241713","admin4_code":"","population":"1891","elevation":"","dem":"408","timezone":"Europe/Warsaw","modification_date":"2010-09-06"},{"geonameid":"3083964","name":"Świnice Warckie","asciiname":"Swinice Warckie","alternatenames":"Svinice-Varcke,Swinice,Swinice Warckie,Świnice,Świnice Warckie,Свинице-Варцке","latitude":"52.04072","longitude":"18.91786","feature_class":"P","feature_code":"PPLA3","country_code":"PL","cc2":"","admin1_code":"74","admin2_code":"1004","admin3_code":"100407","admin4_code":"","population":"1500","elevation":"","dem":"103","timezone":"Europe/Warsaw","modification_date":"2010-10-16"},{"geonameid":"3083988","name":"Świętochłowice","asciiname":"Swietochlowice","alternatenames":"Sbietochlobitse,Schweintochlitz,Schwientochlowitz,Shventokhlovice,Sventochlovices,Sventochlovicės,Sventohlovice,Sventokhlovice,Svintohuvitso,Svjentokhlovice,Svjetohlovice,Swietochlowice,Swjyntochlowicy,ashfyntwkhwwytsh,shfyntwkhwfytsh,shifientofuu~ovu~itsu~e,sibiengtoheuwobiche,swwyyntwhlwbyzh,xi wei tuo he luo wei cai,Świętochłowice,Śwjyntochlowicy,Ŝvintohuvitso,Σβιετοχλόβιτσε,Свентохловице,Свентохловіце,Свјентохловице,Швентохловице,שוויינטוחלוביצה,اشفینتوخوویتسه,شفينتوخوفيتسه,シフィエントフウォヴィツェ,希维托赫洛维采,시비엥토흐워비체","latitude":"50.29636","longitude":"18.91726","feature_class":"P","feature_code":"PPLA2","country_code":"PL","cc2":"","admin1_code":"83","admin2_code":"2476","admin3_code":"247601","admin4_code":"","population":"55600","elevation":"","dem":"282","timezone":"Europe/Warsaw","modification_date":"2010-10-17"},{"geonameid":"3084005","name":"Święta Katarzyna","asciiname":"Swieta Katarzyna","alternatenames":"Kattern,Swieta Katarzyna,Świeta Katarzyna","latitude":"51.02596","longitude":"17.11464","feature_class":"P","feature_code":"PPL","country_code":"PL","cc2":"","admin1_code":"72","admin2_code":"0223","admin3_code":"022308","admin4_code":"","population":"2000","elevation":"","dem":"126","timezone":"Europe/Warsaw","modification_date":"2013-10-29"},{"geonameid":"3084020","name":"Świerzno","asciiname":"Swierzno","alternatenames":"Schwirsen,Swierzno,Świerzno","latitude":"53.96497","longitude":"14.96544","feature_class":"P","feature_code":"PPLA3","country_code":"PL","cc2":"PL","admin1_code":"87","admin2_code":"3207","admin3_code":"320705","admin4_code":"","population":"670","elevation":"","dem":"16","timezone":"Europe/Warsaw","modification_date":"2010-09-20"},{"geonameid":"3084024","name":"Świerzawa","asciiname":"Swierzawa","alternatenames":"Schoenau am Katzbach,Schönau am Katzbach,Shvezhava,Svezava,Svezhava,Svežava,Svjezhava,Swierzawa,Szunaw,Świerzawa,Свежава,Свјежава,Швежава","latitude":"51.01375","longitude":"15.89516","feature_class":"P","feature_code":"PPLA3","country_code":"PL","cc2":"PL","admin1_code":"72","admin2_code":"0226","admin3_code":"022604","admin4_code":"","population":"2469","elevation":"","dem":"267","timezone":"Europe/Warsaw","modification_date":"2011-07-31"},{"geonameid":"3084029","name":"Świerklany Górne","asciiname":"Swierklany Gorne","alternatenames":"","latitude":"50.02765","longitude":"18.5905","feature_class":"P","feature_code":"PPL","country_code":"PL","cc2":"","admin1_code":"83","admin2_code":"2412","admin3_code":"241205","admin4_code":"","population":"3912","elevation":"","dem":"284","timezone":"Europe/Warsaw","modification_date":"2010-09-20"},{"geonameid":"3084030","name":"Świerklany Dolne","asciiname":"Swierklany Dolne","alternatenames":"","latitude":"50.01827","longitude":"18.57702","feature_class":"P","feature_code":"PPL","country_code":"PL","cc2":"","admin1_code":"83","admin2_code":"2412","admin3_code":"241205","admin4_code":"","population":"3420","elevation":"","dem":"264","timezone":"Europe/Warsaw","modification_date":"2010-09-07"},{"geonameid":"3084033","name":"Świerklaniec","asciiname":"Swierklaniec","alternatenames":"Swierklaniec,Świerklaniec","latitude":"50.44237","longitude":"18.93734","feature_class":"P","feature_code":"PPLA3","country_code":"PL","cc2":"","admin1_code":"83","admin2_code":"2413","admin3_code":"241307","admin4_code":"","population":"3786","elevation":"","dem":"287","timezone":"Europe/Warsaw","modification_date":"2010-09-21"},{"geonameid":"3084051","name":"Świerczów","asciiname":"Swierczow","alternatenames":"Schwirz,Swierczow,Świerczów","latitude":"50.96016","longitude":"17.7588","feature_class":"P","feature_code":"PPLA3","country_code":"PL","cc2":"PL","admin1_code":"79","admin2_code":"1606","admin3_code":"160604","admin4_code":"","population":"492","elevation":"","dem":"156","timezone":"Europe/Warsaw","modification_date":"2010-09-25"},{"geonameid":"3084055","name":"Świeradów-Zdrój","asciiname":"Swieradow-Zdroj","alternatenames":"Bad Flinsberg,Flinsberg Zdroj,Flinsberg Zdrój,Shveraduv-Zdruj,Sveradovzdroja,Sveraduv-Zdruj,Svjeradov-Zdroj,Swieradow-Zdroj,Swieradow-Zdroj/Bad Flinsberg,Swieradow-zdroj,xi wei la du fu-zi de lu yi,Świeradów-Zdrój,Świeradów-zdrój,Сверадув-Здруй,Свјерадов-Здрој,Шверадув-Здруй,希維拉杜夫-茲德魯伊","latitude":"50.9092","longitude":"15.34309","feature_class":"P","feature_code":"PPL","country_code":"PL","cc2":"PL","admin1_code":"72","admin2_code":"0210","admin3_code":"021002","admin4_code":"","population":"4492","elevation":"","dem":"469","timezone":"Europe/Warsaw","modification_date":"2016-02-09"},{"geonameid":"3084060","name":"Świekatowo","asciiname":"Swiekatowo","alternatenames":"","latitude":"53.41864","longitude":"18.09731","feature_class":"P","feature_code":"PPL","country_code":"PL","cc2":"","admin1_code":"73","admin2_code":"0414","admin3_code":"041410","admin4_code":"","population":"1077","elevation":"","dem":"104","timezone":"Europe/Warsaw","modification_date":"2010-09-13"},{"geonameid":"3084061","name":"Świedziebnia","asciiname":"Swiedziebnia","alternatenames":"","latitude":"53.15207","longitude":"19.55463","feature_class":"P","feature_code":"PPLA3","country_code":"PL","cc2":"","admin1_code":"73","admin2_code":"0402","admin3_code":"040209","admin4_code":"","population":"958","elevation":"","dem":"137","timezone":"Europe/Warsaw","modification_date":"2010-09-14"},{"geonameid":"3084062","name":"Świebodzin","asciiname":"Swiebodzin","alternatenames":"Comuna de Swiebodzin,Comuna de Świebodzin,Gmina Svebodzin,Gmina Swiebodzin,Gmina Świebodzin,Schweibus,Schwiebus,Svebodzin,Свебодзин,Ґміна Свебодзін","latitude":"52.24751","longitude":"15.53355","feature_class":"P","feature_code":"PPLA2","country_code":"PL","cc2":"PL","admin1_code":"76","admin2_code":"0808","admin3_code":"080805","admin4_code":"","population":"21757","elevation":"","dem":"81","timezone":"Europe/Warsaw","modification_date":"2010-10-16"},{"geonameid":"3084069","name":"Świecie nad Osą","asciiname":"Swiecie nad Osa","alternatenames":"","latitude":"53.444","longitude":"19.10171","feature_class":"P","feature_code":"PPLA3","country_code":"PL","cc2":"","admin1_code":"73","admin2_code":"0406","admin3_code":"040606","admin4_code":"","population":"870","elevation":"","dem":"58","timezone":"Europe/Warsaw","modification_date":"2010-09-14"},{"geonameid":"3084071","name":"Święciechowa","asciiname":"Swieciechowa","alternatenames":"Schwetzkau,Swieciechowa,Święciechowa","latitude":"51.85503","longitude":"16.49805","feature_class":"P","feature_code":"PPLA3","country_code":"PL","cc2":"PL","admin1_code":"86","admin2_code":"3013","admin3_code":"301305","admin4_code":"","population":"2640","elevation":"","dem":"98","timezone":"Europe/Warsaw","modification_date":"2010-10-16"},{"geonameid":"3084074","name":"Świecie","asciiname":"Swiecie","alternatenames":"Comuna de Swiecie,Comuna de Świecie,Gmina Svece,Gmina Swiecie,Gmina Świecie,Schwetz,Svece,Swiecie,Świecie,Свеце,Ґміна Свеце","latitude":"53.40953","longitude":"18.44742","feature_class":"P","feature_code":"PPL","country_code":"PL","cc2":"","admin1_code":"73","admin2_code":"0414","admin3_code":"041409","admin4_code":"","population":"25843","elevation":"","dem":"41","timezone":"Europe/Warsaw","modification_date":"2010-09-13"},{"geonameid":"3084084","name":"Świebodzice","asciiname":"Swiebodzice","alternatenames":"Freiburg,Freiburg in Schlesien,Frybork,Shvebodzhice,Svebodzice,Svebodzices,Svebodzicės,Swiebodzice,swwyybwdzyzh,xi wei bo ji cai,Świebodzice,Свебодзице,Свебодзіце,Свјебођице,Швебоджице,שווייבודזיצה,希維博濟采","latitude":"50.85975","longitude":"16.3282","feature_class":"P","feature_code":"PPLA3","country_code":"PL","cc2":"","admin1_code":"72","admin2_code":"0219","admin3_code":"021902","admin4_code":"","population":"23228","elevation":"","dem":"281","timezone":"Europe/Warsaw","modification_date":"2011-07-31"},{"geonameid":"3084085","name":"Świdwin","asciiname":"Swidwin","alternatenames":"Gorad Svidvin,Schivelbein,Shvidvin,Skwilbeno,Skwilbëno,Svidvin,Svidvina,Svidvinas,Swibowina,Swidwin,xi wei de wen,Świdwin,Горад Свідвін,Свидвин,Свідвин,Швидвин,希維德溫","latitude":"53.77464","longitude":"15.77671","feature_class":"P","feature_code":"PPL","country_code":"PL","cc2":"","admin1_code":"87","admin2_code":"3216","admin3_code":"321601","admin4_code":"","population":"16076","elevation":"","dem":"92","timezone":"Europe/Warsaw","modification_date":"2010-09-07"},{"geonameid":"3084092","name":"Świdnica","asciiname":"Swidnica","alternatenames":"Schweinitz,Swidnica,Świdnica","latitude":"51.88836","longitude":"15.39013","feature_class":"P","feature_code":"PPLA3","country_code":"PL","cc2":"PL","admin1_code":"76","admin2_code":"0809","admin3_code":"080907","admin4_code":"","population":"1400","elevation":"","dem":"101","timezone":"Europe/Warsaw","modification_date":"2010-10-16"},{"geonameid":"3084093","name":"Świdnica","asciiname":"Swidnica","alternatenames":"Schweidnitz,Schweidnitz-Schlesian,Schweinitz,Shvidnica,Svidnica,Svidnice,Svidnicja,Svidņica,Svídnice,Swidnica,swwydnyzh,xi wei de ni cha,Świdnica,Свидница,Свидњица,Свідниця,Швидница,שווידניצה,希维德尼察","latitude":"50.84378","longitude":"16.48859","feature_class":"P","feature_code":"PPLA2","country_code":"PL","cc2":"","admin1_code":"72","admin2_code":"0219","admin3_code":"021901","admin4_code":"","population":"60351","elevation":"","dem":"241","timezone":"Europe/Warsaw","modification_date":"2010-10-16"},{"geonameid":"3084107","name":"Świątniki Górne","asciiname":"Swiatniki Gorne","alternatenames":"Shv'ontniki Gorne,Sv'ontniki-Gurne,Svjontniki Gorne,Svjontniki Gurni,Svjontniki-Gurne,Svjontņiki Gurni,Swiatniki Gorne,Świątniki Górne,Свьонтники-Ґурне,Свёнтники-Гурне,Свјонтњики Горне,Швьонтники Горне","latitude":"49.93429","longitude":"19.95364","feature_class":"P","feature_code":"PPLA3","country_code":"PL","cc2":"","admin1_code":"77","admin2_code":"1206","admin3_code":"120614","admin4_code":"","population":"2125","elevation":"","dem":"379","timezone":"Europe/Warsaw","modification_date":"2010-11-03"},{"geonameid":"3084130","name":"Swarzędz","asciiname":"Swarzedz","alternatenames":"Gorad Svazhehndz,Svazendza,Svazendzas,Svazhendz,Svažendza,Svažendzas,Swarzedz,Swarzędz,si wa ren ci,Горад Сважэндз,Сважендз,斯瓦任兹","latitude":"52.41289","longitude":"17.08503","feature_class":"P","feature_code":"PPLA3","country_code":"PL","cc2":"","admin1_code":"86","admin2_code":"3021","admin3_code":"302116","admin4_code":"","population":"29010","elevation":"","dem":"92","timezone":"Europe/Warsaw","modification_date":"2010-10-16"},{"geonameid":"3084142","name":"Suszec","asciiname":"Suszec","alternatenames":"","latitude":"50.02958","longitude":"18.7916","feature_class":"P","feature_code":"PPLA3","country_code":"PL","cc2":"","admin1_code":"83","admin2_code":"2410","admin3_code":"241006","admin4_code":"","population":"4183","elevation":"","dem":"265","timezone":"Europe/Warsaw","modification_date":"2010-09-20"},{"geonameid":"3084143","name":"Susz","asciiname":"Susz","alternatenames":"Rosenberg,Rosenburg,Sesz,Susa,Susas,Sush,Susz,Suša,Sušas,Sësz,swsh,Суш,سوش","latitude":"53.71743","longitude":"19.33645","feature_class":"P","feature_code":"PPLA3","country_code":"PL","cc2":"PL","admin1_code":"85","admin2_code":"2807","admin3_code":"280706","admin4_code":"","population":"5593","elevation":"","dem":"111","timezone":"Europe/Warsaw","modification_date":"2011-07-31"},{"geonameid":"3084177","name":"Sułów","asciiname":"Sulow","alternatenames":"Sulau,Sulejewo,Sulow,Sułów","latitude":"51.49966","longitude":"17.16811","feature_class":"P","feature_code":"PPL","country_code":"PL","cc2":"PL","admin1_code":"72","admin2_code":"0213","admin3_code":"021303","admin4_code":"","population":"1405","elevation":"","dem":"105","timezone":"Europe/Warsaw","modification_date":"2010-10-16"},{"geonameid":"3084178","name":"Sułoszowa","asciiname":"Suloszowa","alternatenames":"","latitude":"50.26789","longitude":"19.73282","feature_class":"P","feature_code":"PPLA3","country_code":"PL","cc2":"","admin1_code":"77","admin2_code":"1206","admin3_code":"120613","admin4_code":"","population":"4200","elevation":"","dem":"420","timezone":"Europe/Warsaw","modification_date":"2010-10-20"},{"geonameid":"3084184","name":"Sulmierzyce","asciiname":"Sulmierzyce","alternatenames":"Sul'mezhice,Sulmezice,Sulmežice,Sulmierzyce,Sulmjezhice,Сулмјежице,Сульмежице","latitude":"51.60594","longitude":"17.53053","feature_class":"P","feature_code":"PPL","country_code":"PL","cc2":"","admin1_code":"86","admin2_code":"3012","admin3_code":"301201","admin4_code":"","population":"2829","elevation":"","dem":"126","timezone":"Europe/Warsaw","modification_date":"2010-09-06"},{"geonameid":"3084185","name":"Sulmierzyce","asciiname":"Sulmierzyce","alternatenames":"","latitude":"51.18456","longitude":"19.19595","feature_class":"P","feature_code":"PPL","country_code":"PL","cc2":"","admin1_code":"74","admin2_code":"1009","admin3_code":"100908","admin4_code":"","population":"1400","elevation":"","dem":"223","timezone":"Europe/Warsaw","modification_date":"2010-09-06"},{"geonameid":"3084194","name":"Sułkowice","asciiname":"Sulkowice","alternatenames":"Sulkovice,Sulkowice,Sułkowice,Сулковице,Сулковіце","latitude":"49.84053","longitude":"19.80097","feature_class":"P","feature_code":"PPLA3","country_code":"PL","cc2":"","admin1_code":"77","admin2_code":"1209","admin3_code":"120907","admin4_code":"","population":"6362","elevation":"","dem":"290","timezone":"Europe/Warsaw","modification_date":"2010-10-23"},{"geonameid":"3084195","name":"Sułkowice","asciiname":"Sulkowice","alternatenames":"","latitude":"49.81932","longitude":"19.35988","feature_class":"P","feature_code":"PPL","country_code":"PL","cc2":"","admin1_code":"77","admin2_code":"1218","admin3_code":"121801","admin4_code":"","population":"4835","elevation":"","dem":"417","timezone":"Europe/Warsaw","modification_date":"2010-09-10"},{"geonameid":"3084213","name":"Borne Sulinowo","asciiname":"Borne Sulinowo","alternatenames":"Borne Sulinovas,Borne Sulinovo,Borne Sulinowo,Borne-Sulinovo,Lepa,Linde,Linde bei Krangen,Lindee,Lëpa,Sulinowo,bo er nei su li nuo wo,Борне Сулиново,Борне-Сулиново,Борне-Суліново,博爾內蘇利諾沃","latitude":"53.57661","longitude":"16.53395","feature_class":"P","feature_code":"PPLA3","country_code":"PL","cc2":"PL","admin1_code":"87","admin2_code":"3215","admin3_code":"321504","admin4_code":"","population":"4349","elevation":"","dem":"142","timezone":"Europe/Warsaw","modification_date":"2010-10-28"},{"geonameid":"3084224","name":"Sulików","asciiname":"Sulikow","alternatenames":"Schonberg,Schonberg in der Oberlausitz,Schonberg ober Lausitz,Schönberg,Schönberg in der Oberlausitz,Schönberg ober Lausitz,Sulikow,Sulików","latitude":"51.07624","longitude":"15.06792","feature_class":"P","feature_code":"PPL","country_code":"PL","cc2":"PL","admin1_code":"72","admin2_code":"0225","admin3_code":"022505","admin4_code":"","population":"2014","elevation":"","dem":"219","timezone":"Europe/Warsaw","modification_date":"2010-09-09"},{"geonameid":"3084230","name":"Sulejów","asciiname":"Sulejow","alternatenames":"Sulejov,Sulejova,Sulejow,Sulejuv,Sulejów,Сулеюв,Сулејов","latitude":"51.35436","longitude":"19.88538","feature_class":"P","feature_code":"PPLA3","country_code":"PL","cc2":"","admin1_code":"74","admin2_code":"1010","admin3_code":"101009","admin4_code":"","population":"6332","elevation":"","dem":"168","timezone":"Europe/Warsaw","modification_date":"2010-10-11"},{"geonameid":"3084234","name":"Sulęczyno","asciiname":"Suleczyno","alternatenames":"Seleczeno,Sëlëczëno","latitude":"54.23302","longitude":"17.7733","feature_class":"P","feature_code":"PPL","country_code":"PL","cc2":"","admin1_code":"82","admin2_code":"2205","admin3_code":"220507","admin4_code":"","population":"1500","elevation":"","dem":"186","timezone":"Europe/Warsaw","modification_date":"2010-09-13"},{"geonameid":"3084237","name":"Sulęcin","asciiname":"Sulecin","alternatenames":"Cielecin,Comuna de Sulecin,Comuna de Sulęcin,Gmina Sulecin,Gmina Sulencin,Gmina Sulęcin,Sulencin,Zielenzig,Суленцин,Ґміна Суленцин","latitude":"52.44429","longitude":"15.11676","feature_class":"P","feature_code":"PPLA2","country_code":"PL","cc2":"","admin1_code":"77","admin2_code":"","admin3_code":"","admin4_code":"","population":"10090","elevation":"","dem":"78","timezone":"Europe/Warsaw","modification_date":"2010-10-16"},{"geonameid":"3084241","name":"Sulechów","asciiname":"Sulechow","alternatenames":"Cylichow,Cylichów,Gorad Sulekhau,Sulechow,Sulechuvas,Sulechów,Sulehova,Sulekhov,Sulekhuv,Zullichau,Züllichau,su lai hu fu,surefufu,Горад Сулехаў,Сулехов,Сулехув,スレフフ,苏莱胡夫","latitude":"52.08362","longitude":"15.62513","feature_class":"P","feature_code":"PPLA3","country_code":"PL","cc2":"","admin1_code":"76","admin2_code":"0809","admin3_code":"080906","admin4_code":"","population":"18055","elevation":"","dem":"85","timezone":"Europe/Warsaw","modification_date":"2010-10-16"},{"geonameid":"3084258","name":"Suchy Las","asciiname":"Suchy Las","alternatenames":"","latitude":"52.47308","longitude":"16.87745","feature_class":"P","feature_code":"PPLA3","country_code":"PL","cc2":"","admin1_code":"86","admin2_code":"3021","admin3_code":"302115","admin4_code":"","population":"4367","elevation":"","dem":"102","timezone":"Europe/Warsaw","modification_date":"2010-10-16"},{"geonameid":"3084259","name":"Suchy Dąb","asciiname":"Suchy Dab","alternatenames":"Suchy Dab,Suchy Dąb,Zugdam","latitude":"54.20809","longitude":"18.76731","feature_class":"P","feature_code":"PPLA3","country_code":"PL","cc2":"PL","admin1_code":"82","admin2_code":"2204","admin3_code":"220407","admin4_code":"","population":"832","elevation":"","dem":"1","timezone":"Europe/Warsaw","modification_date":"2010-10-16"},{"geonameid":"3084289","name":"Suchań","asciiname":"Suchan","alternatenames":"Sechan,Suhana,Suhaņa,Sukhan,Sukhan',Sëchąń,Zachan,Сухань,Сухањ","latitude":"53.28003","longitude":"15.32541","feature_class":"P","feature_code":"PPLA3","country_code":"PL","cc2":"PL","admin1_code":"87","admin2_code":"3214","admin3_code":"321411","admin4_code":"","population":"1465","elevation":"","dem":"43","timezone":"Europe/Warsaw","modification_date":"2010-09-22"},{"geonameid":"3084300","name":"Sucha Beskidzka","asciiname":"Sucha Beskidzka","alternatenames":"Sucha,Suha Beskidzka,Sukha Beskidska,Sukha Beskidzka,Sukha-Beskidz'ka,Sukha-Beskidzka,bei si ji de de qu su ha,swcha bskytska,swtsha bskytska,Суха Бескидзка,Суха Бескидска,Суха-Бескидзка,Суха-Бескидзька,سوتشا بسكيتسكا,سوچا بسکیتسکا,貝斯基德地區蘇哈","latitude":"49.74188","longitude":"19.59429","feature_class":"P","feature_code":"PPLA2","country_code":"PL","cc2":"","admin1_code":"77","admin2_code":"1215","admin3_code":"121502","admin4_code":"","population":"9801","elevation":"","dem":"338","timezone":"Europe/Warsaw","modification_date":"2010-10-23"},{"geonameid":"3084312","name":"Subkowy","asciiname":"Subkowy","alternatenames":"Subkovy,Subkowy,Субковы","latitude":"54.00227","longitude":"18.76928","feature_class":"P","feature_code":"PPL","country_code":"PL","cc2":"","admin1_code":"82","admin2_code":"2214","admin3_code":"221405","admin4_code":"","population":"1941","elevation":"","dem":"32","timezone":"Europe/Warsaw","modification_date":"2010-09-13"},{"geonameid":"3084324","name":"Studzionka","asciiname":"Studzionka","alternatenames":"Studzionka","latitude":"49.96232","longitude":"18.7728","feature_class":"P","feature_code":"PPL","country_code":"PL","cc2":"","admin1_code":"83","admin2_code":"2410","admin3_code":"241005","admin4_code":"","population":"2000","elevation":"","dem":"256","timezone":"Europe/Warsaw","modification_date":"2010-09-06"},{"geonameid":"3084334","name":"Studzienice","asciiname":"Studzienice","alternatenames":"Comuna Studzienice,Comuna de Studzienice,Gmina Stedzence,Gmina Studzenice,Gmina Studzienice,Gmina Stëdzéńce,Studzenice,Studzienice,Студзенице,Ґміна Студзеніце","latitude":"54.09262","longitude":"17.57581","feature_class":"P","feature_code":"PPLA3","country_code":"PL","cc2":"","admin1_code":"82","admin2_code":"2201","admin3_code":"220108","admin4_code":"","population":"816","elevation":"","dem":"165","timezone":"Europe/Warsaw","modification_date":"2010-09-24"},{"geonameid":"3084353","name":"Strzyżowice","asciiname":"Strzyzowice","alternatenames":"","latitude":"50.38725","longitude":"19.08038","feature_class":"P","feature_code":"PPL","country_code":"PL","cc2":"","admin1_code":"83","admin2_code":"2401","admin3_code":"240106","admin4_code":"","population":"1783","elevation":"","dem":"307","timezone":"Europe/Warsaw","modification_date":"2010-09-28"},{"geonameid":"3084395","name":"Strzelno","asciiname":"Strzelno","alternatenames":"Strzelno","latitude":"54.78564","longitude":"18.32515","feature_class":"P","feature_code":"PPL","country_code":"PL","cc2":"","admin1_code":"82","admin2_code":"2211","admin3_code":"221107","admin4_code":"","population":"1063","elevation":"","dem":"18","timezone":"Europe/Warsaw","modification_date":"2015-09-05"},{"geonameid":"3084396","name":"Strzelno","asciiname":"Strzelno","alternatenames":"Strelno,Strzelno,Stselno,Stshel'no,Stshelno,Stšelno,si qie er nuo,Стшелно,Стшельно,斯切爾諾","latitude":"52.62789","longitude":"18.17246","feature_class":"P","feature_code":"PPLA3","country_code":"PL","cc2":"PL","admin1_code":"73","admin2_code":"0409","admin3_code":"040904","admin4_code":"","population":"5951","elevation":"","dem":"106","timezone":"Europe/Warsaw","modification_date":"2014-06-27"},{"geonameid":"3084404","name":"Strzelin","asciiname":"Strzelin","alternatenames":"Comuna de Strzelin,Gmina Strzelin,Gmina Stshelin,Strehlen,Strzelin,Stshelin,Стшелин,Ґміна Стшелін","latitude":"50.78157","longitude":"17.06477","feature_class":"P","feature_code":"PPL","country_code":"PL","cc2":"","admin1_code":"72","admin2_code":"0217","admin3_code":"021704","admin4_code":"","population":"12394","elevation":"","dem":"164","timezone":"Europe/Warsaw","modification_date":"2010-09-12"},{"geonameid":"3084408","name":"Strzeleczki","asciiname":"Strzeleczki","alternatenames":"","latitude":"50.46215","longitude":"17.85665","feature_class":"P","feature_code":"PPLA3","country_code":"PL","cc2":"","admin1_code":"79","admin2_code":"1605","admin3_code":"160503","admin4_code":"","population":"1700","elevation":"","dem":"172","timezone":"Europe/Warsaw","modification_date":"2010-09-25"},{"geonameid":"3084414","name":"Strzelce Wielkie","asciiname":"Strzelce Wielkie","alternatenames":"Strzelce Wielki,Strzelce Wielkie","latitude":"51.1394","longitude":"19.14539","feature_class":"P","feature_code":"PPL","country_code":"PL","cc2":"","admin1_code":"74","admin2_code":"1009","admin3_code":"100907","admin4_code":"","population":"1100","elevation":"","dem":"217","timezone":"Europe/Warsaw","modification_date":"2010-09-06"},{"geonameid":"3084415","name":"Strzelce Opolskie","asciiname":"Strzelce Opolskie","alternatenames":"Gross Strehlitz,Gross Strohlitz,Groß Strehlitz,Opoles Stselces,Opolės Stšelcės,Strehlitz,Strzelce,Strzelce Opolskie,Stselce Opolske,Stshel'ce-Opol's'ki,Stshel'ce-Opol'ske,Stshelce Opolske,Stshelce Opolskje,Stšelce Opolske,Uopolske Strzelce,si qie er cai ao bo lai si ji,Стшелце Ополске,Стшелце Ополскје,Стшельце-Опольске,Стшельце-Опольські,ซตแชลต์แซออปอลสกีแย,斯切爾采奧波萊斯基","latitude":"50.5107","longitude":"18.30056","feature_class":"P","feature_code":"PPLA2","country_code":"PL","cc2":"","admin1_code":"79","admin2_code":"1611","admin3_code":"161105","admin4_code":"","population":"20241","elevation":"","dem":"236","timezone":"Europe/Warsaw","modification_date":"2010-09-24"},{"geonameid":"3084421","name":"Strzelce Krajeńskie","asciiname":"Strzelce Krajenskie","alternatenames":"Friedeberg,Friedeberg in Neumark,Strzelce,Strzelce Krainskie,Strzelce Kraińskie,Strzelce Krajenskie,Strzelce Krajeńskie,Strzelcé,Stselce Krajenske,Stshel'ce-Kraen'ske,Stshel'ce-Kraens'ke,Stshelce Krajenske,Stshelce Krajenskje,Stšelce Krajeņske,si qie er cai-ke la yan si kai,Стшелце Крайенске,Стшелце Крајењскје,Стшельце-Краеньске,Стшельце-Краєнське,斯切爾采-克拉延斯凱","latitude":"52.87726","longitude":"15.52978","feature_class":"P","feature_code":"PPLA2","country_code":"PL","cc2":"","admin1_code":"76","admin2_code":"0806","admin3_code":"080604","admin4_code":"","population":"9978","elevation":"","dem":"75","timezone":"Europe/Warsaw","modification_date":"2010-10-16"},{"geonameid":"3084426","name":"Strzelce","asciiname":"Strzelce","alternatenames":"","latitude":"52.31478","longitude":"19.40701","feature_class":"P","feature_code":"PPLA3","country_code":"PL","cc2":"","admin1_code":"74","admin2_code":"1002","admin3_code":"100210","admin4_code":"","population":"746","elevation":"","dem":"132","timezone":"Europe/Warsaw","modification_date":"2010-10-15"},{"geonameid":"3084440","name":"Strzegom","asciiname":"Strzegom","alternatenames":"Striegau,Strzegom,Strzyglow,Strzygłow,Stsegoma,Stshegom,Stšegoma,si qie ge mu,Стшегом,Стшеґом,斯切戈姆","latitude":"50.96264","longitude":"16.35006","feature_class":"P","feature_code":"PPL","country_code":"PL","cc2":"","admin1_code":"72","admin2_code":"0219","admin3_code":"021906","admin4_code":"","population":"17004","elevation":"","dem":"229","timezone":"Europe/Warsaw","modification_date":"2010-09-10"},{"geonameid":"3084444","name":"Strzebiń","asciiname":"Strzebin","alternatenames":"","latitude":"50.61647","longitude":"18.89794","feature_class":"P","feature_code":"PPL","country_code":"PL","cc2":"","admin1_code":"83","admin2_code":"2407","admin3_code":"240706","admin4_code":"","population":"3951","elevation":"","dem":"291","timezone":"Europe/Warsaw","modification_date":"2010-09-07"},{"geonameid":"3084449","name":"Strzałkowo","asciiname":"Strzalkowo","alternatenames":"","latitude":"52.30701","longitude":"17.81811","feature_class":"P","feature_code":"PPLA3","country_code":"PL","cc2":"","admin1_code":"86","admin2_code":"3023","admin3_code":"302307","admin4_code":"","population":"5140","elevation":"","dem":"100","timezone":"Europe/Warsaw","modification_date":"2010-10-16"},{"geonameid":"3084457","name":"Stryszów","asciiname":"Stryszow","alternatenames":"","latitude":"49.82569","longitude":"19.61763","feature_class":"P","feature_code":"PPL","country_code":"PL","cc2":"","admin1_code":"77","admin2_code":"1218","admin3_code":"121807","admin4_code":"","population":"2101","elevation":"","dem":"336","timezone":"Europe/Warsaw","modification_date":"2010-09-09"},{"geonameid":"3084460","name":"Stryszawa","asciiname":"Stryszawa","alternatenames":"","latitude":"49.71327","longitude":"19.52185","feature_class":"P","feature_code":"PPLA3","country_code":"PL","cc2":"","admin1_code":"77","admin2_code":"1215","admin3_code":"121507","admin4_code":"","population":"5266","elevation":"","dem":"435","timezone":"Europe/Warsaw","modification_date":"2010-09-22"},{"geonameid":"3084464","name":"Stryków","asciiname":"Strykow","alternatenames":"Strikov,Strikova,Strikuv,Strykow,Strykuv,Stryków,si te lei ku fu,stryqwb,Стриков,Стрикув,Стрыкув,סטריקוב,斯特雷庫夫","latitude":"51.90224","longitude":"19.60536","feature_class":"P","feature_code":"PPLA3","country_code":"PL","cc2":"","admin1_code":"74","admin2_code":"1020","admin3_code":"102008","admin4_code":"","population":"3297","elevation":"","dem":"160","timezone":"Europe/Warsaw","modification_date":"2010-10-15"},{"geonameid":"3084483","name":"Strumień","asciiname":"Strumien","alternatenames":"Strumien,Strumień","latitude":"49.92103","longitude":"18.76637","feature_class":"P","feature_code":"PPLA3","country_code":"PL","cc2":"","admin1_code":"83","admin2_code":"2403","admin3_code":"240311","admin4_code":"","population":"3419","elevation":"","dem":"258","timezone":"Europe/Warsaw","modification_date":"2011-07-31"},{"geonameid":"3084507","name":"Stróża","asciiname":"Stroza","alternatenames":"","latitude":"49.79628","longitude":"19.92379","feature_class":"P","feature_code":"PPL","country_code":"PL","cc2":"","admin1_code":"77","admin2_code":"1209","admin3_code":"120904","admin4_code":"","population":"2900","elevation":"","dem":"302","timezone":"Europe/Warsaw","modification_date":"2010-10-23"},{"geonameid":"3084515","name":"Stronie Śląskie","asciiname":"Stronie Slaskie","alternatenames":"Seitenberg,Seitenberg Grafschaft Glatz,Strone Slonske,Strone-Shl'ons'ki,Strone-Sljonske,Stronie Slaskie,Stronie Śląskie,Stroņe Slonske,si tuo ni la si qi,Строне-Слёнске,Строне-Шльонські,Строње Слонске,斯托尼拉斯奇","latitude":"50.29554","longitude":"16.87397","feature_class":"P","feature_code":"PPL","country_code":"PL","cc2":"PL","admin1_code":"72","admin2_code":"0208","admin3_code":"020813","admin4_code":"","population":"6192","elevation":"","dem":"493","timezone":"Europe/Warsaw","modification_date":"2010-09-12"},{"geonameid":"3084516","name":"Stronie","asciiname":"Stronie","alternatenames":"","latitude":"49.83056","longitude":"19.67497","feature_class":"P","feature_code":"PPL","country_code":"PL","cc2":"","admin1_code":"77","admin2_code":"1218","admin3_code":"121807","admin4_code":"","population":"1200","elevation":"","dem":"419","timezone":"Europe/Warsaw","modification_date":"2010-10-23"},{"geonameid":"3084527","name":"Straszyn","asciiname":"Straszyn","alternatenames":"Straschin,Straszyn","latitude":"54.27214","longitude":"18.58114","feature_class":"P","feature_code":"PPL","country_code":"PL","cc2":"PL","admin1_code":"82","admin2_code":"2204","admin3_code":"220404","admin4_code":"","population":"2962","elevation":"","dem":"27","timezone":"Europe/Warsaw","modification_date":"2010-10-21"},{"geonameid":"3084569","name":"Stoszowice","asciiname":"Stoszowice","alternatenames":"Stoszowice","latitude":"50.59986","longitude":"16.73896","feature_class":"P","feature_code":"PPL","country_code":"PL","cc2":"","admin1_code":"72","admin2_code":"0224","admin3_code":"022404","admin4_code":"","population":"1100","elevation":"","dem":"294","timezone":"Europe/Warsaw","modification_date":"2010-09-12"},{"geonameid":"3084641","name":"Stężyca","asciiname":"Stezyca","alternatenames":"Gmina Stazeca,Gmina Stenzhicja,Gmina Stezyca,Gmina Stãżëca,Gmina Stężyca,Stenzhica,Stezyca,Stezyca Krolewska,Stężyca,Stężyca Królewska,Стенжица,Ґміна Стенжиця","latitude":"54.20593","longitude":"17.95569","feature_class":"P","feature_code":"PPL","country_code":"PL","cc2":"PL","admin1_code":"82","admin2_code":"2205","admin3_code":"220506","admin4_code":"","population":"2200","elevation":"","dem":"165","timezone":"Europe/Warsaw","modification_date":"2010-09-13"},{"geonameid":"3084647","name":"Stęszew","asciiname":"Steszew","alternatenames":"Stenseva,Stenshev,Stenševa,Steszew,Stęszew,si teng xie fu,Стеншев,斯滕謝夫","latitude":"52.2837","longitude":"16.70085","feature_class":"P","feature_code":"PPL","country_code":"PL","cc2":"","admin1_code":"86","admin2_code":"3021","admin3_code":"302114","admin4_code":"","population":"5596","elevation":"","dem":"73","timezone":"Europe/Warsaw","modification_date":"2010-09-09"},{"geonameid":"3084660","name":"Stepnica","asciiname":"Stepnica","alternatenames":"Gross Stepenitz,Stepenitz,Stepnica,Stepnitz,Stobnica,Stopnica,Степњица","latitude":"53.65187","longitude":"14.62555","feature_class":"P","feature_code":"PPLA3","country_code":"PL","cc2":"PL","admin1_code":"87","admin2_code":"3204","admin3_code":"320407","admin4_code":"","population":"2067","elevation":"","dem":"1","timezone":"Europe/Warsaw","modification_date":"2010-09-22"},{"geonameid":"3084673","name":"Stegna","asciiname":"Stegna","alternatenames":"Steegen,Stegna,Стегна","latitude":"54.32684","longitude":"19.11252","feature_class":"P","feature_code":"PPLA3","country_code":"PL","cc2":"PL","admin1_code":"82","admin2_code":"2210","admin3_code":"221004","admin4_code":"","population":"1978","elevation":"","dem":"3","timezone":"Europe/Warsaw","modification_date":"2010-10-21"},{"geonameid":"3084717","name":"Stawiszyn","asciiname":"Stawiszyn","alternatenames":"Stavishin,Stavisina,Stavišina,Stawiszyn,si ta wei shen,Ставишин,Ставішин,斯塔維申","latitude":"51.91786","longitude":"18.11171","feature_class":"P","feature_code":"PPL","country_code":"PL","cc2":"","admin1_code":"86","admin2_code":"3007","admin3_code":"300709","admin4_code":"","population":"1564","elevation":"","dem":"120","timezone":"Europe/Warsaw","modification_date":"2010-09-28"},{"geonameid":"3084759","name":"Stary Targ","asciiname":"Stary Targ","alternatenames":"Altmark,Stary Targ,Stary-Targ,Стары-Тарг","latitude":"53.92335","longitude":"19.17003","feature_class":"P","feature_code":"PPL","country_code":"PL","cc2":"","admin1_code":"82","admin2_code":"2216","admin3_code":"221604","admin4_code":"","population":"1162","elevation":"","dem":"49","timezone":"Europe/Warsaw","modification_date":"2010-09-05"},{"geonameid":"3084807","name":"Staroźreby","asciiname":"Starozreby","alternatenames":"Staroz'reby,Starozreby,Staroźreby,Старозьребы","latitude":"52.63265","longitude":"19.9855","feature_class":"P","feature_code":"PPLA3","country_code":"PL","cc2":"","admin1_code":"78","admin2_code":"1419","admin3_code":"141914","admin4_code":"","population":"2128","elevation":"","dem":"137","timezone":"Europe/Warsaw","modification_date":"2010-09-18"},{"geonameid":"3084811","name":"Starowa Góra","asciiname":"Starowa Gora","alternatenames":"","latitude":"51.69134","longitude":"19.48374","feature_class":"P","feature_code":"PPL","country_code":"PL","cc2":"","admin1_code":"74","admin2_code":"1006","admin3_code":"100610","admin4_code":"","population":"1300","elevation":"","dem":"188","timezone":"Europe/Warsaw","modification_date":"2010-10-16"},{"geonameid":"3084824","name":"Starokrzepice","asciiname":"Starokrzepice","alternatenames":"","latitude":"50.94859","longitude":"18.65341","feature_class":"P","feature_code":"PPL","country_code":"PL","cc2":"","admin1_code":"83","admin2_code":"2406","admin3_code":"240602","admin4_code":"","population":"1319","elevation":"","dem":"223","timezone":"Europe/Warsaw","modification_date":"2010-09-05"},{"geonameid":"3084826","name":"Starogard Gdański","asciiname":"Starogard Gdanski","alternatenames":"Gdansko Starogardas,Starogard,Starogard Gdanski,Starogard Gdański,Starogard-Gdan'ski,Starogard-Gdan'skij,Starogard-Gdans'kij,Starogarda,Starogarda Gdanska,Starogarda Gdaņska,astarwgard gdansky,ge dan si ke jiu cheng,Старогард Гдански,Старогард Гдањски,Старогард-Гданьски,Старогард-Гданьский,Старогард-Ґданський,استاروگارد گدانسکی,スタロガルド・グダニスキ,格但斯克舊城","latitude":"53.96396","longitude":"18.52638","feature_class":"P","feature_code":"PPL","country_code":"PL","cc2":"","admin1_code":"82","admin2_code":"2213","admin3_code":"221303","admin4_code":"","population":"48202","elevation":"","dem":"90","timezone":"Europe/Warsaw","modification_date":"2010-09-13"},{"geonameid":"3084840","name":"Stargard Szczeciński","asciiname":"Stargard Szczecinski","alternatenames":"Gorad Stargard,Stargard,Stargard Shchechinski,Stargard Szczecinski,Stargard Szczeciński,Stargard-Shhecins'kij,Stargarda,Stargardas,Stargardia,Starnkarnt,Starogrod,Storgard,Stôrgard,Szczecinski Stargard,Szczećiński Stargard,astargart ashchchynsky,s tar kard chche ching ski,seutaleugaleuteusyuchechinseuki,shen qie qing jiu cheng,starghard ztsysynsky,sutarugaruto,Στάργκαρντ,Горад Старгард,Старгард,Старгард Шчечински,Старгард-Щецинський,استارگارت اشچچینسکی,ستارغارد زتسيسينسكي,สตาร์การ์ดชเชชีงสกี,スタルガルト,什切青旧城,스타르가르트슈체친스키","latitude":"53.33672","longitude":"15.0499","feature_class":"P","feature_code":"PPLA2","country_code":"PL","cc2":"","admin1_code":"87","admin2_code":"3214","admin3_code":"321401","admin4_code":"","population":"71224","elevation":"","dem":"21","timezone":"Europe/Warsaw","modification_date":"2010-09-22"},{"geonameid":"3084859","name":"Stare Pole","asciiname":"Stare Pole","alternatenames":"Altfelde,Stare Pole,Stare-Pole,Старе-Поле","latitude":"54.05667","longitude":"19.20874","feature_class":"P","feature_code":"PPL","country_code":"PL","cc2":"","admin1_code":"82","admin2_code":"2209","admin3_code":"220908","admin4_code":"","population":"1834","elevation":"","dem":"2","timezone":"Europe/Warsaw","modification_date":"2010-09-05"},{"geonameid":"3084870","name":"Stare Miasto","asciiname":"Stare Miasto","alternatenames":"","latitude":"52.17972","longitude":"18.21499","feature_class":"P","feature_code":"PPLA3","country_code":"PL","cc2":"","admin1_code":"86","admin2_code":"3010","admin3_code":"301011","admin4_code":"","population":"1500","elevation":"","dem":"90","timezone":"Europe/Warsaw","modification_date":"2010-10-16"},{"geonameid":"3084876","name":"Stare Kurowo","asciiname":"Stare Kurowo","alternatenames":"","latitude":"52.85669","longitude":"15.67749","feature_class":"P","feature_code":"PPLA3","country_code":"PL","cc2":"","admin1_code":"76","admin2_code":"0806","admin3_code":"080603","admin4_code":"","population":"2100","elevation":"","dem":"34","timezone":"Europe/Warsaw","modification_date":"2010-10-16"},{"geonameid":"3084890","name":"Stare Czarnowo","asciiname":"Stare Czarnowo","alternatenames":"Neumark","latitude":"53.27861","longitude":"14.77906","feature_class":"P","feature_code":"PPLA3","country_code":"PL","cc2":"PL","admin1_code":"87","admin2_code":"3206","admin3_code":"320607","admin4_code":"","population":"520","elevation":"","dem":"39","timezone":"Europe/Warsaw","modification_date":"2010-10-16"},{"geonameid":"3084900","name":"Stare Bogaczowice","asciiname":"Stare Bogaczowice","alternatenames":"Stare Bogaczowice","latitude":"50.84752","longitude":"16.19308","feature_class":"P","feature_code":"PPL","country_code":"PL","cc2":"","admin1_code":"72","admin2_code":"0221","admin3_code":"022107","admin4_code":"","population":"1450","elevation":"","dem":"367","timezone":"Europe/Warsaw","modification_date":"2010-09-12"},{"geonameid":"3084912","name":"Starcza","asciiname":"Starcza","alternatenames":"","latitude":"50.66421","longitude":"19.0418","feature_class":"P","feature_code":"PPL","country_code":"PL","cc2":"","admin1_code":"83","admin2_code":"2404","admin3_code":"240416","admin4_code":"","population":"1232","elevation":"","dem":"285","timezone":"Europe/Warsaw","modification_date":"2010-09-06"},{"geonameid":"3084953","name":"Stara Kiszewa","asciiname":"Stara Kiszewa","alternatenames":"Kiszewa Stara,Stara Kiszewa,Staro Cziszewa,Starô Cziszewa","latitude":"53.99006","longitude":"18.16958","feature_class":"P","feature_code":"PPL","country_code":"PL","cc2":"PL","admin1_code":"82","admin2_code":"2206","admin3_code":"220608","admin4_code":"","population":"1480","elevation":"","dem":"122","timezone":"Europe/Warsaw","modification_date":"2010-09-13"},