{"nextFile":"cities.101.json","rows":[{"geonameid":"3702509","name":"Progreso","asciiname":"Progreso","alternatenames":"","latitude":"8.44669","longitude":"-82.83859","feature_class":"P","feature_code":"PPL","country_code":"PA","cc2":"","admin1_code":"02","admin2_code":"0419","admin3_code":"","admin4_code":"","population":"2107","elevation":"","dem":"24","timezone":"America/Panama","modification_date":"2014-11-29"},{"geonameid":"3702534","name":"Potuga","asciiname":"Potuga","alternatenames":"Potuga","latitude":"8.06317","longitude":"-80.62271","feature_class":"P","feature_code":"PPLA3","country_code":"PA","cc2":"","admin1_code":"06","admin2_code":"","admin3_code":"","admin4_code":"","population":"0","elevation":"","dem":"33","timezone":"America/Panama","modification_date":"2015-07-03"},{"geonameid":"3702538","name":"Potrero Grande","asciiname":"Potrero Grande","alternatenames":"Potrero Grande","latitude":"8.88444","longitude":"-79.82944","feature_class":"P","feature_code":"PPL","country_code":"PA","cc2":"","admin1_code":"08","admin2_code":"","admin3_code":"","admin4_code":"","population":"4044","elevation":"","dem":"112","timezone":"America/Panama","modification_date":"2012-01-19"},{"geonameid":"3702542","name":"Potrero de Caña","asciiname":"Potrero de Cana","alternatenames":"Potrero de Cana,Potrero de Caña","latitude":"8.29345","longitude":"-81.69903","feature_class":"P","feature_code":"PPLA3","country_code":"PA","cc2":"","admin1_code":"02","admin2_code":"","admin3_code":"","admin4_code":"","population":"0","elevation":"","dem":"456","timezone":"America/Panama","modification_date":"2015-07-03"},{"geonameid":"3702548","name":"Potrerillos Arriba","asciiname":"Potrerillos Arriba","alternatenames":"Potrerillos Arriba","latitude":"8.68547","longitude":"-82.4909","feature_class":"P","feature_code":"PPLA3","country_code":"PA","cc2":"","admin1_code":"02","admin2_code":"","admin3_code":"","admin4_code":"","population":"1045","elevation":"","dem":"904","timezone":"America/Panama","modification_date":"2015-07-03"},{"geonameid":"3702550","name":"Potrerillos Abajo","asciiname":"Potrerillos Abajo","alternatenames":"Potrerillos,Potrerillos Abajo,Potrreillo Abajo","latitude":"8.63978","longitude":"-82.4856","feature_class":"P","feature_code":"PPLA3","country_code":"PA","cc2":"","admin1_code":"02","admin2_code":"","admin3_code":"","admin4_code":"","population":"1182","elevation":"","dem":"633","timezone":"America/Panama","modification_date":"2015-07-03"},{"geonameid":"3702577","name":"Portobelo","asciiname":"Portobelo","alternatenames":"Portobelas,Portobello,Portobelo,Puerto Bello,bo tuo wei luo,poleutobello,porutobero,pwrtwblw,Портобело,פורטובלו,პორტობელო,ポルトベロ,波托韦洛,포르토벨로","latitude":"9.55","longitude":"-79.65","feature_class":"P","feature_code":"PPLA3","country_code":"PA","cc2":"","admin1_code":"04","admin2_code":"0313","admin3_code":"","admin4_code":"","population":"1274","elevation":"","dem":"97","timezone":"America/Panama","modification_date":"2014-11-29"},{"geonameid":"3702579","name":"Portobelillo","asciiname":"Portobelillo","alternatenames":"Porto Bello,Portobelillo","latitude":"8.01738","longitude":"-80.59538","feature_class":"P","feature_code":"PPLA3","country_code":"PA","cc2":"","admin1_code":"06","admin2_code":"","admin3_code":"","admin4_code":"","population":"0","elevation":"","dem":"59","timezone":"America/Panama","modification_date":"2015-07-03"},{"geonameid":"3702601","name":"Ponuga","asciiname":"Ponuga","alternatenames":"Ponuga","latitude":"7.88245","longitude":"-80.9788","feature_class":"P","feature_code":"PPLA3","country_code":"PA","cc2":"","admin1_code":"10","admin2_code":"","admin3_code":"","admin4_code":"","population":"0","elevation":"","dem":"48","timezone":"America/Panama","modification_date":"2015-07-03"},{"geonameid":"3702631","name":"Pocrí","asciiname":"Pocri","alternatenames":"Pocri,Pocrí","latitude":"8.25814","longitude":"-80.55","feature_class":"P","feature_code":"PPLA3","country_code":"PA","cc2":"","admin1_code":"03","admin2_code":"","admin3_code":"","admin4_code":"","population":"11447","elevation":"","dem":"29","timezone":"America/Panama","modification_date":"2015-07-03"},{"geonameid":"3702632","name":"Pocrí","asciiname":"Pocri","alternatenames":"Pocri,Pocrí,Porci","latitude":"7.65816","longitude":"-80.12119","feature_class":"P","feature_code":"PPLA2","country_code":"PA","cc2":"","admin1_code":"07","admin2_code":"","admin3_code":"","admin4_code":"","population":"0","elevation":"","dem":"50","timezone":"America/Panama","modification_date":"2015-07-03"},{"geonameid":"3702637","name":"Plaza de Caisán","asciiname":"Plaza de Caisan","alternatenames":"Plaza de Caisan,Plaza de Caisán","latitude":"8.73672","longitude":"-82.81968","feature_class":"P","feature_code":"PPLA3","country_code":"PA","cc2":"","admin1_code":"02","admin2_code":"","admin3_code":"","admin4_code":"","population":"1121","elevation":"","dem":"792","timezone":"America/Panama","modification_date":"2015-07-03"},{"geonameid":"3702647","name":"Playón Chico","asciiname":"Playon Chico","alternatenames":"PYC,Playon Chico,Playón Chico","latitude":"9.31128","longitude":"-78.2327","feature_class":"P","feature_code":"PPL","country_code":"PA","cc2":"","admin1_code":"09","admin2_code":"","admin3_code":"","admin4_code":"","population":"2042","elevation":"","dem":"5","timezone":"America/Panama","modification_date":"2013-11-24"},{"geonameid":"3702688","name":"Playa Chiquita","asciiname":"Playa Chiquita","alternatenames":"Playa Chiquita","latitude":"9.56306","longitude":"-79.29615","feature_class":"P","feature_code":"PPLA3","country_code":"PA","cc2":"","admin1_code":"04","admin2_code":"","admin3_code":"","admin4_code":"","population":"0","elevation":"","dem":"14","timezone":"America/Panama","modification_date":"2015-04-08"},{"geonameid":"3702748","name":"Plan de Chorcha","asciiname":"Plan de Chorcha","alternatenames":"Plan de Chorcha,Plan de Galera","latitude":"8.46168","longitude":"-82.15924","feature_class":"P","feature_code":"PPLA3","country_code":"PA","cc2":"","admin1_code":"12","admin2_code":"","admin3_code":"","admin4_code":"","population":"0","elevation":"","dem":"256","timezone":"America/Panama","modification_date":"2015-07-03"},{"geonameid":"3702818","name":"Pinogana","asciiname":"Pinogana","alternatenames":"Pinogana","latitude":"8.11301","longitude":"-77.68851","feature_class":"P","feature_code":"PPLA3","country_code":"PA","cc2":"","admin1_code":"05","admin2_code":"","admin3_code":"","admin4_code":"","population":"0","elevation":"","dem":"17","timezone":"America/Panama","modification_date":"2015-04-08"},{"geonameid":"3702882","name":"Piedras Gordas","asciiname":"Piedras Gordas","alternatenames":"Piedras Gordas,Piedras Goroas","latitude":"8.63777","longitude":"-80.51024","feature_class":"P","feature_code":"PPLA3","country_code":"PA","cc2":"","admin1_code":"03","admin2_code":"","admin3_code":"","admin4_code":"","population":"0","elevation":"","dem":"436","timezone":"America/Panama","modification_date":"2015-07-03"},{"geonameid":"3702883","name":"Piedras Gordas","asciiname":"Piedras Gordas","alternatenames":"Piedras Gordas","latitude":"8.52419","longitude":"-80.91152","feature_class":"P","feature_code":"PPLA3","country_code":"PA","cc2":"","admin1_code":"10","admin2_code":"","admin3_code":"","admin4_code":"","population":"0","elevation":"","dem":"544","timezone":"America/Panama","modification_date":"2015-07-03"},{"geonameid":"3702901","name":"Piedra Roja","asciiname":"Piedra Roja","alternatenames":"Piedra Roja","latitude":"8.5703","longitude":"-81.74661","feature_class":"P","feature_code":"PPLA3","country_code":"PA","cc2":"","admin1_code":"12","admin2_code":"","admin3_code":"","admin4_code":"","population":"0","elevation":"","dem":"788","timezone":"America/Panama","modification_date":"2015-07-03"},{"geonameid":"3703011","name":"Pesé","asciiname":"Pese","alternatenames":"Pese,Pesé","latitude":"7.90165","longitude":"-80.61601","feature_class":"P","feature_code":"PPLA2","country_code":"PA","cc2":"","admin1_code":"06","admin2_code":"","admin3_code":"","admin4_code":"","population":"3141","elevation":"","dem":"78","timezone":"America/Panama","modification_date":"2015-07-03"},{"geonameid":"3703059","name":"Perales","asciiname":"Perales","alternatenames":"Perales","latitude":"7.77461","longitude":"-80.32494","feature_class":"P","feature_code":"PPLA3","country_code":"PA","cc2":"","admin1_code":"07","admin2_code":"","admin3_code":"","admin4_code":"","population":"0","elevation":"","dem":"34","timezone":"America/Panama","modification_date":"2015-07-03"},{"geonameid":"3703068","name":"Penonomé","asciiname":"Penonome","alternatenames":"Penonome,Penonomé","latitude":"8.51889","longitude":"-80.35727","feature_class":"P","feature_code":"PPLA","country_code":"PA","cc2":"","admin1_code":"03","admin2_code":"","admin3_code":"","admin4_code":"","population":"12394","elevation":"","dem":"90","timezone":"America/Panama","modification_date":"2014-07-25"},{"geonameid":"3703093","name":"Peñas Chatas","asciiname":"Penas Chatas","alternatenames":"Penas Chatas,Peñas Chatas","latitude":"8.01502","longitude":"-80.80366","feature_class":"P","feature_code":"PPLA3","country_code":"PA","cc2":"","admin1_code":"06","admin2_code":"","admin3_code":"","admin4_code":"","population":"0","elevation":"","dem":"88","timezone":"America/Panama","modification_date":"2015-07-03"},{"geonameid":"3703125","name":"Peña Blanca","asciiname":"Pena Blanca","alternatenames":"Pena Blanca,Peña Blanca","latitude":"8.46171","longitude":"-81.6788","feature_class":"P","feature_code":"PPLA3","country_code":"PA","cc2":"","admin1_code":"12","admin2_code":"","admin3_code":"","admin4_code":"","population":"0","elevation":"","dem":"839","timezone":"America/Panama","modification_date":"2015-07-03"},{"geonameid":"3703126","name":"Peña Blanca","asciiname":"Pena Blanca","alternatenames":"Pena Blanca,Peña Blanca","latitude":"7.71931","longitude":"-80.28366","feature_class":"P","feature_code":"PPLA3","country_code":"PA","cc2":"","admin1_code":"07","admin2_code":"","admin3_code":"","admin4_code":"","population":"0","elevation":"","dem":"87","timezone":"America/Panama","modification_date":"2015-07-03"},{"geonameid":"3703229","name":"Pedregal","asciiname":"Pedregal","alternatenames":"Pedregal,Puerto Pedregal","latitude":"8.36586","longitude":"-82.43524","feature_class":"P","feature_code":"PPLA3","country_code":"PA","cc2":"","admin1_code":"02","admin2_code":"","admin3_code":"","admin4_code":"","population":"16285","elevation":"","dem":"4","timezone":"America/Panama","modification_date":"2015-07-03"},{"geonameid":"3703239","name":"Pedasí","asciiname":"Pedasi","alternatenames":"PDM,Pedasi,Pedasí","latitude":"7.53034","longitude":"-80.02699","feature_class":"P","feature_code":"PPL","country_code":"PA","cc2":"","admin1_code":"07","admin2_code":"","admin3_code":"","admin4_code":"","population":"1558","elevation":"","dem":"53","timezone":"America/Panama","modification_date":"2013-11-23"},{"geonameid":"3703250","name":"Paya","asciiname":"Paya","alternatenames":"Paya","latitude":"7.90071","longitude":"-77.38965","feature_class":"P","feature_code":"PPLA3","country_code":"PA","cc2":"","admin1_code":"05","admin2_code":"","admin3_code":"","admin4_code":"","population":"0","elevation":"","dem":"97","timezone":"America/Panama","modification_date":"2015-04-08"},{"geonameid":"3703327","name":"Paso Blanco","asciiname":"Paso Blanco","alternatenames":"Paso Blanco","latitude":"9.12343","longitude":"-79.24836","feature_class":"P","feature_code":"PPL","country_code":"PA","cc2":"","admin1_code":"08","admin2_code":"","admin3_code":"","admin4_code":"","population":"2735","elevation":"","dem":"36","timezone":"America/Panama","modification_date":"2015-04-08"},{"geonameid":"3703349","name":"Paritilla","asciiname":"Paritilla","alternatenames":"Paritilla","latitude":"7.62848","longitude":"-80.1724","feature_class":"P","feature_code":"PPLA3","country_code":"PA","cc2":"","admin1_code":"07","admin2_code":"","admin3_code":"","admin4_code":"","population":"0","elevation":"","dem":"77","timezone":"America/Panama","modification_date":"2015-07-03"},{"geonameid":"3703354","name":"Parita","asciiname":"Parita","alternatenames":"Parita","latitude":"7.99393","longitude":"-80.52097","feature_class":"P","feature_code":"PPLA2","country_code":"PA","cc2":"","admin1_code":"06","admin2_code":"","admin3_code":"","admin4_code":"","population":"2875","elevation":"","dem":"32","timezone":"America/Panama","modification_date":"2015-07-03"},{"geonameid":"3703358","name":"París","asciiname":"Paris","alternatenames":"El Sucio,Paris,París","latitude":"8.05053","longitude":"-80.55409","feature_class":"P","feature_code":"PPLA3","country_code":"PA","cc2":"","admin1_code":"06","admin2_code":"","admin3_code":"","admin4_code":"","population":"0","elevation":"","dem":"25","timezone":"America/Panama","modification_date":"2015-07-03"},{"geonameid":"3703373","name":"Paraíso","asciiname":"Paraiso","alternatenames":"","latitude":"9.03315","longitude":"-79.62749","feature_class":"P","feature_code":"PPL","country_code":"PA","cc2":"","admin1_code":"08","admin2_code":"0851","admin3_code":"","admin4_code":"","population":"1177","elevation":"","dem":"68","timezone":"America/Panama","modification_date":"2014-11-29"},{"geonameid":"3703374","name":"Paraíso","asciiname":"Paraiso","alternatenames":"Paraiso,Paraíso","latitude":"8.65842","longitude":"-82.58625","feature_class":"P","feature_code":"PPLA3","country_code":"PA","cc2":"","admin1_code":"02","admin2_code":"","admin3_code":"","admin4_code":"","population":"0","elevation":"","dem":"806","timezone":"America/Panama","modification_date":"2015-07-03"},{"geonameid":"3703375","name":"Paraíso","asciiname":"Paraiso","alternatenames":"Paraiso,Paraíso","latitude":"7.6851","longitude":"-80.16082","feature_class":"P","feature_code":"PPLA3","country_code":"PA","cc2":"","admin1_code":"07","admin2_code":"","admin3_code":"","admin4_code":"","population":"0","elevation":"","dem":"42","timezone":"America/Panama","modification_date":"2015-07-03"},{"geonameid":"3703443","name":"Panamá","asciiname":"Panama","alternatenames":"Ciudad de Panama,Ciudad de Panamá,Ciutat de Panama,Ciutat de Panamà,PTY,Panama,Panama City,Panama Hiria,Panama by,Panama-Stadt,Panama-Urbo,Panama-stad,Panamurbo,Panamá,Pole tou Panama,Ziuda de Panama,Ziudá de Panamá,ba na ma cheng,panama si,panama siti,panamashiti,panamasiti,pnmh syty,shhr panama,Πόλη του Παναμά,Панама,פנמה סיטי,شهر پاناما,पनामा सिटी,ปานามาซิตี,ፓናማ ከተማ,パナマシティ,巴拿馬城,파나마 시","latitude":"8.9936","longitude":"-79.51973","feature_class":"P","feature_code":"PPLC","country_code":"PA","cc2":"","admin1_code":"08","admin2_code":"","admin3_code":"","admin4_code":"","population":"408168","elevation":"","dem":"17","timezone":"America/Panama","modification_date":"2016-01-13"},{"geonameid":"3703478","name":"Palo Grande","asciiname":"Palo Grande","alternatenames":"Palo Grande","latitude":"8.34654","longitude":"-82.60589","feature_class":"P","feature_code":"PPLA3","country_code":"PA","cc2":"","admin1_code":"02","admin2_code":"","admin3_code":"","admin4_code":"","population":"0","elevation":"","dem":"13","timezone":"America/Panama","modification_date":"2015-07-03"},{"geonameid":"3703497","name":"Palmira Centro","asciiname":"Palmira Centro","alternatenames":"Palmira Centro,Palmiras Centro","latitude":"8.73956","longitude":"-82.45228","feature_class":"P","feature_code":"PPLA3","country_code":"PA","cc2":"","admin1_code":"02","admin2_code":"","admin3_code":"","admin4_code":"","population":"0","elevation":"","dem":"1095","timezone":"America/Panama","modification_date":"2015-07-03"},{"geonameid":"3703503","name":"Palmira","asciiname":"Palmira","alternatenames":"Culebra,Palmira","latitude":"9.54359","longitude":"-79.21946","feature_class":"P","feature_code":"PPLA3","country_code":"PA","cc2":"","admin1_code":"04","admin2_code":"","admin3_code":"","admin4_code":"","population":"0","elevation":"","dem":"8","timezone":"America/Panama","modification_date":"2015-04-08"},{"geonameid":"3703505","name":"Palmira","asciiname":"Palmira","alternatenames":"","latitude":"8.73401","longitude":"-82.45887","feature_class":"P","feature_code":"PPL","country_code":"PA","cc2":"","admin1_code":"02","admin2_code":"","admin3_code":"","admin4_code":"","population":"1144","elevation":"","dem":"1084","timezone":"America/Panama","modification_date":"2015-01-07"},{"geonameid":"3703507","name":"Palmira","asciiname":"Palmira","alternatenames":"Palmira","latitude":"7.66347","longitude":"-80.35728","feature_class":"P","feature_code":"PPLA3","country_code":"PA","cc2":"","admin1_code":"07","admin2_code":"","admin3_code":"","admin4_code":"","population":"0","elevation":"","dem":"301","timezone":"America/Panama","modification_date":"2015-07-03"},{"geonameid":"3703523","name":"Palmas Bellas","asciiname":"Palmas Bellas","alternatenames":"Lagarto,Palmas Bellas","latitude":"9.22002","longitude":"-80.08369","feature_class":"P","feature_code":"PPLA3","country_code":"PA","cc2":"","admin1_code":"04","admin2_code":"","admin3_code":"","admin4_code":"","population":"1274","elevation":"","dem":"44","timezone":"America/Panama","modification_date":"2015-06-08"},{"geonameid":"3703573","name":"Palenque","asciiname":"Palenque","alternatenames":"Palenque","latitude":"9.5697","longitude":"-79.36341","feature_class":"P","feature_code":"PPLA2","country_code":"PA","cc2":"","admin1_code":"04","admin2_code":"","admin3_code":"","admin4_code":"","population":"0","elevation":"","dem":"12","timezone":"America/Panama","modification_date":"2015-04-08"},{"geonameid":"3703616","name":"Paja de Sombrero","asciiname":"Paja de Sombrero","alternatenames":"Paja de Sombrero","latitude":"8.68335","longitude":"-82.31911","feature_class":"P","feature_code":"PPLA3","country_code":"PA","cc2":"","admin1_code":"02","admin2_code":"","admin3_code":"","admin4_code":"","population":"0","elevation":"","dem":"402","timezone":"America/Panama","modification_date":"2015-07-03"},{"geonameid":"3703647","name":"Pacora","asciiname":"Pacora","alternatenames":"Pacora","latitude":"9.07937","longitude":"-79.28997","feature_class":"P","feature_code":"PPLA3","country_code":"PA","cc2":"","admin1_code":"08","admin2_code":"","admin3_code":"","admin4_code":"","population":"55530","elevation":"","dem":"11","timezone":"America/Panama","modification_date":"2015-04-08"},{"geonameid":"3703745","name":"Olá","asciiname":"Ola","alternatenames":"Ola,Olá","latitude":"8.41807","longitude":"-80.65123","feature_class":"P","feature_code":"PPLA2","country_code":"PA","cc2":"","admin1_code":"03","admin2_code":"","admin3_code":"","admin4_code":"","population":"583","elevation":"","dem":"129","timezone":"America/Panama","modification_date":"2015-07-03"},{"geonameid":"3703786","name":"Ocú","asciiname":"Ocu","alternatenames":"Ocu,Ocú","latitude":"7.94052","longitude":"-80.77936","feature_class":"P","feature_code":"PPLA2","country_code":"PA","cc2":"","admin1_code":"06","admin2_code":"","admin3_code":"","admin4_code":"","population":"2986","elevation":"","dem":"122","timezone":"America/Panama","modification_date":"2015-07-03"},{"geonameid":"3703818","name":"Nuevo Vigía","asciiname":"Nuevo Vigia","alternatenames":"Nuevo Vigia,Nuevo Vigía,Vigia","latitude":"9.24263","longitude":"-79.60756","feature_class":"P","feature_code":"PPL","country_code":"PA","cc2":"","admin1_code":"04","admin2_code":"","admin3_code":"","admin4_code":"","population":"2163","elevation":"","dem":"100","timezone":"America/Panama","modification_date":"2015-04-08"},{"geonameid":"3703820","name":"Nuevo San Juan","asciiname":"Nuevo San Juan","alternatenames":"Nuevo San Juan","latitude":"9.22205","longitude":"-79.66602","feature_class":"P","feature_code":"PPLA3","country_code":"PA","cc2":"","admin1_code":"04","admin2_code":"","admin3_code":"","admin4_code":"","population":"1232","elevation":"","dem":"40","timezone":"America/Panama","modification_date":"2015-04-08"},{"geonameid":"3703828","name":"Nuevo Emperador","asciiname":"Nuevo Emperador","alternatenames":"Nuevo Emperador,Paja","latitude":"8.99889","longitude":"-79.72722","feature_class":"P","feature_code":"PPL","country_code":"PA","cc2":"","admin1_code":"08","admin2_code":"","admin3_code":"","admin4_code":"","population":"1723","elevation":"","dem":"134","timezone":"America/Panama","modification_date":"2012-01-19"},{"geonameid":"3703831","name":"Nuevo Chagres","asciiname":"Nuevo Chagres","alternatenames":"Nuevo Chagres","latitude":"9.22888","longitude":"-80.08155","feature_class":"P","feature_code":"PPLA2","country_code":"PA","cc2":"","admin1_code":"04","admin2_code":"","admin3_code":"","admin4_code":"","population":"0","elevation":"","dem":"10","timezone":"America/Panama","modification_date":"2015-06-08"},{"geonameid":"3703833","name":"Nuevo Arraiján","asciiname":"Nuevo Arraijan","alternatenames":"Nuevo Arraijan,Nuevo Arraiján","latitude":"8.91667","longitude":"-79.71667","feature_class":"P","feature_code":"PPL","country_code":"PA","cc2":"","admin1_code":"08","admin2_code":"","admin3_code":"","admin4_code":"","population":"23594","elevation":"","dem":"33","timezone":"America/Panama","modification_date":"2012-01-19"},{"geonameid":"3703837","name":"Nueva Providencia","asciiname":"Nueva Providencia","alternatenames":"New Providence,Nueva Providencia","latitude":"9.26333","longitude":"-79.81556","feature_class":"P","feature_code":"PPLA3","country_code":"PA","cc2":"","admin1_code":"04","admin2_code":"","admin3_code":"","admin4_code":"","population":"0","elevation":"","dem":"39","timezone":"America/Panama","modification_date":"2015-04-08"},{"geonameid":"3703839","name":"Nueva Gorgona","asciiname":"Nueva Gorgona","alternatenames":"Gorgona,Nueva Gorgona","latitude":"8.55","longitude":"-79.86667","feature_class":"P","feature_code":"PPL","country_code":"PA","cc2":"","admin1_code":"08","admin2_code":"","admin3_code":"","admin4_code":"","population":"1517","elevation":"","dem":"-9999","timezone":"America/Panama","modification_date":"2012-01-19"},{"geonameid":"3703847","name":"Nuestro Amo","asciiname":"Nuestro Amo","alternatenames":"Nuestro Amo","latitude":"8.44485","longitude":"-80.58934","feature_class":"P","feature_code":"PPLA3","country_code":"PA","cc2":"","admin1_code":"03","admin2_code":"","admin3_code":"","admin4_code":"","population":"0","elevation":"","dem":"49","timezone":"America/Panama","modification_date":"2015-07-03"},{"geonameid":"3703854","name":"Nuario","asciiname":"Nuario","alternatenames":"Nuario","latitude":"7.53047","longitude":"-80.32692","feature_class":"P","feature_code":"PPLA3","country_code":"PA","cc2":"","admin1_code":"07","admin2_code":"","admin3_code":"","admin4_code":"","population":"0","elevation":"","dem":"404","timezone":"America/Panama","modification_date":"2015-07-03"},{"geonameid":"3703876","name":"Nombre de Dios","asciiname":"Nombre de Dios","alternatenames":"Nombre de Dios","latitude":"9.57937","longitude":"-79.47109","feature_class":"P","feature_code":"PPLA3","country_code":"PA","cc2":"","admin1_code":"04","admin2_code":"","admin3_code":"","admin4_code":"","population":"0","elevation":"","dem":"12","timezone":"America/Panama","modification_date":"2015-04-08"},{"geonameid":"3703938","name":"Natá","asciiname":"Nata","alternatenames":"Nata,Natá","latitude":"8.33209","longitude":"-80.51969","feature_class":"P","feature_code":"PPLA2","country_code":"PA","cc2":"","admin1_code":"03","admin2_code":"","admin3_code":"","admin4_code":"","population":"5619","elevation":"","dem":"17","timezone":"America/Panama","modification_date":"2015-07-03"},{"geonameid":"3703946","name":"Narganá","asciiname":"Nargana","alternatenames":"NGN,Nargana,Narganá,Rio Diablo,Rio Diablo Village,Río Diablo,Yandup","latitude":"9.44394","longitude":"-78.58666","feature_class":"P","feature_code":"PPL","country_code":"PA","cc2":"","admin1_code":"09","admin2_code":"","admin3_code":"","admin4_code":"","population":"1090","elevation":"","dem":"4","timezone":"America/Panama","modification_date":"2014-08-04"},{"geonameid":"3704029","name":"Mulatupo","asciiname":"Mulatupo","alternatenames":"Gallinazo,Isla Gallinazo,MPP,Mulatupo,Mulatupo Sasardi,Mulatupo Sasardí","latitude":"8.94672","longitude":"-77.7508","feature_class":"P","feature_code":"PPL","country_code":"PA","cc2":"","admin1_code":"09","admin2_code":"","admin3_code":"","admin4_code":"","population":"1303","elevation":"","dem":"5","timezone":"America/Panama","modification_date":"2013-12-07"},{"geonameid":"3704073","name":"Mortí","asciiname":"Morti","alternatenames":"Boca de Morti,Boca de Mortí,Iquinina,Morti,Morti Abajo,Mortinak,Mortí,Mortí Abajo","latitude":"8.84191","longitude":"-77.97959","feature_class":"P","feature_code":"PPLA3","country_code":"PA","cc2":"","admin1_code":"05","admin2_code":"","admin3_code":"","admin4_code":"","population":"0","elevation":"","dem":"54","timezone":"America/Panama","modification_date":"2015-04-08"},{"geonameid":"3704123","name":"Montijo","asciiname":"Montijo","alternatenames":"Montijo","latitude":"7.98858","longitude":"-81.05643","feature_class":"P","feature_code":"PPLA2","country_code":"PA","cc2":"","admin1_code":"10","admin2_code":"","admin3_code":"","admin4_code":"","population":"1873","elevation":"","dem":"61","timezone":"America/Panama","modification_date":"2015-07-03"},{"geonameid":"3704138","name":"Monte Lirio","asciiname":"Monte Lirio","alternatenames":"Monte Lirio","latitude":"8.78935","longitude":"-82.82865","feature_class":"P","feature_code":"PPLA3","country_code":"PA","cc2":"","admin1_code":"02","admin2_code":"","admin3_code":"","admin4_code":"","population":"2823","elevation":"","dem":"834","timezone":"America/Panama","modification_date":"2015-07-03"},{"geonameid":"3704154","name":"La Montañuela","asciiname":"La Montanuela","alternatenames":"La Montanuela,La Montañuela,Montanuela,Montañuela","latitude":"8.02487","longitude":"-80.86325","feature_class":"P","feature_code":"PPLA3","country_code":"PA","cc2":"","admin1_code":"10","admin2_code":"","admin3_code":"","admin4_code":"","population":"0","elevation":"","dem":"63","timezone":"America/Panama","modification_date":"2015-07-03"},{"geonameid":"3704174","name":"Monjarás","asciiname":"Monjaras","alternatenames":"Monjaras,Monjarás","latitude":"8.36942","longitude":"-80.86667","feature_class":"P","feature_code":"PPLA3","country_code":"PA","cc2":"","admin1_code":"10","admin2_code":"","admin3_code":"","admin4_code":"","population":"0","elevation":"","dem":"185","timezone":"America/Panama","modification_date":"2015-07-03"},{"geonameid":"3704187","name":"Monagrillo","asciiname":"Monagrillo","alternatenames":"Monagrillo","latitude":"7.98179","longitude":"-80.43764","feature_class":"P","feature_code":"PPLA3","country_code":"PA","cc2":"","admin1_code":"06","admin2_code":"","admin3_code":"","admin4_code":"","population":"0","elevation":"","dem":"29","timezone":"America/Panama","modification_date":"2015-07-03"},{"geonameid":"3704231","name":"Mogollón","asciiname":"Mogollon","alternatenames":"Mogollon,Mogollón","latitude":"7.64261","longitude":"-80.4595","feature_class":"P","feature_code":"PPLA3","country_code":"PA","cc2":"","admin1_code":"07","admin2_code":"","admin3_code":"","admin4_code":"","population":"0","elevation":"","dem":"414","timezone":"America/Panama","modification_date":"2015-07-03"},{"geonameid":"3704255","name":"Miramar","asciiname":"Miramar","alternatenames":"Miramar","latitude":"9.57017","longitude":"-79.33881","feature_class":"P","feature_code":"PPLA3","country_code":"PA","cc2":"","admin1_code":"04","admin2_code":"","admin3_code":"","admin4_code":"","population":"0","elevation":"","dem":"10","timezone":"America/Panama","modification_date":"2015-04-08"},{"geonameid":"3704256","name":"Miramar","asciiname":"Miramar","alternatenames":"Miramar","latitude":"8.99482","longitude":"-82.24147","feature_class":"P","feature_code":"PPLA3","country_code":"PA","cc2":"","admin1_code":"01","admin2_code":"","admin3_code":"","admin4_code":"","population":"0","elevation":"","dem":"12","timezone":"America/Panama","modification_date":"2015-07-03"},{"geonameid":"3704308","name":"Miguel de La Borda","asciiname":"Miguel de La Borda","alternatenames":"Donoso,Miguel de La Borda","latitude":"9.14544","longitude":"-80.30124","feature_class":"P","feature_code":"PPLA2","country_code":"PA","cc2":"","admin1_code":"04","admin2_code":"","admin3_code":"","admin4_code":"","population":"0","elevation":"","dem":"11","timezone":"America/Panama","modification_date":"2015-06-08"},{"geonameid":"3704327","name":"Metetí","asciiname":"Meteti","alternatenames":"Meteti,Metety,Metetí","latitude":"8.49909","longitude":"-77.97897","feature_class":"P","feature_code":"PPLA3","country_code":"PA","cc2":"","admin1_code":"05","admin2_code":"","admin3_code":"","admin4_code":"","population":"1347","elevation":"","dem":"55","timezone":"America/Panama","modification_date":"2015-04-08"},{"geonameid":"3704460","name":"Mata del Nance","asciiname":"Mata del Nance","alternatenames":"Mata del Nance","latitude":"8.45056","longitude":"-82.40057","feature_class":"P","feature_code":"PPL","country_code":"PA","cc2":"","admin1_code":"02","admin2_code":"","admin3_code":"","admin4_code":"","population":"1051","elevation":"","dem":"83","timezone":"America/Panama","modification_date":"2015-07-03"},{"geonameid":"3704547","name":"María Chiquita","asciiname":"Maria Chiquita","alternatenames":"Maria Chiquita,María Chiquita","latitude":"9.43991","longitude":"-79.75455","feature_class":"P","feature_code":"PPLA3","country_code":"PA","cc2":"","admin1_code":"04","admin2_code":"","admin3_code":"","admin4_code":"","population":"1146","elevation":"","dem":"6","timezone":"America/Panama","modification_date":"2015-04-08"},{"geonameid":"3704550","name":"Mariabé","asciiname":"Mariabe","alternatenames":"Mariabe,Mariabé","latitude":"7.58265","longitude":"-80.0661","feature_class":"P","feature_code":"PPLA3","country_code":"PA","cc2":"","admin1_code":"07","admin2_code":"","admin3_code":"","admin4_code":"","population":"0","elevation":"","dem":"25","timezone":"America/Panama","modification_date":"2015-07-03"},{"geonameid":"3704571","name":"Las Margaritas","asciiname":"Las Margaritas","alternatenames":"Las Margaritas,Margarita,Margarita-Escondido","latitude":"9.32603","longitude":"-79.89028","feature_class":"P","feature_code":"PPLA3","country_code":"PA","cc2":"","admin1_code":"04","admin2_code":"","admin3_code":"","admin4_code":"","population":"3302","elevation":"","dem":"13","timezone":"America/Panama","modification_date":"2015-04-08"},{"geonameid":"3704612","name":"Maraca","asciiname":"Maraca","alternatenames":"Maraca","latitude":"8.37302","longitude":"-81.72741","feature_class":"P","feature_code":"PPLA3","country_code":"PA","cc2":"","admin1_code":"12","admin2_code":"","admin3_code":"","admin4_code":"","population":"0","elevation":"","dem":"503","timezone":"America/Panama","modification_date":"2015-07-03"},{"geonameid":"3704874","name":"Macaracas","asciiname":"Macaracas","alternatenames":"Macaracas","latitude":"7.73168","longitude":"-80.55364","feature_class":"P","feature_code":"PPLA2","country_code":"PA","cc2":"","admin1_code":"07","admin2_code":"","admin3_code":"","admin4_code":"","population":"2192","elevation":"","dem":"108","timezone":"America/Panama","modification_date":"2015-07-03"},{"geonameid":"3704929","name":"Los Valles","asciiname":"Los Valles","alternatenames":"Los Valles","latitude":"8.44851","longitude":"-81.19886","feature_class":"P","feature_code":"PPLA3","country_code":"PA","cc2":"","admin1_code":"10","admin2_code":"","admin3_code":"","admin4_code":"","population":"0","elevation":"","dem":"391","timezone":"America/Panama","modification_date":"2015-07-03"},{"geonameid":"3704964","name":"Los Santos","asciiname":"Los Santos","alternatenames":"Los Santos","latitude":"7.93333","longitude":"-80.41667","feature_class":"P","feature_code":"PPLA2","country_code":"PA","cc2":"","admin1_code":"07","admin2_code":"","admin3_code":"","admin4_code":"","population":"5970","elevation":"","dem":"17","timezone":"America/Panama","modification_date":"2015-07-03"},{"geonameid":"3705024","name":"Los Pozos","asciiname":"Los Pozos","alternatenames":"Los Pozo,Los Pozos","latitude":"7.783","longitude":"-80.64524","feature_class":"P","feature_code":"PPLA2","country_code":"PA","cc2":"","admin1_code":"06","admin2_code":"","admin3_code":"","admin4_code":"","population":"846","elevation":"","dem":"284","timezone":"America/Panama","modification_date":"2015-07-03"},{"geonameid":"3705131","name":"Los Olivos","asciiname":"Los Olivos","alternatenames":"Los Olivos","latitude":"7.91589","longitude":"-80.48884","feature_class":"P","feature_code":"PPLA3","country_code":"PA","cc2":"","admin1_code":"07","admin2_code":"","admin3_code":"","admin4_code":"","population":"0","elevation":"","dem":"33","timezone":"America/Panama","modification_date":"2015-07-03"},{"geonameid":"3705156","name":"Los Naranjos","asciiname":"Los Naranjos","alternatenames":"Los Naranjos","latitude":"8.7921","longitude":"-82.44665","feature_class":"P","feature_code":"PPLA3","country_code":"PA","cc2":"","admin1_code":"02","admin2_code":"","admin3_code":"","admin4_code":"","population":"0","elevation":"","dem":"1265","timezone":"America/Panama","modification_date":"2015-07-03"},{"geonameid":"3705229","name":"Los Lotes","asciiname":"Los Lotes","alternatenames":"Los Lotes","latitude":"9.12425","longitude":"-79.28929","feature_class":"P","feature_code":"PPL","country_code":"PA","cc2":"","admin1_code":"08","admin2_code":"","admin3_code":"","admin4_code":"","population":"1319","elevation":"","dem":"61","timezone":"America/Panama","modification_date":"2015-04-08"},{"geonameid":"3705280","name":"Los Higos","asciiname":"Los Higos","alternatenames":"Los Higos","latitude":"8.20384","longitude":"-80.86667","feature_class":"P","feature_code":"PPLA3","country_code":"PA","cc2":"","admin1_code":"10","admin2_code":"","admin3_code":"","admin4_code":"","population":"0","elevation":"","dem":"46","timezone":"America/Panama","modification_date":"2015-07-03"},{"geonameid":"3705371","name":"Los Corotúes","asciiname":"Los Corotues","alternatenames":"Los Corotues,Los Corotúes","latitude":"8.42014","longitude":"-81.10421","feature_class":"P","feature_code":"PPLA3","country_code":"PA","cc2":"","admin1_code":"10","admin2_code":"","admin3_code":"","admin4_code":"","population":"0","elevation":"","dem":"324","timezone":"America/Panama","modification_date":"2015-07-03"},{"geonameid":"3705403","name":"Los Cerros de Paja","asciiname":"Los Cerros de Paja","alternatenames":"Cerro de Paja,Los Cerros de Paja","latitude":"7.71821","longitude":"-80.67273","feature_class":"P","feature_code":"PPLA3","country_code":"PA","cc2":"","admin1_code":"06","admin2_code":"","admin3_code":"","admin4_code":"","population":"0","elevation":"","dem":"343","timezone":"America/Panama","modification_date":"2015-07-03"},{"geonameid":"3705417","name":"Los Cerritos","asciiname":"Los Cerritos","alternatenames":"Cerrillos,Cerritos,Los Cerritos","latitude":"7.79746","longitude":"-80.61071","feature_class":"P","feature_code":"PPLA3","country_code":"PA","cc2":"","admin1_code":"06","admin2_code":"","admin3_code":"","admin4_code":"","population":"0","elevation":"","dem":"119","timezone":"America/Panama","modification_date":"2015-07-03"},{"geonameid":"3705445","name":"Los Castillos","asciiname":"Los Castillos","alternatenames":"Los Castillos","latitude":"8.02326","longitude":"-81.11941","feature_class":"P","feature_code":"PPLA3","country_code":"PA","cc2":"","admin1_code":"10","admin2_code":"","admin3_code":"","admin4_code":"","population":"0","elevation":"","dem":"56","timezone":"America/Panama","modification_date":"2015-07-03"},{"geonameid":"3705446","name":"Los Castillos","asciiname":"Los Castillos","alternatenames":"Los Castillos","latitude":"7.98565","longitude":"-80.61886","feature_class":"P","feature_code":"PPLA3","country_code":"PA","cc2":"","admin1_code":"06","admin2_code":"","admin3_code":"","admin4_code":"","population":"0","elevation":"","dem":"52","timezone":"America/Panama","modification_date":"2015-07-03"},{"geonameid":"3705464","name":"Los Canelos","asciiname":"Los Canelos","alternatenames":"Los Canelos","latitude":"8.11722","longitude":"-80.70769","feature_class":"P","feature_code":"PPLA3","country_code":"PA","cc2":"","admin1_code":"06","admin2_code":"","admin3_code":"","admin4_code":"","population":"0","elevation":"","dem":"26","timezone":"America/Panama","modification_date":"2015-07-03"},{"geonameid":"3705493","name":"Los Boquerones","asciiname":"Los Boquerones","alternatenames":"Boquerones,Los Boquerones","latitude":"8.07912","longitude":"-80.85494","feature_class":"P","feature_code":"PPL","country_code":"PA","cc2":"","admin1_code":"10","admin2_code":"","admin3_code":"","admin4_code":"","population":"1038","elevation":"","dem":"61","timezone":"America/Panama","modification_date":"2015-07-03"},{"geonameid":"3705533","name":"Los Asientos","asciiname":"Los Asientos","alternatenames":"Los Asientos","latitude":"7.51656","longitude":"-80.13521","feature_class":"P","feature_code":"PPLA3","country_code":"PA","cc2":"","admin1_code":"07","admin2_code":"","admin3_code":"","admin4_code":"","population":"0","elevation":"","dem":"149","timezone":"America/Panama","modification_date":"2015-07-03"},{"geonameid":"3705542","name":"Los Ángeles","asciiname":"Los Angeles","alternatenames":"Los Angeles,Los Ángeles","latitude":"8.52271","longitude":"-82.19997","feature_class":"P","feature_code":"PPLA3","country_code":"PA","cc2":"","admin1_code":"02","admin2_code":"","admin3_code":"","admin4_code":"","population":"0","elevation":"","dem":"349","timezone":"America/Panama","modification_date":"2015-07-03"},{"geonameid":"3705544","name":"Los Ángeles","asciiname":"Los Angeles","alternatenames":"Los Angeles,Los Ángeles","latitude":"7.88422","longitude":"-80.35772","feature_class":"P","feature_code":"PPLA3","country_code":"PA","cc2":"","admin1_code":"07","admin2_code":"","admin3_code":"","admin4_code":"","population":"0","elevation":"","dem":"29","timezone":"America/Panama","modification_date":"2015-07-03"},{"geonameid":"3705549","name":"Los Anastacios","asciiname":"Los Anastacios","alternatenames":"Los Anastacios","latitude":"8.53027","longitude":"-82.42295","feature_class":"P","feature_code":"PPL","country_code":"PA","cc2":"","admin1_code":"02","admin2_code":"","admin3_code":"","admin4_code":"","population":"1123","elevation":"","dem":"179","timezone":"America/Panama","modification_date":"2015-05-16"},{"geonameid":"3705562","name":"Los Algarrobos","asciiname":"Los Algarrobos","alternatenames":"Algarrabo,Algarrobo,Los Algarrobos","latitude":"8.49601","longitude":"-82.42417","feature_class":"P","feature_code":"PPL","country_code":"PA","cc2":"","admin1_code":"02","admin2_code":"","admin3_code":"","admin4_code":"","population":"2028","elevation":"","dem":"144","timezone":"America/Panama","modification_date":"2015-07-03"},{"geonameid":"3705563","name":"Los Algarrobos","asciiname":"Los Algarrobos","alternatenames":"Los Algarrobos","latitude":"8.10898","longitude":"-81.01355","feature_class":"P","feature_code":"PPLA3","country_code":"PA","cc2":"","admin1_code":"10","admin2_code":"","admin3_code":"","admin4_code":"","population":"1611","elevation":"","dem":"115","timezone":"America/Panama","modification_date":"2015-07-03"},{"geonameid":"3705666","name":"Lolá","asciiname":"Lola","alternatenames":"Lola,Lolá","latitude":"8.09326","longitude":"-81.47163","feature_class":"P","feature_code":"PPLA3","country_code":"PA","cc2":"","admin1_code":"10","admin2_code":"","admin3_code":"","admin4_code":"","population":"0","elevation":"","dem":"478","timezone":"America/Panama","modification_date":"2015-07-03"},{"geonameid":"3705678","name":"Buabidi","asciiname":"Buabidi","alternatenames":"Buabidi,Buabti,Buäbti,Llano Tugri,Llano Tugrí","latitude":"8.47457","longitude":"-81.69827","feature_class":"P","feature_code":"PPLA","country_code":"PA","cc2":"","admin1_code":"12","admin2_code":"","admin3_code":"","admin4_code":"","population":"0","elevation":"","dem":"1162","timezone":"America/Panama","modification_date":"2015-07-03"},{"geonameid":"3705688","name":"Llano Ñopo","asciiname":"Llano Nopo","alternatenames":"Llano Nopa,Llano Nopo,Llano Ñopa,Llano Ñopo","latitude":"8.41996","longitude":"-81.61865","feature_class":"P","feature_code":"PPLA3","country_code":"PA","cc2":"","admin1_code":"12","admin2_code":"","admin3_code":"","admin4_code":"","population":"0","elevation":"","dem":"342","timezone":"America/Panama","modification_date":"2015-07-03"},{"geonameid":"3705691","name":"Llano Marín","asciiname":"Llano Marin","alternatenames":"Llano Marin,Llano Marín","latitude":"8.47696","longitude":"-80.32499","feature_class":"P","feature_code":"PPL","country_code":"PA","cc2":"","admin1_code":"03","admin2_code":"","admin3_code":"","admin4_code":"","population":"1264","elevation":"","dem":"56","timezone":"America/Panama","modification_date":"2015-07-03"},{"geonameid":"3705710","name":"Llano Largo","asciiname":"Llano Largo","alternatenames":"Llano Largo","latitude":"7.90607","longitude":"-80.42561","feature_class":"P","feature_code":"PPLA3","country_code":"PA","cc2":"","admin1_code":"07","admin2_code":"","admin3_code":"","admin4_code":"","population":"1077","elevation":"","dem":"64","timezone":"America/Panama","modification_date":"2015-07-03"},{"geonameid":"3705720","name":"Llano Grande","asciiname":"Llano Grande","alternatenames":"Llano Grande","latitude":"8.63817","longitude":"-80.43848","feature_class":"P","feature_code":"PPLA3","country_code":"PA","cc2":"","admin1_code":"03","admin2_code":"","admin3_code":"","admin4_code":"","population":"0","elevation":"","dem":"128","timezone":"America/Panama","modification_date":"2015-07-03"},{"geonameid":"3705725","name":"Llano Grande","asciiname":"Llano Grande","alternatenames":"Llano Grande","latitude":"8.45053","longitude":"-80.22676","feature_class":"P","feature_code":"PPLA3","country_code":"PA","cc2":"","admin1_code":"03","admin2_code":"","admin3_code":"","admin4_code":"","population":"0","elevation":"","dem":"79","timezone":"America/Panama","modification_date":"2015-07-03"},{"geonameid":"3705735","name":"Llano Grande","asciiname":"Llano Grande","alternatenames":"Llano Grade,Llano Grande","latitude":"8.07473","longitude":"-81.13626","feature_class":"P","feature_code":"PPLA3","country_code":"PA","cc2":"","admin1_code":"10","admin2_code":"","admin3_code":"","admin4_code":"","population":"0","elevation":"","dem":"48","timezone":"America/Panama","modification_date":"2015-07-03"},{"geonameid":"3705737","name":"Llano Grande","asciiname":"Llano Grande","alternatenames":"Llano Grande","latitude":"7.97406","longitude":"-80.71103","feature_class":"P","feature_code":"PPLA3","country_code":"PA","cc2":"","admin1_code":"06","admin2_code":"","admin3_code":"","admin4_code":"","population":"0","elevation":"","dem":"74","timezone":"America/Panama","modification_date":"2015-07-03"},{"geonameid":"3705743","name":"Llano de Piedra","asciiname":"Llano de Piedra","alternatenames":"Llano de Piedra","latitude":"7.65972","longitude":"-80.56347","feature_class":"P","feature_code":"PPLA3","country_code":"PA","cc2":"","admin1_code":"07","admin2_code":"","admin3_code":"","admin4_code":"","population":"1105","elevation":"","dem":"155","timezone":"America/Panama","modification_date":"2015-07-03"},{"geonameid":"3705768","name":"Llano de La Cruz","asciiname":"Llano de La Cruz","alternatenames":"Juan La Cruz,Juan de la Cruz,Llano de La Cruz","latitude":"7.95178","longitude":"-80.64239","feature_class":"P","feature_code":"PPLA3","country_code":"PA","cc2":"","admin1_code":"06","admin2_code":"","admin3_code":"","admin4_code":"","population":"0","elevation":"","dem":"36","timezone":"America/Panama","modification_date":"2015-07-03"},{"geonameid":"3705779","name":"Llano Bonito","asciiname":"Llano Bonito","alternatenames":"Llano Bonito","latitude":"7.97637","longitude":"-80.41646","feature_class":"P","feature_code":"PPLA3","country_code":"PA","cc2":"","admin1_code":"06","admin2_code":"","admin3_code":"","admin4_code":"","population":"0","elevation":"","dem":"16","timezone":"America/Panama","modification_date":"2015-07-03"},{"geonameid":"3705800","name":"Llano Abajo","asciiname":"Llano Abajo","alternatenames":"Llano Abajo,Llano Bajo","latitude":"7.78598","longitude":"-80.4106","feature_class":"P","feature_code":"PPLA3","country_code":"PA","cc2":"","admin1_code":"07","admin2_code":"","admin3_code":"","admin4_code":"","population":"0","elevation":"","dem":"65","timezone":"America/Panama","modification_date":"2015-07-03"},{"geonameid":"3705836","name":"Limones","asciiname":"Limones","alternatenames":"Limones,Puerto Limones,Puerto Limónes","latitude":"8.10007","longitude":"-82.86679","feature_class":"P","feature_code":"PPLA3","country_code":"PA","cc2":"","admin1_code":"02","admin2_code":"","admin3_code":"","admin4_code":"","population":"0","elevation":"","dem":"52","timezone":"America/Panama","modification_date":"2015-07-03"},{"geonameid":"3705840","name":"Limón de Tijeras","asciiname":"Limon de Tijeras","alternatenames":"Limon de Tijeras,Limón de Tijeras","latitude":"7.81756","longitude":"-80.91335","feature_class":"P","feature_code":"PPLA3","country_code":"PA","cc2":"","admin1_code":"06","admin2_code":"","admin3_code":"","admin4_code":"","population":"0","elevation":"","dem":"275","timezone":"America/Panama","modification_date":"2015-07-03"},{"geonameid":"3705894","name":"Lídice","asciiname":"Lidice","alternatenames":"Lidice,Lídice","latitude":"8.74869","longitude":"-79.90974","feature_class":"P","feature_code":"PPL","country_code":"PA","cc2":"","admin1_code":"08","admin2_code":"","admin3_code":"","admin4_code":"","population":"4059","elevation":"","dem":"128","timezone":"America/Panama","modification_date":"2015-08-06"},{"geonameid":"3705906","name":"Leones Arriba","asciiname":"Leones Arriba","alternatenames":"Leones Arriba","latitude":"7.7659","longitude":"-80.84515","feature_class":"P","feature_code":"PPLA3","country_code":"PA","cc2":"","admin1_code":"06","admin2_code":"","admin3_code":"","admin4_code":"","population":"0","elevation":"","dem":"481","timezone":"America/Panama","modification_date":"2015-07-03"},{"geonameid":"3705907","name":"Leones Arriba","asciiname":"Leones Arriba","alternatenames":"Leones Arriba","latitude":"7.753","longitude":"-81.12124","feature_class":"P","feature_code":"PPLA3","country_code":"PA","cc2":"","admin1_code":"10","admin2_code":"","admin3_code":"","admin4_code":"","population":"0","elevation":"","dem":"66","timezone":"America/Panama","modification_date":"2015-07-03"},{"geonameid":"3705969","name":"La Yeguada","asciiname":"La Yeguada","alternatenames":"La Yeguada","latitude":"8.4306","longitude":"-80.85752","feature_class":"P","feature_code":"PPLA3","country_code":"PA","cc2":"","admin1_code":"10","admin2_code":"","admin3_code":"","admin4_code":"","population":"0","elevation":"","dem":"578","timezone":"America/Panama","modification_date":"2015-07-03"},{"geonameid":"3705989","name":"La Victoria","asciiname":"La Victoria","alternatenames":"","latitude":"8.45","longitude":"-82.25","feature_class":"P","feature_code":"PPL","country_code":"PA","cc2":"","admin1_code":"02","admin2_code":"","admin3_code":"","admin4_code":"","population":"1163","elevation":"","dem":"80","timezone":"America/Panama","modification_date":"2006-01-17"},{"geonameid":"3706043","name":"La Tronosa","asciiname":"La Tronosa","alternatenames":"La Tronosa","latitude":"7.43609","longitude":"-80.58698","feature_class":"P","feature_code":"PPLA3","country_code":"PA","cc2":"","admin1_code":"07","admin2_code":"","admin3_code":"","admin4_code":"","population":"0","elevation":"","dem":"97","timezone":"America/Panama","modification_date":"2015-07-03"},{"geonameid":"3706052","name":"La Trinidad","asciiname":"La Trinidad","alternatenames":"La Trinidad,La Trinidad Obispo,Trinidad","latitude":"7.91457","longitude":"-80.70332","feature_class":"P","feature_code":"PPLA3","country_code":"PA","cc2":"","admin1_code":"06","admin2_code":"","admin3_code":"","admin4_code":"","population":"0","elevation":"","dem":"90","timezone":"America/Panama","modification_date":"2015-07-03"},{"geonameid":"3706091","name":"La Tiza","asciiname":"La Tiza","alternatenames":"La Tiza","latitude":"7.7511","longitude":"-80.29216","feature_class":"P","feature_code":"PPLA3","country_code":"PA","cc2":"","admin1_code":"07","admin2_code":"","admin3_code":"","admin4_code":"","population":"1091","elevation":"","dem":"60","timezone":"America/Panama","modification_date":"2015-07-03"},{"geonameid":"3706185","name":"Las Trancas","asciiname":"Las Trancas","alternatenames":"Las Trancas","latitude":"7.734","longitude":"-80.37384","feature_class":"P","feature_code":"PPLA3","country_code":"PA","cc2":"","admin1_code":"07","admin2_code":"","admin3_code":"","admin4_code":"","population":"0","elevation":"","dem":"145","timezone":"America/Panama","modification_date":"2015-07-03"},{"geonameid":"3706208","name":"Las Tablas","asciiname":"Las Tablas","alternatenames":"Las Tablas","latitude":"7.76472","longitude":"-80.27483","feature_class":"P","feature_code":"PPLA","country_code":"PA","cc2":"","admin1_code":"07","admin2_code":"","admin3_code":"","admin4_code":"","population":"8570","elevation":"","dem":"42","timezone":"America/Panama","modification_date":"2015-07-03"},{"geonameid":"3706214","name":"Las Sabanas","asciiname":"Las Sabanas","alternatenames":"Las Sabanas","latitude":"8.58141","longitude":"-80.67978","feature_class":"P","feature_code":"PPLA3","country_code":"PA","cc2":"","admin1_code":"03","admin2_code":"","admin3_code":"","admin4_code":"","population":"0","elevation":"","dem":"566","timezone":"America/Panama","modification_date":"2015-07-03"},{"geonameid":"3706278","name":"Las Palmitas","asciiname":"Las Palmitas","alternatenames":"Las Palmitas","latitude":"7.76523","longitude":"-80.2935","feature_class":"P","feature_code":"PPLA3","country_code":"PA","cc2":"","admin1_code":"07","admin2_code":"","admin3_code":"","admin4_code":"","population":"0","elevation":"","dem":"45","timezone":"America/Panama","modification_date":"2015-07-03"},{"geonameid":"3706292","name":"Las Palmas","asciiname":"Las Palmas","alternatenames":"Las Palmas","latitude":"8.13564","longitude":"-81.45674","feature_class":"P","feature_code":"PPLA2","country_code":"PA","cc2":"","admin1_code":"10","admin2_code":"","admin3_code":"","admin4_code":"","population":"1489","elevation":"","dem":"284","timezone":"America/Panama","modification_date":"2015-07-03"},{"geonameid":"3706294","name":"Las Palmas","asciiname":"Las Palmas","alternatenames":"Las Palmas","latitude":"7.67881","longitude":"-80.4957","feature_class":"P","feature_code":"PPLA3","country_code":"PA","cc2":"","admin1_code":"07","admin2_code":"","admin3_code":"","admin4_code":"","population":"0","elevation":"","dem":"197","timezone":"America/Panama","modification_date":"2015-07-03"},{"geonameid":"3706313","name":"La Soledad","asciiname":"La Soledad","alternatenames":"La Soledad","latitude":"7.87899","longitude":"-81.27611","feature_class":"P","feature_code":"PPLA3","country_code":"PA","cc2":"","admin1_code":"10","admin2_code":"","admin3_code":"","admin4_code":"","population":"0","elevation":"","dem":"29","timezone":"America/Panama","modification_date":"2015-07-03"},{"geonameid":"3706346","name":"Las Minas","asciiname":"Las Minas","alternatenames":"Las Minas","latitude":"8.64118","longitude":"-80.39432","feature_class":"P","feature_code":"PPLA3","country_code":"PA","cc2":"","admin1_code":"03","admin2_code":"","admin3_code":"","admin4_code":"","population":"0","elevation":"","dem":"209","timezone":"America/Panama","modification_date":"2015-07-03"},{"geonameid":"3706347","name":"Las Minas","asciiname":"Las Minas","alternatenames":"Las Minas","latitude":"7.79581","longitude":"-80.7457","feature_class":"P","feature_code":"PPLA2","country_code":"PA","cc2":"","admin1_code":"06","admin2_code":"","admin3_code":"","admin4_code":"","population":"1076","elevation":"","dem":"337","timezone":"America/Panama","modification_date":"2015-07-03"},{"geonameid":"3706386","name":"Las Marias","asciiname":"Las Marias","alternatenames":"Las Marias","latitude":"8.88809","longitude":"-80.21893","feature_class":"P","feature_code":"PPLA3","country_code":"PA","cc2":"","admin1_code":"03","admin2_code":"","admin3_code":"","admin4_code":"","population":"0","elevation":"","dem":"172","timezone":"America/Panama","modification_date":"2015-07-03"},{"geonameid":"3706396","name":"Las Margaritas","asciiname":"Las Margaritas","alternatenames":"La Margarita,Las Margaritas","latitude":"9.18426","longitude":"-79.0873","feature_class":"P","feature_code":"PPLA3","country_code":"PA","cc2":"","admin1_code":"08","admin2_code":"","admin3_code":"","admin4_code":"","population":"0","elevation":"","dem":"21","timezone":"America/Panama","modification_date":"2015-04-08"},{"geonameid":"3706409","name":"Las Lomas","asciiname":"Las Lomas","alternatenames":"Las Lomas","latitude":"8.50818","longitude":"-80.37381","feature_class":"P","feature_code":"PPL","country_code":"PA","cc2":"","admin1_code":"03","admin2_code":"","admin3_code":"","admin4_code":"","population":"1062","elevation":"","dem":"81","timezone":"America/Panama","modification_date":"2015-07-03"},{"geonameid":"3706410","name":"Las Lomas","asciiname":"Las Lomas","alternatenames":"Las Lomas,Llano del Medio","latitude":"8.42927","longitude":"-82.38743","feature_class":"P","feature_code":"PPLA3","country_code":"PA","cc2":"","admin1_code":"02","admin2_code":"","admin3_code":"","admin4_code":"","population":"11726","elevation":"","dem":"68","timezone":"America/Panama","modification_date":"2015-07-03"},{"geonameid":"3706431","name":"Lajas de Tolé","asciiname":"Lajas de Tole","alternatenames":"Laja de Tole,Lajas de Tole,Lajas de Tolé,Las Lajas de Tole,Las Lajas de Tolé","latitude":"8.16994","longitude":"-81.69654","feature_class":"P","feature_code":"PPLA3","country_code":"PA","cc2":"","admin1_code":"02","admin2_code":"","admin3_code":"","admin4_code":"","population":"0","elevation":"","dem":"340","timezone":"America/Panama","modification_date":"2015-07-03"},{"geonameid":"3706459","name":"Las Lajas","asciiname":"Las Lajas","alternatenames":"Lajas,Las Lajas","latitude":"8.24184","longitude":"-81.86931","feature_class":"P","feature_code":"PPLA2","country_code":"PA","cc2":"","admin1_code":"02","admin2_code":"","admin3_code":"","admin4_code":"","population":"0","elevation":"","dem":"69","timezone":"America/Panama","modification_date":"2015-07-03"},{"geonameid":"3706482","name":"Las Huacas del Quije","asciiname":"Las Huacas del Quije","alternatenames":"Huacas del Quije,Las Huacas,Las Huacas del Quije","latitude":"8.46702","longitude":"-80.75089","feature_class":"P","feature_code":"PPLA3","country_code":"PA","cc2":"","admin1_code":"03","admin2_code":"","admin3_code":"","admin4_code":"","population":"0","elevation":"","dem":"438","timezone":"America/Panama","modification_date":"2015-07-03"},{"geonameid":"3706493","name":"Las Huacas","asciiname":"Las Huacas","alternatenames":"La Huacas,Las Huacas","latitude":"7.90167","longitude":"-81.14056","feature_class":"P","feature_code":"PPLA3","country_code":"PA","cc2":"","admin1_code":"10","admin2_code":"","admin3_code":"","admin4_code":"","population":"0","elevation":"","dem":"32","timezone":"America/Panama","modification_date":"2015-07-03"},{"geonameid":"3706520","name":"Las Guabas","asciiname":"Las Guabas","alternatenames":"Las Guaba,Las Guabas","latitude":"7.90949","longitude":"-80.80706","feature_class":"P","feature_code":"PPLA3","country_code":"PA","cc2":"","admin1_code":"06","admin2_code":"","admin3_code":"","admin4_code":"","population":"0","elevation":"","dem":"168","timezone":"America/Panama","modification_date":"2015-07-03"},{"geonameid":"3706521","name":"Las Guabas","asciiname":"Las Guabas","alternatenames":"Guabas,Las Guabas","latitude":"7.81226","longitude":"-80.49601","feature_class":"P","feature_code":"PPLA3","country_code":"PA","cc2":"","admin1_code":"07","admin2_code":"","admin3_code":"","admin4_code":"","population":"0","elevation":"","dem":"67","timezone":"America/Panama","modification_date":"2015-07-03"},{"geonameid":"3706567","name":"Las Cumbres","asciiname":"Las Cumbres","alternatenames":"Las Cumbres","latitude":"9.08916","longitude":"-79.52809","feature_class":"P","feature_code":"PPLX","country_code":"PA","cc2":"","admin1_code":"08","admin2_code":"","admin3_code":"","admin4_code":"","population":"69102","elevation":"","dem":"87","timezone":"America/Panama","modification_date":"2015-07-03"},{"geonameid":"3706584","name":"Las Cruces","asciiname":"Las Cruces","alternatenames":"Las Cruces","latitude":"7.82285","longitude":"-80.43003","feature_class":"P","feature_code":"PPLA3","country_code":"PA","cc2":"","admin1_code":"07","admin2_code":"","admin3_code":"","admin4_code":"","population":"0","elevation":"","dem":"65","timezone":"America/Panama","modification_date":"2015-07-03"},{"geonameid":"3706590","name":"Las Colinas","asciiname":"Las Colinas","alternatenames":"","latitude":"8.55","longitude":"-80.08333","feature_class":"P","feature_code":"PPL","country_code":"PA","cc2":"","admin1_code":"08","admin2_code":"","admin3_code":"","admin4_code":"","population":"1447","elevation":"","dem":"363","timezone":"America/Panama","modification_date":"2006-01-17"},{"geonameid":"3706614","name":"Las Cabras","asciiname":"Las Cabras","alternatenames":"Las Cabras","latitude":"7.87561","longitude":"-80.54912","feature_class":"P","feature_code":"PPLA3","country_code":"PA","cc2":"","admin1_code":"06","admin2_code":"","admin3_code":"","admin4_code":"","population":"0","elevation":"","dem":"53","timezone":"America/Panama","modification_date":"2015-07-03"},{"geonameid":"3706724","name":"La Raya de Santa María","asciiname":"La Raya de Santa Maria","alternatenames":"La Raya de Santa Maria,La Raya de Santa María,La Victoria Numero Uno,La Victoria Número Uno","latitude":"8.16429","longitude":"-80.82143","feature_class":"P","feature_code":"PPLA3","country_code":"PA","cc2":"","admin1_code":"10","admin2_code":"","admin3_code":"","admin4_code":"","population":"933","elevation":"","dem":"42","timezone":"America/Panama","modification_date":"2015-07-03"},{"geonameid":"3706727","name":"La Raya de Calobre","asciiname":"La Raya de Calobre","alternatenames":"La Raya de Calobre,Raya de Calobre","latitude":"8.2163","longitude":"-80.82729","feature_class":"P","feature_code":"PPLA3","country_code":"PA","cc2":"","admin1_code":"10","admin2_code":"","admin3_code":"","admin4_code":"","population":"0","elevation":"","dem":"53","timezone":"America/Panama","modification_date":"2015-07-03"},{"geonameid":"3706765","name":"La Punta","asciiname":"La Punta","alternatenames":"Gobernadora,La Punta","latitude":"7.55702","longitude":"-81.19109","feature_class":"P","feature_code":"PPLA3","country_code":"PA","cc2":"","admin1_code":"10","admin2_code":"","admin3_code":"","admin4_code":"","population":"0","elevation":"","dem":"4","timezone":"America/Panama","modification_date":"2015-07-03"},{"geonameid":"3706845","name":"Pitaloza Arriba","asciiname":"Pitaloza Arriba","alternatenames":"La Pitaloza Arriba,Pitaloza Arriba","latitude":"7.64216","longitude":"-80.66788","feature_class":"P","feature_code":"PPLA3","country_code":"PA","cc2":"","admin1_code":"06","admin2_code":"","admin3_code":"","admin4_code":"","population":"0","elevation":"","dem":"413","timezone":"America/Panama","modification_date":"2015-07-03"},{"geonameid":"3706931","name":"La Pintada","asciiname":"La Pintada","alternatenames":"La Pintada","latitude":"8.59299","longitude":"-80.44349","feature_class":"P","feature_code":"PPLA2","country_code":"PA","cc2":"","admin1_code":"03","admin2_code":"","admin3_code":"","admin4_code":"","population":"1938","elevation":"","dem":"69","timezone":"America/Panama","modification_date":"2015-07-03"},{"geonameid":"3706974","name":"La Peña","asciiname":"La Pena","alternatenames":"La Pena,La Peña","latitude":"8.12784","longitude":"-81.02693","feature_class":"P","feature_code":"PPLA3","country_code":"PA","cc2":"","admin1_code":"10","admin2_code":"","admin3_code":"","admin4_code":"","population":"2274","elevation":"","dem":"121","timezone":"America/Panama","modification_date":"2015-07-03"},{"geonameid":"3707006","name":"La Pasera","asciiname":"La Pasera","alternatenames":"La Pasera,Llano del Hato","latitude":"7.79757","longitude":"-80.30342","feature_class":"P","feature_code":"PPLA3","country_code":"PA","cc2":"","admin1_code":"07","admin2_code":"","admin3_code":"","admin4_code":"","population":"0","elevation":"","dem":"36","timezone":"America/Panama","modification_date":"2015-07-03"},{"geonameid":"3707058","name":"La Palma","asciiname":"La Palma","alternatenames":"La Palma,PLP","latitude":"8.40608","longitude":"-78.13964","feature_class":"P","feature_code":"PPLA","country_code":"PA","cc2":"","admin1_code":"05","admin2_code":"","admin3_code":"","admin4_code":"","population":"1845","elevation":"","dem":"52","timezone":"America/Panama","modification_date":"2015-04-08"},{"geonameid":"3707063","name":"La Palma","asciiname":"La Palma","alternatenames":"","latitude":"7.71667","longitude":"-80.38333","feature_class":"P","feature_code":"PPL","country_code":"PA","cc2":"","admin1_code":"07","admin2_code":"","admin3_code":"","admin4_code":"","population":"1283","elevation":"","dem":"193","timezone":"America/Panama","modification_date":"2006-01-17"},{"geonameid":"3707064","name":"La Palma","asciiname":"La Palma","alternatenames":"La Palma","latitude":"7.68864","longitude":"-80.19647","feature_class":"P","feature_code":"PPLA3","country_code":"PA","cc2":"","admin1_code":"07","admin2_code":"","admin3_code":"","admin4_code":"","population":"0","elevation":"","dem":"38","timezone":"America/Panama","modification_date":"2015-07-03"},{"geonameid":"3707150","name":"La Mitra","asciiname":"La Mitra","alternatenames":"La Mitra","latitude":"8.84222","longitude":"-79.78667","feature_class":"P","feature_code":"PPL","country_code":"PA","cc2":"","admin1_code":"08","admin2_code":"","admin3_code":"","admin4_code":"","population":"4778","elevation":"","dem":"92","timezone":"America/Panama","modification_date":"2012-01-19"},{"geonameid":"3707198","name":"La Miel","asciiname":"La Miel","alternatenames":"La Miel","latitude":"7.55607","longitude":"-80.33234","feature_class":"P","feature_code":"PPLA3","country_code":"PA","cc2":"","admin1_code":"07","admin2_code":"","admin3_code":"","admin4_code":"","population":"0","elevation":"","dem":"242","timezone":"America/Panama","modification_date":"2015-07-03"},{"geonameid":"3707220","name":"La Mesa","asciiname":"La Mesa","alternatenames":"La Mesa","latitude":"9.17308","longitude":"-79.27401","feature_class":"P","feature_code":"PPLA3","country_code":"PA","cc2":"","admin1_code":"08","admin2_code":"","admin3_code":"","admin4_code":"","population":"1127","elevation":"","dem":"112","timezone":"America/Panama","modification_date":"2015-04-08"},{"geonameid":"3707227","name":"La Mesa","asciiname":"La Mesa","alternatenames":"La Mesa,Las Mesa","latitude":"8.14707","longitude":"-81.18114","feature_class":"P","feature_code":"PPLA2","country_code":"PA","cc2":"","admin1_code":"10","admin2_code":"","admin3_code":"","admin4_code":"","population":"2228","elevation":"","dem":"206","timezone":"America/Panama","modification_date":"2015-07-03"},{"geonameid":"3707228","name":"La Mesa","asciiname":"La Mesa","alternatenames":"La Mesa","latitude":"7.6567","longitude":"-80.61794","feature_class":"P","feature_code":"PPLA3","country_code":"PA","cc2":"","admin1_code":"07","admin2_code":"","admin3_code":"","admin4_code":"","population":"0","elevation":"","dem":"171","timezone":"America/Panama","modification_date":"2015-07-03"},{"geonameid":"3707311","name":"La Loma","asciiname":"La Loma","alternatenames":"La Loma","latitude":"8.16667","longitude":"-80.63742","feature_class":"P","feature_code":"PPL","country_code":"PA","cc2":"","admin1_code":"03","admin2_code":"","admin3_code":"","admin4_code":"","population":"1654","elevation":"","dem":"20","timezone":"America/Panama","modification_date":"2015-07-03"},{"geonameid":"3707318","name":"La Loma","asciiname":"La Loma","alternatenames":"La Loma","latitude":"7.43708","longitude":"-80.89118","feature_class":"P","feature_code":"PPLA3","country_code":"PA","cc2":"","admin1_code":"10","admin2_code":"","admin3_code":"","admin4_code":"","population":"0","elevation":"","dem":"6","timezone":"America/Panama","modification_date":"2015-07-03"},{"geonameid":"3707380","name":"La Laja","asciiname":"La Laja","alternatenames":"La Laja","latitude":"7.73102","longitude":"-80.25298","feature_class":"P","feature_code":"PPLA3","country_code":"PA","cc2":"","admin1_code":"07","admin2_code":"","admin3_code":"","admin4_code":"","population":"0","elevation":"","dem":"65","timezone":"America/Panama","modification_date":"2015-07-03"},{"geonameid":"3707398","name":"La Laguna","asciiname":"La Laguna","alternatenames":"La Laguna","latitude":"8.33882","longitude":"-80.72949","feature_class":"P","feature_code":"PPLA3","country_code":"PA","cc2":"","admin1_code":"10","admin2_code":"","admin3_code":"","admin4_code":"","population":"0","elevation":"","dem":"142","timezone":"America/Panama","modification_date":"2015-07-03"},{"geonameid":"3707461","name":"Lajas Adentro","asciiname":"Lajas Adentro","alternatenames":"Lajas Adentro,Las Adentro","latitude":"8.24981","longitude":"-81.87779","feature_class":"P","feature_code":"PPLA3","country_code":"PA","cc2":"","admin1_code":"02","admin2_code":"","admin3_code":"","admin4_code":"","population":"0","elevation":"","dem":"60","timezone":"America/Panama","modification_date":"2015-07-03"},{"geonameid":"3707467","name":"Lajamina","asciiname":"Lajamina","alternatenames":"Lajamina","latitude":"7.58587","longitude":"-80.13212","feature_class":"P","feature_code":"PPLA3","country_code":"PA","cc2":"","admin1_code":"07","admin2_code":"","admin3_code":"","admin4_code":"","population":"0","elevation":"","dem":"51","timezone":"America/Panama","modification_date":"2015-07-03"},{"geonameid":"3707568","name":"La Herradura","asciiname":"La Herradura","alternatenames":"","latitude":"8.85222","longitude":"-79.80722","feature_class":"P","feature_code":"PPL","country_code":"PA","cc2":"","admin1_code":"08","admin2_code":"","admin3_code":"","admin4_code":"","population":"3347","elevation":"","dem":"77","timezone":"America/Panama","modification_date":"2006-01-17"},{"geonameid":"3707590","name":"La Guinea","asciiname":"La Guinea","alternatenames":"Guinea,La Guinea","latitude":"8.3425","longitude":"-78.9343","feature_class":"P","feature_code":"PPLA3","country_code":"PA","cc2":"","admin1_code":"08","admin2_code":"","admin3_code":"","admin4_code":"","population":"0","elevation":"","dem":"15","timezone":"America/Panama","modification_date":"2015-04-08"},{"geonameid":"3707659","name":"Lagarterita","asciiname":"Lagarterita","alternatenames":"Amador,Lagarterita,Lagarterito","latitude":"9.07944","longitude":"-79.91389","feature_class":"P","feature_code":"PPLA3","country_code":"PA","cc2":"","admin1_code":"08","admin2_code":"0850","admin3_code":"","admin4_code":"","population":"0","elevation":"","dem":"38","timezone":"America/Panama","modification_date":"2014-11-29"},{"geonameid":"3707674","name":"La Garceana","asciiname":"La Garceana","alternatenames":"La Garceana","latitude":"7.93708","longitude":"-81.01643","feature_class":"P","feature_code":"PPLA3","country_code":"PA","cc2":"","admin1_code":"10","admin2_code":"","admin3_code":"","admin4_code":"","population":"0","elevation":"","dem":"58","timezone":"America/Panama","modification_date":"2015-07-03"},{"geonameid":"3707736","name":"La Estrella","asciiname":"La Estrella","alternatenames":"La Estrella","latitude":"8.51572","longitude":"-82.67212","feature_class":"P","feature_code":"PPLA3","country_code":"PA","cc2":"","admin1_code":"02","admin2_code":"","admin3_code":"","admin4_code":"","population":"945","elevation":"","dem":"235","timezone":"America/Panama","modification_date":"2015-07-03"},{"geonameid":"3707752","name":"La Espigadilla","asciiname":"La Espigadilla","alternatenames":"La Espigadilla","latitude":"7.88389","longitude":"-80.39039","feature_class":"P","feature_code":"PPLA3","country_code":"PA","cc2":"","admin1_code":"07","admin2_code":"","admin3_code":"","admin4_code":"","population":"1317","elevation":"","dem":"48","timezone":"America/Panama","modification_date":"2015-07-03"},{"geonameid":"3707758","name":"La Esperanza","asciiname":"La Esperanza","alternatenames":"La Esperanza","latitude":"8.40344","longitude":"-82.79197","feature_class":"P","feature_code":"PPLA3","country_code":"PA","cc2":"","admin1_code":"02","admin2_code":"","admin3_code":"","admin4_code":"","population":"1952","elevation":"","dem":"21","timezone":"America/Panama","modification_date":"2015-07-03"},{"geonameid":"3707762","name":"La Esmeralda","asciiname":"La Esmeralda","alternatenames":"Esmeralda,Hafafa,La Esmeralda,Mafafa","latitude":"8.26451","longitude":"-78.92801","feature_class":"P","feature_code":"PPLA3","country_code":"PA","cc2":"","admin1_code":"08","admin2_code":"","admin3_code":"","admin4_code":"","population":"0","elevation":"","dem":"17","timezone":"America/Panama","modification_date":"2015-04-08"},{"geonameid":"3707778","name":"La Ensenada","asciiname":"La Ensenada","alternatenames":"La Ensenada","latitude":"8.36227","longitude":"-78.84938","feature_class":"P","feature_code":"PPLA3","country_code":"PA","cc2":"","admin1_code":"08","admin2_code":"","admin3_code":"","admin4_code":"","population":"0","elevation":"","dem":"73","timezone":"America/Panama","modification_date":"2015-04-08"},{"geonameid":"3707784","name":"La Enea","asciiname":"La Enea","alternatenames":"La Enea","latitude":"7.83333","longitude":"-80.27417","feature_class":"P","feature_code":"PPLA3","country_code":"PA","cc2":"","admin1_code":"07","admin2_code":"","admin3_code":"","admin4_code":"","population":"0","elevation":"","dem":"35","timezone":"America/Panama","modification_date":"2015-07-03"},{"geonameid":"3707794","name":"La Encantada","asciiname":"La Encantada","alternatenames":"Alcarreto,La Encantada","latitude":"9.08703","longitude":"-80.19158","feature_class":"P","feature_code":"PPLA3","country_code":"PA","cc2":"","admin1_code":"04","admin2_code":"","admin3_code":"","admin4_code":"","population":"0","elevation":"","dem":"6","timezone":"America/Panama","modification_date":"2015-06-08"},{"geonameid":"3707899","name":"La Concepción","asciiname":"La Concepcion","alternatenames":"Concepcion,Concepción,La Concepcion,La Concepción","latitude":"8.51212","longitude":"-82.61858","feature_class":"P","feature_code":"PPLA2","country_code":"PA","cc2":"","admin1_code":"02","admin2_code":"","admin3_code":"","admin4_code":"","population":"16910","elevation":"","dem":"214","timezone":"America/Panama","modification_date":"2015-07-03"},{"geonameid":"3707921","name":"La Colorada","asciiname":"La Colorada","alternatenames":"La Colorada","latitude":"8.01319","longitude":"-80.9859","feature_class":"P","feature_code":"PPLA3","country_code":"PA","cc2":"","admin1_code":"10","admin2_code":"","admin3_code":"","admin4_code":"","population":"1246","elevation":"","dem":"103","timezone":"America/Panama","modification_date":"2015-07-03"},{"geonameid":"3707924","name":"La Colorada","asciiname":"La Colorada","alternatenames":"La Colorada","latitude":"7.82362","longitude":"-80.55552","feature_class":"P","feature_code":"PPLA3","country_code":"PA","cc2":"","admin1_code":"07","admin2_code":"","admin3_code":"","admin4_code":"","population":"0","elevation":"","dem":"57","timezone":"America/Panama","modification_date":"2015-07-03"},{"geonameid":"3707961","name":"La Chorrera","asciiname":"La Chorrera","alternatenames":"Chorrera,La Chorrera","latitude":"8.88028","longitude":"-79.78333","feature_class":"P","feature_code":"PPL","country_code":"PA","cc2":"","admin1_code":"08","admin2_code":"","admin3_code":"","admin4_code":"","population":"61232","elevation":"","dem":"81","timezone":"America/Panama","modification_date":"2012-01-19"},{"geonameid":"3707999","name":"La Carrillo","asciiname":"La Carrillo","alternatenames":"La Carrillo,Los Carrillos","latitude":"7.96953","longitude":"-80.88377","feature_class":"P","feature_code":"PPLA3","country_code":"PA","cc2":"","admin1_code":"10","admin2_code":"","admin3_code":"","admin4_code":"","population":"0","elevation":"","dem":"174","timezone":"America/Panama","modification_date":"2015-07-03"},{"geonameid":"3708062","name":"Cabuya","asciiname":"Cabuya","alternatenames":"Cabuya,La Cabuya","latitude":"7.98267","longitude":"-80.76435","feature_class":"P","feature_code":"PPLA3","country_code":"PA","cc2":"","admin1_code":"06","admin2_code":"","admin3_code":"","admin4_code":"","population":"0","elevation":"","dem":"94","timezone":"America/Panama","modification_date":"2015-07-03"},{"geonameid":"3708066","name":"La Cabima","asciiname":"La Cabima","alternatenames":"La Cabima,La Cabina","latitude":"9.11865","longitude":"-79.5366","feature_class":"P","feature_code":"PPLX","country_code":"PA","cc2":"","admin1_code":"08","admin2_code":"","admin3_code":"","admin4_code":"","population":"17544","elevation":"","dem":"156","timezone":"America/Panama","modification_date":"2015-07-03"},{"geonameid":"3708107","name":"Boca del Guásimo","asciiname":"Boca del Guasimo","alternatenames":"Boca del Guasimo,Boca del Guásimo,La Boca del Guasimo,La Boca del Guásimo","latitude":"9.05053","longitude":"-80.32878","feature_class":"P","feature_code":"PPLA3","country_code":"PA","cc2":"","admin1_code":"04","admin2_code":"","admin3_code":"","admin4_code":"","population":"0","elevation":"","dem":"96","timezone":"America/Panama","modification_date":"2015-06-08"},{"geonameid":"3708171","name":"La Arena","asciiname":"La Arena","alternatenames":"La Arena","latitude":"7.96766","longitude":"-80.46523","feature_class":"P","feature_code":"PPLA3","country_code":"PA","cc2":"","admin1_code":"06","admin2_code":"","admin3_code":"","admin4_code":"","population":"0","elevation":"","dem":"40","timezone":"America/Panama","modification_date":"2015-07-03"},{"geonameid":"3708175","name":"La Arena","asciiname":"La Arena","alternatenames":"La Arena","latitude":"7.75033","longitude":"-80.59283","feature_class":"P","feature_code":"PPLA3","country_code":"PA","cc2":"","admin1_code":"06","admin2_code":"","admin3_code":"","admin4_code":"","population":"0","elevation":"","dem":"105","timezone":"America/Panama","modification_date":"2015-07-03"},{"geonameid":"3708267","name":"Juay","asciiname":"Juay","alternatenames":"Juay,Las Mareas","latitude":"8.28415","longitude":"-81.94633","feature_class":"P","feature_code":"PPLA3","country_code":"PA","cc2":"","admin1_code":"02","admin2_code":"","admin3_code":"","admin4_code":"","population":"0","elevation":"","dem":"8","timezone":"America/Panama","modification_date":"2015-07-03"},{"geonameid":"3708307","name":"Juan Díaz","asciiname":"Juan Diaz","alternatenames":"Juan Diaz,Juan Díaz","latitude":"8.4624","longitude":"-80.2828","feature_class":"P","feature_code":"PPLA3","country_code":"PA","cc2":"","admin1_code":"03","admin2_code":"","admin3_code":"","admin4_code":"","population":"1348","elevation":"","dem":"63","timezone":"America/Panama","modification_date":"2015-07-03"},{"geonameid":"3708425","name":"Jaramillo Arriba","asciiname":"Jaramillo Arriba","alternatenames":"Jaramillo Arriba","latitude":"8.79771","longitude":"-82.42431","feature_class":"P","feature_code":"PPLA3","country_code":"PA","cc2":"","admin1_code":"02","admin2_code":"","admin3_code":"","admin4_code":"","population":"0","elevation":"","dem":"1276","timezone":"America/Panama","modification_date":"2015-07-03"},{"geonameid":"3708432","name":"Jaqué","asciiname":"Jaque","alternatenames":"JQE,Jague,Jagué,Jaque,Jaqué,Jarque","latitude":"7.51826","longitude":"-78.16343","feature_class":"P","feature_code":"PPL","country_code":"PA","cc2":"","admin1_code":"05","admin2_code":"","admin3_code":"","admin4_code":"","population":"1357","elevation":"","dem":"11","timezone":"America/Panama","modification_date":"2013-05-11"},{"geonameid":"3708616","name":"Horconcitos","asciiname":"Horconcitos","alternatenames":"Horconcitos,Horoncitos","latitude":"8.31142","longitude":"-82.15102","feature_class":"P","feature_code":"PPLA2","country_code":"PA","cc2":"","admin1_code":"02","admin2_code":"","admin3_code":"","admin4_code":"","population":"877","elevation":"","dem":"35","timezone":"America/Panama","modification_date":"2015-07-03"},{"geonameid":"3708728","name":"Hato Pilón","asciiname":"Hato Pilon","alternatenames":"Hato Pilon,Hato Pilón","latitude":"8.39813","longitude":"-81.86525","feature_class":"P","feature_code":"PPLA2","country_code":"PA","cc2":"","admin1_code":"12","admin2_code":"","admin3_code":"","admin4_code":"","population":"0","elevation":"","dem":"589","timezone":"America/Panama","modification_date":"2015-07-03"},{"geonameid":"3708735","name":"Hato Juli","asciiname":"Hato Juli","alternatenames":"Hato Juli,Los Juli,Los Julí","latitude":"8.34981","longitude":"-81.84503","feature_class":"P","feature_code":"PPLA3","country_code":"PA","cc2":"","admin1_code":"12","admin2_code":"","admin3_code":"","admin4_code":"","population":"0","elevation":"","dem":"372","timezone":"America/Panama","modification_date":"2015-07-03"},{"geonameid":"3708737","name":"Hato Jobo","asciiname":"Hato Jobo","alternatenames":"Hato Jobo","latitude":"8.39198","longitude":"-81.8862","feature_class":"P","feature_code":"PPLA3","country_code":"PA","cc2":"","admin1_code":"12","admin2_code":"","admin3_code":"","admin4_code":"","population":"0","elevation":"","dem":"463","timezone":"America/Panama","modification_date":"2015-07-03"},{"geonameid":"3708742","name":"Hato Culantro","asciiname":"Hato Culantro","alternatenames":"Hato Culantro","latitude":"8.46847","longitude":"-81.85714","feature_class":"P","feature_code":"PPLA3","country_code":"PA","cc2":"","admin1_code":"12","admin2_code":"","admin3_code":"","admin4_code":"","population":"0","elevation":"","dem":"734","timezone":"America/Panama","modification_date":"2015-07-03"},{"geonameid":"3708745","name":"Hato Corotú","asciiname":"Hato Corotu","alternatenames":"Hato Corotu,Hato Corotú","latitude":"8.32327","longitude":"-81.97278","feature_class":"P","feature_code":"PPLA3","country_code":"PA","cc2":"","admin1_code":"12","admin2_code":"","admin3_code":"","admin4_code":"","population":"0","elevation":"","dem":"94","timezone":"America/Panama","modification_date":"2015-07-03"},{"geonameid":"3708747","name":"Hato Chami","asciiname":"Hato Chami","alternatenames":"Hato Chame,Hato Chami","latitude":"8.44281","longitude":"-81.77196","feature_class":"P","feature_code":"PPLA2","country_code":"PA","cc2":"","admin1_code":"12","admin2_code":"","admin3_code":"","admin4_code":"","population":"0","elevation":"","dem":"954","timezone":"America/Panama","modification_date":"2015-07-03"},{"geonameid":"3708772","name":"Guzman","asciiname":"Guzman","alternatenames":"Guzman","latitude":"8.51969","longitude":"-80.58405","feature_class":"P","feature_code":"PPLA3","country_code":"PA","cc2":"","admin1_code":"03","admin2_code":"","admin3_code":"","admin4_code":"","population":"0","elevation":"","dem":"138","timezone":"America/Panama","modification_date":"2015-07-03"},{"geonameid":"3708796","name":"Las Guías Abajo","asciiname":"Las Guias Abajo","alternatenames":"Guias Abajo,Guías Abajo,Las Guias Abajo,Las Guías Abajo","latitude":"8.19451","longitude":"-80.75494","feature_class":"P","feature_code":"PPLA3","country_code":"PA","cc2":"","admin1_code":"10","admin2_code":"","admin3_code":"","admin4_code":"","population":"0","elevation":"","dem":"34","timezone":"America/Panama","modification_date":"2015-07-03"},{"geonameid":"3708853","name":"Guayabal","asciiname":"Guayabal","alternatenames":"Guayabal","latitude":"8.62193","longitude":"-82.57935","feature_class":"P","feature_code":"PPLA3","country_code":"PA","cc2":"","admin1_code":"02","admin2_code":"","admin3_code":"","admin4_code":"","population":"0","elevation":"","dem":"619","timezone":"America/Panama","modification_date":"2015-07-03"},{"geonameid":"3708892","name":"Guarumal","asciiname":"Guarumal","alternatenames":"Guarumal","latitude":"8.34523","longitude":"-82.53205","feature_class":"P","feature_code":"PPLA3","country_code":"PA","cc2":"","admin1_code":"02","admin2_code":"","admin3_code":"","admin4_code":"","population":"1526","elevation":"","dem":"9","timezone":"America/Panama","modification_date":"2015-07-03"},{"geonameid":"3708894","name":"Guarumal","asciiname":"Guarumal","alternatenames":"Guarumal","latitude":"7.79404","longitude":"-81.25904","feature_class":"P","feature_code":"PPLA3","country_code":"PA","cc2":"","admin1_code":"10","admin2_code":"","admin3_code":"","admin4_code":"","population":"0","elevation":"","dem":"37","timezone":"America/Panama","modification_date":"2015-07-03"},{"geonameid":"3708904","name":"Guararé Arriba","asciiname":"Guarare Arriba","alternatenames":"Guarare Arriba,Guararé Arriba","latitude":"7.80023","longitude":"-80.35983","feature_class":"P","feature_code":"PPLA3","country_code":"PA","cc2":"","admin1_code":"07","admin2_code":"","admin3_code":"","admin4_code":"","population":"0","elevation":"","dem":"35","timezone":"America/Panama","modification_date":"2015-07-03"},{"geonameid":"3708911","name":"Guararé","asciiname":"Guarare","alternatenames":"Guarare,Guararé","latitude":"7.81531","longitude":"-80.28345","feature_class":"P","feature_code":"PPLA2","country_code":"PA","cc2":"","admin1_code":"07","admin2_code":"","admin3_code":"","admin4_code":"","population":"2104","elevation":"","dem":"29","timezone":"America/Panama","modification_date":"2015-07-03"},{"geonameid":"3708948","name":"Gualaca","asciiname":"Gualaca","alternatenames":"Gualaca","latitude":"8.53006","longitude":"-82.29959","feature_class":"P","feature_code":"PPLA2","country_code":"PA","cc2":"","admin1_code":"02","admin2_code":"","admin3_code":"","admin4_code":"","population":"2753","elevation":"","dem":"121","timezone":"America/Panama","modification_date":"2015-07-03"},{"geonameid":"3708954","name":"Guadalupe","asciiname":"Guadalupe","alternatenames":"Guadalupe,La Laguna","latitude":"8.85583","longitude":"-79.81333","feature_class":"P","feature_code":"PPL","country_code":"PA","cc2":"","admin1_code":"08","admin2_code":"","admin3_code":"","admin4_code":"","population":"8408","elevation":"","dem":"90","timezone":"America/Panama","modification_date":"2012-01-19"},{"geonameid":"3708974","name":"Guaca Arriba","asciiname":"Guaca Arriba","alternatenames":"Guaca Arriba","latitude":"8.53733","longitude":"-82.49281","feature_class":"P","feature_code":"PPLA3","country_code":"PA","cc2":"","admin1_code":"02","admin2_code":"","admin3_code":"","admin4_code":"","population":"0","elevation":"","dem":"269","timezone":"America/Panama","modification_date":"2015-07-03"},{"geonameid":"3708989","name":"Guabito","asciiname":"Guabito","alternatenames":"Guabito","latitude":"9.48968","longitude":"-82.61279","feature_class":"P","feature_code":"PPLA3","country_code":"PA","cc2":"","admin1_code":"01","admin2_code":"","admin3_code":"","admin4_code":"","population":"5988","elevation":"","dem":"6","timezone":"America/Panama","modification_date":"2015-07-03"},{"geonameid":"3709011","name":"Guabal","asciiname":"Guabal","alternatenames":"Guabal","latitude":"8.57466","longitude":"-82.5373","feature_class":"P","feature_code":"PPLA3","country_code":"PA","cc2":"","admin1_code":"02","admin2_code":"","admin3_code":"","admin4_code":"","population":"0","elevation":"","dem":"444","timezone":"America/Panama","modification_date":"2015-07-03"},{"geonameid":"3709218","name":"Gonzalo Vásquez","asciiname":"Gonzalo Vasquez","alternatenames":"Gonzalo Vasquez,Gonzalo Vásquez","latitude":"8.41466","longitude":"-78.45612","feature_class":"P","feature_code":"PPLA3","country_code":"PA","cc2":"","admin1_code":"08","admin2_code":"","admin3_code":"","admin4_code":"","population":"0","elevation":"","dem":"-9999","timezone":"America/Panama","modification_date":"2015-04-08"},{"geonameid":"3709228","name":"Gómez","asciiname":"Gomez","alternatenames":"Gomez,Gomez Arriba,Gómez,Gómez Arriba","latitude":"8.56085","longitude":"-82.74142","feature_class":"P","feature_code":"PPLA3","country_code":"PA","cc2":"","admin1_code":"02","admin2_code":"","admin3_code":"","admin4_code":"","population":"1186","elevation":"","dem":"342","timezone":"America/Panama","modification_date":"2015-07-03"},{"geonameid":"3709242","name":"Gobea","asciiname":"Gobea","alternatenames":"Gobea,Guabilla","latitude":"9.15914","longitude":"-80.25064","feature_class":"P","feature_code":"PPLA3","country_code":"PA","cc2":"","admin1_code":"04","admin2_code":"","admin3_code":"","admin4_code":"","population":"0","elevation":"","dem":"42","timezone":"America/Panama","modification_date":"2015-06-08"},{"geonameid":"3709296","name":"Gatú","asciiname":"Gatu","alternatenames":"Gatu,Gatuncillo,Gatuncito,Gatú","latitude":"8.53754","longitude":"-80.95109","feature_class":"P","feature_code":"PPLA3","country_code":"PA","cc2":"","admin1_code":"10","admin2_code":"","admin3_code":"","admin4_code":"","population":"0","elevation":"","dem":"667","timezone":"America/Panama","modification_date":"2015-07-03"},{"geonameid":"3709361","name":"Garachiné","asciiname":"Garachine","alternatenames":"GHE,Garachine,Garachiné","latitude":"8.06684","longitude":"-78.36436","feature_class":"P","feature_code":"PPL","country_code":"PA","cc2":"","admin1_code":"05","admin2_code":"","admin3_code":"","admin4_code":"","population":"1350","elevation":"","dem":"9","timezone":"America/Panama","modification_date":"2013-12-07"},{"geonameid":"3709509","name":"Flores","asciiname":"Flores","alternatenames":"Flores","latitude":"7.48157","longitude":"-80.40695","feature_class":"P","feature_code":"PPLA3","country_code":"PA","cc2":"","admin1_code":"07","admin2_code":"","admin3_code":"","admin4_code":"","population":"0","elevation":"","dem":"29","timezone":"America/Panama","modification_date":"2015-07-03"},{"geonameid":"3709561","name":"Finca Corredor","asciiname":"Finca Corredor","alternatenames":"Corredor,Finca Corredor","latitude":"8.3427","longitude":"-82.87364","feature_class":"P","feature_code":"PPL","country_code":"PA","cc2":"","admin1_code":"02","admin2_code":"","admin3_code":"","admin4_code":"","population":"1372","elevation":"","dem":"31","timezone":"America/Panama","modification_date":"2015-07-03"},{"geonameid":"3709569","name":"Finca Blanco","asciiname":"Finca Blanco","alternatenames":"Blanco,Finca Blanco,Finca Blanco Numero Uno,Finca Blanco Número Uno","latitude":"8.37979","longitude":"-82.87385","feature_class":"P","feature_code":"PPLA3","country_code":"PA","cc2":"","admin1_code":"02","admin2_code":"","admin3_code":"","admin4_code":"","population":"1618","elevation":"","dem":"24","timezone":"America/Panama","modification_date":"2015-07-03"},{"geonameid":"3709742","name":"Escobal","asciiname":"Escobal","alternatenames":"Escobal","latitude":"9.14373","longitude":"-79.96439","feature_class":"P","feature_code":"PPLA3","country_code":"PA","cc2":"","admin1_code":"04","admin2_code":"","admin3_code":"","admin4_code":"","population":"1790","elevation":"","dem":"48","timezone":"America/Panama","modification_date":"2015-04-08"},{"geonameid":"3709853","name":"El Toro","asciiname":"El Toro","alternatenames":"El Toro","latitude":"7.7511","longitude":"-80.86943","feature_class":"P","feature_code":"PPLA3","country_code":"PA","cc2":"","admin1_code":"06","admin2_code":"","admin3_code":"","admin4_code":"","population":"0","elevation":"","dem":"399","timezone":"America/Panama","modification_date":"2015-07-03"},{"geonameid":"3709902","name":"El Tejar","asciiname":"El Tejar","alternatenames":"El Tejar","latitude":"8.42973","longitude":"-82.57294","feature_class":"P","feature_code":"PPLA3","country_code":"PA","cc2":"","admin1_code":"02","admin2_code":"","admin3_code":"","admin4_code":"","population":"0","elevation":"","dem":"55","timezone":"America/Panama","modification_date":"2015-07-03"},{"geonameid":"3709945","name":"Sesteadero","asciiname":"Sesteadero","alternatenames":"El Sesteadero,Sesteadero","latitude":"7.73885","longitude":"-80.24854","feature_class":"P","feature_code":"PPLA3","country_code":"PA","cc2":"","admin1_code":"07","admin2_code":"","admin3_code":"","admin4_code":"","population":"0","elevation":"","dem":"47","timezone":"America/Panama","modification_date":"2015-07-03"},{"geonameid":"3710026","name":"El Roble","asciiname":"El Roble","alternatenames":"El Roble","latitude":"8.1685","longitude":"-80.65897","feature_class":"P","feature_code":"PPLA3","country_code":"PA","cc2":"","admin1_code":"03","admin2_code":"","admin3_code":"","admin4_code":"","population":"1610","elevation":"","dem":"33","timezone":"America/Panama","modification_date":"2015-07-03"},{"geonameid":"3710038","name":"El Rincón","asciiname":"El Rincon","alternatenames":"El Rincon,El Rincón","latitude":"8.18422","longitude":"-81.43333","feature_class":"P","feature_code":"PPLA3","country_code":"PA","cc2":"","admin1_code":"10","admin2_code":"","admin3_code":"","admin4_code":"","population":"0","elevation":"","dem":"225","timezone":"America/Panama","modification_date":"2015-07-03"},{"geonameid":"3710040","name":"El Rincón","asciiname":"El Rincon","alternatenames":"El Rincon,El Rincón","latitude":"8.11923","longitude":"-80.61707","feature_class":"P","feature_code":"PPLA3","country_code":"PA","cc2":"","admin1_code":"06","admin2_code":"","admin3_code":"","admin4_code":"","population":"1364","elevation":"","dem":"12","timezone":"America/Panama","modification_date":"2015-07-03"},{"geonameid":"3710045","name":"El Retiro","asciiname":"El Retiro","alternatenames":"El Retiro","latitude":"8.48014","longitude":"-80.15426","feature_class":"P","feature_code":"PPLA3","country_code":"PA","cc2":"","admin1_code":"03","admin2_code":"","admin3_code":"","admin4_code":"","population":"0","elevation":"","dem":"163","timezone":"America/Panama","modification_date":"2015-07-03"},{"geonameid":"3710066","name":"Quinteño","asciiname":"Quinteno","alternatenames":"El Quiteno,El Quiteño,Quinteno,Quinteño,Quiteno","latitude":"8.47102","longitude":"-82.39352","feature_class":"P","feature_code":"PPL","country_code":"PA","cc2":"","admin1_code":"02","admin2_code":"","admin3_code":"","admin4_code":"","population":"1146","elevation":"","dem":"104","timezone":"America/Panama","modification_date":"2015-07-03"},{"geonameid":"3710087","name":"El Progreso","asciiname":"El Progreso","alternatenames":"","latitude":"9.26667","longitude":"-79.11667","feature_class":"P","feature_code":"PPL","country_code":"PA","cc2":"","admin1_code":"08","admin2_code":"","admin3_code":"","admin4_code":"","population":"4292","elevation":"","dem":"144","timezone":"America/Panama","modification_date":"2006-01-17"},{"geonameid":"3710089","name":"El Prado","asciiname":"El Prado","alternatenames":"El Prado","latitude":"8.23732","longitude":"-81.50422","feature_class":"P","feature_code":"PPLA3","country_code":"PA","cc2":"","admin1_code":"10","admin2_code":"","admin3_code":"","admin4_code":"","population":"0","elevation":"","dem":"350","timezone":"America/Panama","modification_date":"2015-07-03"},{"geonameid":"3710107","name":"El Potrero","asciiname":"El Potrero","alternatenames":"El Potrero","latitude":"8.52146","longitude":"-80.51681","feature_class":"P","feature_code":"PPLA3","country_code":"PA","cc2":"","admin1_code":"03","admin2_code":"","admin3_code":"","admin4_code":"","population":"0","elevation":"","dem":"69","timezone":"America/Panama","modification_date":"2015-07-03"},{"geonameid":"3710108","name":"El Potrero","asciiname":"El Potrero","alternatenames":"El Potrero","latitude":"8.37692","longitude":"-80.79434","feature_class":"P","feature_code":"PPLA3","country_code":"PA","cc2":"","admin1_code":"10","admin2_code":"","admin3_code":"","admin4_code":"","population":"0","elevation":"","dem":"181","timezone":"America/Panama","modification_date":"2015-07-03"},{"geonameid":"3710114","name":"El Porvenir","asciiname":"El Porvenir","alternatenames":"El Porvenir,PVE","latitude":"9.55276","longitude":"-78.9523","feature_class":"P","feature_code":"PPLA","country_code":"PA","cc2":"","admin1_code":"09","admin2_code":"3714955","admin3_code":"","admin4_code":"","population":"10","elevation":"","dem":"-9999","timezone":"America/Panama","modification_date":"2013-11-17"},{"geonameid":"3710152","name":"El Piro","asciiname":"El Piro","alternatenames":"El Piro,El Piro Numero Uno,El Piro Número Uno","latitude":"8.20942","longitude":"-81.52706","feature_class":"P","feature_code":"PPLA3","country_code":"PA","cc2":"","admin1_code":"10","admin2_code":"","admin3_code":"","admin4_code":"","population":"0","elevation":"","dem":"237","timezone":"America/Panama","modification_date":"2015-07-03"},{"geonameid":"3710171","name":"El Pilón","asciiname":"El Pilon","alternatenames":"El Pilon,El Pilón,Pilon,Pilón","latitude":"7.95413","longitude":"-81.07637","feature_class":"P","feature_code":"PPLA3","country_code":"PA","cc2":"","admin1_code":"10","admin2_code":"","admin3_code":"","admin4_code":"","population":"0","elevation":"","dem":"42","timezone":"America/Panama","modification_date":"2015-07-03"},{"geonameid":"3710177","name":"El Picador","asciiname":"El Picador","alternatenames":"El Picador","latitude":"8.37803","longitude":"-81.25621","feature_class":"P","feature_code":"PPLA3","country_code":"PA","cc2":"","admin1_code":"10","admin2_code":"","admin3_code":"","admin4_code":"","population":"0","elevation":"","dem":"467","timezone":"America/Panama","modification_date":"2015-07-03"},{"geonameid":"3710211","name":"El Peñón","asciiname":"El Penon","alternatenames":"El Penon,El Peñón","latitude":"8.35","longitude":"-80.9762","feature_class":"P","feature_code":"PPLA3","country_code":"PA","cc2":"","admin1_code":"10","admin2_code":"","admin3_code":"","admin4_code":"","population":"0","elevation":"","dem":"178","timezone":"America/Panama","modification_date":"2015-07-03"},{"geonameid":"3710225","name":"El Pedregoso","asciiname":"El Pedregoso","alternatenames":"El Pedregoso,Pedregoso","latitude":"7.93642","longitude":"-80.63807","feature_class":"P","feature_code":"PPLA3","country_code":"PA","cc2":"","admin1_code":"06","admin2_code":"","admin3_code":"","admin4_code":"","population":"0","elevation":"","dem":"71","timezone":"America/Panama","modification_date":"2015-07-03"},{"geonameid":"3710226","name":"El Pedregoso","asciiname":"El Pedregoso","alternatenames":"El Pedregoso,Pedregoso","latitude":"7.69173","longitude":"-80.32793","feature_class":"P","feature_code":"PPLA3","country_code":"PA","cc2":"","admin1_code":"07","admin2_code":"","admin3_code":"","admin4_code":"","population":"0","elevation":"","dem":"176","timezone":"America/Panama","modification_date":"2015-07-03"},{"geonameid":"3710277","name":"El Pantano","asciiname":"El Pantano","alternatenames":"El Pantano","latitude":"8.53755","longitude":"-81.06941","feature_class":"P","feature_code":"PPLA3","country_code":"PA","cc2":"","admin1_code":"10","admin2_code":"","admin3_code":"","admin4_code":"","population":"0","elevation":"","dem":"387","timezone":"America/Panama","modification_date":"2015-07-03"},{"geonameid":"3710304","name":"El Pájaro","asciiname":"El Pajaro","alternatenames":"El Pajaro,El Pájaro","latitude":"7.95342","longitude":"-81.12154","feature_class":"P","feature_code":"PPLA3","country_code":"PA","cc2":"","admin1_code":"10","admin2_code":"","admin3_code":"","admin4_code":"","population":"0","elevation":"","dem":"57","timezone":"America/Panama","modification_date":"2015-07-03"},{"geonameid":"3710305","name":"El Pájaro","asciiname":"El Pajaro","alternatenames":"El Pajaro,El Pájaro,Pajaro","latitude":"7.94338","longitude":"-80.5701","feature_class":"P","feature_code":"PPLA3","country_code":"PA","cc2":"","admin1_code":"06","admin2_code":"","admin3_code":"","admin4_code":"","population":"0","elevation":"","dem":"47","timezone":"America/Panama","modification_date":"2015-07-03"},{"geonameid":"3710367","name":"El Nancito","asciiname":"El Nancito","alternatenames":"El Nancito,Nancito","latitude":"8.23811","longitude":"-81.73218","feature_class":"P","feature_code":"PPLA3","country_code":"PA","cc2":"","admin1_code":"02","admin2_code":"","admin3_code":"","admin4_code":"","population":"0","elevation":"","dem":"226","timezone":"America/Panama","modification_date":"2015-07-03"},{"geonameid":"3710377","name":"El Muñoz","asciiname":"El Munoz","alternatenames":"El Munoz,El Muñoz","latitude":"7.67582","longitude":"-80.3213","feature_class":"P","feature_code":"PPLA3","country_code":"PA","cc2":"","admin1_code":"07","admin2_code":"","admin3_code":"","admin4_code":"","population":"0","elevation":"","dem":"202","timezone":"America/Panama","modification_date":"2015-07-03"},{"geonameid":"3710417","name":"El María","asciiname":"El Maria","alternatenames":"El Maria,El María","latitude":"8.03015","longitude":"-81.44786","feature_class":"P","feature_code":"PPLA3","country_code":"PA","cc2":"","admin1_code":"10","admin2_code":"","admin3_code":"","admin4_code":"","population":"0","elevation":"","dem":"207","timezone":"America/Panama","modification_date":"2015-07-03"},{"geonameid":"3710424","name":"El Marañón","asciiname":"El Maranon","alternatenames":"El Maranon,El Marañón,Maranon,Marañon","latitude":"8.03582","longitude":"-81.21489","feature_class":"P","feature_code":"PPLA3","country_code":"PA","cc2":"","admin1_code":"10","admin2_code":"","admin3_code":"","admin4_code":"","population":"0","elevation":"","dem":"73","timezone":"America/Panama","modification_date":"2015-07-03"},{"geonameid":"3710439","name":"El Manantial","asciiname":"El Manantial","alternatenames":"El Manantial","latitude":"7.78245","longitude":"-80.24713","feature_class":"P","feature_code":"PPLA3","country_code":"PA","cc2":"","admin1_code":"07","admin2_code":"","admin3_code":"","admin4_code":"","population":"0","elevation":"","dem":"26","timezone":"America/Panama","modification_date":"2015-07-03"},{"geonameid":"3710470","name":"Salto Dupí","asciiname":"Salto Dupi","alternatenames":"El Machin,El Machín,Salto Dupi,Salto Dupi Numero Uno,Salto Dupí,Salto Dupí Número Uno","latitude":"8.35146","longitude":"-81.88659","feature_class":"P","feature_code":"PPLA3","country_code":"PA","cc2":"","admin1_code":"12","admin2_code":"","admin3_code":"","admin4_code":"","population":"0","elevation":"","dem":"159","timezone":"America/Panama","modification_date":"2015-07-03"},{"geonameid":"3710481","name":"El Macano","asciiname":"El Macano","alternatenames":"El Macano","latitude":"7.68489","longitude":"-80.40309","feature_class":"P","feature_code":"PPLA3","country_code":"PA","cc2":"","admin1_code":"07","admin2_code":"","admin3_code":"","admin4_code":"","population":"0","elevation":"","dem":"288","timezone":"America/Panama","modification_date":"2015-07-03"},{"geonameid":"3710534","name":"El Limón","asciiname":"El Limon","alternatenames":"El Limon,El Limón","latitude":"8.05805","longitude":"-80.77289","feature_class":"P","feature_code":"PPLA3","country_code":"PA","cc2":"","admin1_code":"06","admin2_code":"","admin3_code":"","admin4_code":"","population":"0","elevation":"","dem":"68","timezone":"America/Panama","modification_date":"2015-07-03"},{"geonameid":"3710694","name":"El Hato","asciiname":"El Hato","alternatenames":"El Hato","latitude":"7.79316","longitude":"-80.38267","feature_class":"P","feature_code":"PPLA3","country_code":"PA","cc2":"","admin1_code":"07","admin2_code":"","admin3_code":"","admin4_code":"","population":"0","elevation":"","dem":"47","timezone":"America/Panama","modification_date":"2015-07-03"},