{"nextFile":"cities.135.json","rows":[{"geonameid":"4807136","name":"Glendale","asciiname":"Glendale","alternatenames":"GWV,Glendale","latitude":"39.94924","longitude":"-80.75425","feature_class":"P","feature_code":"PPL","country_code":"US","cc2":"","admin1_code":"WV","admin2_code":"051","admin3_code":"","admin4_code":"","population":"1526","elevation":"211","dem":"210","timezone":"America/New_York","modification_date":"2015-10-24"},{"geonameid":"4807310","name":"Grafton","asciiname":"Grafton","alternatenames":"Grafton,ghraftwn,grftn  wyrjynyay ghrby,Графтон,غرافتون,گرفتن، ویرجینیای غربی","latitude":"39.34092","longitude":"-80.01897","feature_class":"P","feature_code":"PPLA2","country_code":"US","cc2":"","admin1_code":"WV","admin2_code":"091","admin3_code":"","admin4_code":"","population":"5164","elevation":"312","dem":"313","timezone":"America/New_York","modification_date":"2011-05-14"},{"geonameid":"4807389","name":"Grantsville","asciiname":"Grantsville","alternatenames":"Grantsvil,ghrantsfyl,grantswyl  wyrjynyay ghrby,Грантсвил,غرانتسفيل,گرانتسویل، ویرجینیای غربی","latitude":"38.92342","longitude":"-81.09595","feature_class":"P","feature_code":"PPLA2","country_code":"US","cc2":"","admin1_code":"WV","admin2_code":"013","admin3_code":"","admin4_code":"","population":"561","elevation":"217","dem":"216","timezone":"America/New_York","modification_date":"2011-05-14"},{"geonameid":"4807976","name":"Hamlin","asciiname":"Hamlin","alternatenames":"Khamlin,hamlyn,hmlyn  wyrjynyay ghrby,Хамлин,هاملين,هملین، ویرجینیای غربی","latitude":"38.2787","longitude":"-82.10292","feature_class":"P","feature_code":"PPLA2","country_code":"US","cc2":"","admin1_code":"WV","admin2_code":"043","admin3_code":"","admin4_code":"","population":"1142","elevation":"199","dem":"199","timezone":"America/New_York","modification_date":"2011-05-14"},{"geonameid":"4808281","name":"Harrisville","asciiname":"Harrisville","alternatenames":"Kharisvil,Kharrisvill,harysfyl,haryswyl,Харисвил,Харрисвилл,هاريسفيل,هاریسویل","latitude":"39.20952","longitude":"-81.05178","feature_class":"P","feature_code":"PPLA2","country_code":"US","cc2":"","admin1_code":"WV","admin2_code":"085","admin3_code":"","admin4_code":"","population":"1876","elevation":"261","dem":"262","timezone":"America/New_York","modification_date":"2011-05-14"},{"geonameid":"4808945","name":"Hinton","asciiname":"Hinton","alternatenames":"Khinton,hyntwn,hyntwn  wyrjynyay ghrby,Хинтон,هينتون,هینتون، ویرجینیای غربی,ہنٹن، مغربی ورجینیا","latitude":"37.67401","longitude":"-80.88925","feature_class":"P","feature_code":"PPLA2","country_code":"US","cc2":"","admin1_code":"WV","admin2_code":"089","admin3_code":"","admin4_code":"","population":"2676","elevation":"446","dem":"446","timezone":"America/New_York","modification_date":"2011-05-14"},{"geonameid":"4809537","name":"Huntington","asciiname":"Huntington","alternatenames":"Gantington,HTS,Khantington,Khuntingtun,hantinton,hantyngtwn  wyrjynyay ghrby,heng ting dun,heontingteon,hnghtynghtwn,Гантінґтон,Хантингтон,Хънтингтън,האנטינגטון,هانتینگتون، ویرجینیای غربی,هنغتينغتون,ہنٹنگٹن، مغربی ورجینیا,ハンティントン,亨廷顿,헌팅턴","latitude":"38.41925","longitude":"-82.44515","feature_class":"P","feature_code":"PPLA2","country_code":"US","cc2":"","admin1_code":"WV","admin2_code":"011","admin3_code":"","admin4_code":"","population":"49138","elevation":"173","dem":"176","timezone":"America/New_York","modification_date":"2011-05-14"},{"geonameid":"4809558","name":"Hurricane","asciiname":"Hurricane","alternatenames":"","latitude":"38.43259","longitude":"-82.02014","feature_class":"P","feature_code":"PPL","country_code":"US","cc2":"","admin1_code":"WV","admin2_code":"079","admin3_code":"","admin4_code":"","population":"6284","elevation":"214","dem":"215","timezone":"America/New_York","modification_date":"2011-05-14"},{"geonameid":"4809881","name":"Inwood","asciiname":"Inwood","alternatenames":"","latitude":"39.35788","longitude":"-78.04","feature_class":"P","feature_code":"PPL","country_code":"US","cc2":"","admin1_code":"WV","admin2_code":"003","admin3_code":"","admin4_code":"","population":"2954","elevation":"173","dem":"171","timezone":"America/New_York","modification_date":"2011-05-14"},{"geonameid":"4810818","name":"Kenova","asciiname":"Kenova","alternatenames":"","latitude":"38.39897","longitude":"-82.57821","feature_class":"P","feature_code":"PPL","country_code":"US","cc2":"","admin1_code":"WV","admin2_code":"099","admin3_code":"","admin4_code":"","population":"3216","elevation":"170","dem":"170","timezone":"America/New_York","modification_date":"2011-05-14"},{"geonameid":"4810884","name":"Keyser","asciiname":"Keyser","alternatenames":"Kajzer,Kiser,kysr  wyrjynyay ghrby,kysyr,Кайзер,Кисер,كيسير,کیسر، ویرجینیای غربی","latitude":"39.44093","longitude":"-78.97392","feature_class":"P","feature_code":"PPLA2","country_code":"US","cc2":"","admin1_code":"WV","admin2_code":"057","admin3_code":"","admin4_code":"","population":"5439","elevation":"246","dem":"246","timezone":"America/New_York","modification_date":"2011-05-14"},{"geonameid":"4811007","name":"Kingwood","asciiname":"Kingwood","alternatenames":"Kingvud,kynghwwd,kyngwwd  wyrjynyay ghrby,Кингвуд,كينغوود,کینگوود، ویرجینیای غربی","latitude":"39.47176","longitude":"-79.68339","feature_class":"P","feature_code":"PPLA2","country_code":"US","cc2":"","admin1_code":"WV","admin2_code":"077","admin3_code":"","admin4_code":"","population":"2939","elevation":"553","dem":"556","timezone":"America/New_York","modification_date":"2011-05-14"},{"geonameid":"4811622","name":"Lavalette","asciiname":"Lavalette","alternatenames":"","latitude":"38.32286","longitude":"-82.44682","feature_class":"P","feature_code":"PPL","country_code":"US","cc2":"","admin1_code":"WV","admin2_code":"099","admin3_code":"","admin4_code":"","population":"1073","elevation":"175","dem":"176","timezone":"America/New_York","modification_date":"2011-05-14"},{"geonameid":"4811968","name":"Lesage","asciiname":"Lesage","alternatenames":"","latitude":"38.50647","longitude":"-82.29848","feature_class":"P","feature_code":"PPL","country_code":"US","cc2":"","admin1_code":"WV","admin2_code":"011","admin3_code":"","admin4_code":"","population":"1358","elevation":"171","dem":"173","timezone":"America/New_York","modification_date":"2011-05-14"},{"geonameid":"4812015","name":"Lewisburg","asciiname":"Lewisburg","alternatenames":"LWB,Luisburg,lwysbrgh,lwysbwrg  wyrjynyay ghrby,lwyysbrg  mghrby wrjynya,Луисбург,لوئیسبرگ، مغربی ورجینیا,لويسبرغ,لویسبورگ، ویرجینیای غربی","latitude":"37.80179","longitude":"-80.44563","feature_class":"P","feature_code":"PPLA2","country_code":"US","cc2":"","admin1_code":"WV","admin2_code":"025","admin3_code":"","admin4_code":"","population":"3830","elevation":"634","dem":"633","timezone":"America/New_York","modification_date":"2011-05-14"},{"geonameid":"4812867","name":"Logan","asciiname":"Logan","alternatenames":"Logan,lwghan,lwwgn  wyrjynyay ghrby,Логан,لوغان,لووگن، ویرجینیای غربی","latitude":"37.84871","longitude":"-81.99346","feature_class":"P","feature_code":"PPLA2","country_code":"US","cc2":"","admin1_code":"WV","admin2_code":"045","admin3_code":"","admin4_code":"","population":"1779","elevation":"207","dem":"204","timezone":"America/New_York","modification_date":"2011-05-14"},{"geonameid":"4813389","name":"Lubeck","asciiname":"Lubeck","alternatenames":"","latitude":"39.23535","longitude":"-81.63124","feature_class":"P","feature_code":"PPL","country_code":"US","cc2":"","admin1_code":"WV","admin2_code":"107","admin3_code":"","admin4_code":"","population":"1311","elevation":"230","dem":"232","timezone":"America/New_York","modification_date":"2011-05-14"},{"geonameid":"4813512","name":"Mabscott","asciiname":"Mabscott","alternatenames":"","latitude":"37.77095","longitude":"-81.20843","feature_class":"P","feature_code":"PPL","country_code":"US","cc2":"","admin1_code":"WV","admin2_code":"081","admin3_code":"","admin4_code":"","population":"1408","elevation":"699","dem":"700","timezone":"America/New_York","modification_date":"2011-05-14"},{"geonameid":"4813519","name":"MacArthur","asciiname":"MacArthur","alternatenames":"","latitude":"37.75845","longitude":"-81.2126","feature_class":"P","feature_code":"PPL","country_code":"US","cc2":"","admin1_code":"WV","admin2_code":"081","admin3_code":"","admin4_code":"","population":"1500","elevation":"742","dem":"742","timezone":"America/New_York","modification_date":"2011-05-14"},{"geonameid":"4813565","name":"Madison","asciiname":"Madison","alternatenames":"Madison,Medison,Mehdison,madyswn,mdyswn  wyrjynyay ghrby,Мадисон,Медисон,Медісон,Мэдисон,ماديسون,مدیسون، ویرجینیای غربی,میڈیسون، مغربی ورجینیا","latitude":"38.06705","longitude":"-81.81929","feature_class":"P","feature_code":"PPLA2","country_code":"US","cc2":"","admin1_code":"WV","admin2_code":"005","admin3_code":"","admin4_code":"","population":"3076","elevation":"214","dem":"221","timezone":"America/New_York","modification_date":"2011-05-14"},{"geonameid":"4813648","name":"Mallory","asciiname":"Mallory","alternatenames":"","latitude":"37.73066","longitude":"-81.8379","feature_class":"P","feature_code":"PPL","country_code":"US","cc2":"","admin1_code":"WV","admin2_code":"045","admin3_code":"","admin4_code":"","population":"1654","elevation":"241","dem":"244","timezone":"America/New_York","modification_date":"2011-05-14"},{"geonameid":"4813666","name":"Mannington","asciiname":"Mannington","alternatenames":"Manington,manynghtwn,manyngtwn  wyrjynyay ghrby,Манингтон,مانينغتون,مانینگتون، ویرجینیای غربی","latitude":"39.53092","longitude":"-80.34342","feature_class":"P","feature_code":"PPL","country_code":"US","cc2":"","admin1_code":"WV","admin2_code":"049","admin3_code":"","admin4_code":"","population":"2063","elevation":"297","dem":"296","timezone":"America/New_York","modification_date":"2011-05-14"},{"geonameid":"4813774","name":"Marlinton","asciiname":"Marlinton","alternatenames":"Marlinton,marlyntwn,marlyntwn  wyrjynyay ghrby,Марлинтон,مارلينتون,مارلینتون، ویرجینیای غربی","latitude":"38.22345","longitude":"-80.09451","feature_class":"P","feature_code":"PPLA2","country_code":"US","cc2":"","admin1_code":"WV","admin2_code":"075","admin3_code":"","admin4_code":"","population":"1054","elevation":"648","dem":"646","timezone":"America/New_York","modification_date":"2011-05-14"},{"geonameid":"4813783","name":"Marmet","asciiname":"Marmet","alternatenames":"","latitude":"38.24538","longitude":"-81.56706","feature_class":"P","feature_code":"PPL","country_code":"US","cc2":"","admin1_code":"WV","admin2_code":"039","admin3_code":"","admin4_code":"","population":"1503","elevation":"186","dem":"185","timezone":"America/New_York","modification_date":"2011-05-14"},{"geonameid":"4813878","name":"Martinsburg","asciiname":"Martinsburg","alternatenames":"Martinopolis,Martinsberg,Martinsburg,ma ding si bao,martynzbrg  wyrjynyay ghrby,matinjeubeogeu,matinzubagu,mrtynsbwrgh,Мартинсберг,Мартинсбург,Мартінсбург,مارتینزبرگ، ویرجینیای غربی,مارٹنسبرگ، مغربی ورجینیا,مرتينسبورغ,マーティンズバーグ,马丁斯堡,마틴즈버그","latitude":"39.45621","longitude":"-77.96389","feature_class":"P","feature_code":"PPLA2","country_code":"US","cc2":"","admin1_code":"WV","admin2_code":"003","admin3_code":"","admin4_code":"","population":"17227","elevation":"138","dem":"139","timezone":"America/New_York","modification_date":"2011-05-14"},{"geonameid":"4814268","name":"McMechen","asciiname":"McMechen","alternatenames":"","latitude":"39.98813","longitude":"-80.73147","feature_class":"P","feature_code":"PPL","country_code":"US","cc2":"","admin1_code":"WV","admin2_code":"051","admin3_code":"","admin4_code":"","population":"1926","elevation":"207","dem":"207","timezone":"America/New_York","modification_date":"2011-05-14"},{"geonameid":"4814674","name":"Middlebourne","asciiname":"Middlebourne","alternatenames":"Midlvorn,mydlbwrn,mydlbwrn  wyrjynyay ghrby,Мидлворн,ميدلبورن,میدلبورن، ویرجینیای غربی","latitude":"39.4923","longitude":"-80.90372","feature_class":"P","feature_code":"PPLA2","country_code":"US","cc2":"","admin1_code":"WV","admin2_code":"095","admin3_code":"","admin4_code":"","population":"815","elevation":"224","dem":"226","timezone":"America/New_York","modification_date":"2011-05-14"},{"geonameid":"4815044","name":"Milton","asciiname":"Milton","alternatenames":"Mil'ton,Мильтон","latitude":"38.43453","longitude":"-82.13236","feature_class":"P","feature_code":"PPL","country_code":"US","cc2":"","admin1_code":"WV","admin2_code":"011","admin3_code":"","admin4_code":"","population":"2423","elevation":"178","dem":"178","timezone":"America/New_York","modification_date":"2011-05-14"},{"geonameid":"4815066","name":"Mineral Wells","asciiname":"Mineral Wells","alternatenames":"Mineral Wells","latitude":"39.19035","longitude":"-81.53207","feature_class":"P","feature_code":"PPL","country_code":"US","cc2":"","admin1_code":"WV","admin2_code":"107","admin3_code":"","admin4_code":"","population":"1950","elevation":"202","dem":"197","timezone":"America/New_York","modification_date":"2014-10-08"},{"geonameid":"4815200","name":"Monongah","asciiname":"Monongah","alternatenames":"","latitude":"39.46258","longitude":"-80.21814","feature_class":"P","feature_code":"PPL","country_code":"US","cc2":"","admin1_code":"WV","admin2_code":"049","admin3_code":"","admin4_code":"","population":"1044","elevation":"293","dem":"296","timezone":"America/New_York","modification_date":"2011-05-14"},{"geonameid":"4815241","name":"Montgomery","asciiname":"Montgomery","alternatenames":"Montgomeri,mantgamry  wyrjynyay ghrby,meng ge ma li,mwntghmry,Монтгомери,مانتگامری، ویرجینیای غربی,مونتغمري,مونٹگمری، مغربی ورجینیا,蒙哥馬利","latitude":"38.18038","longitude":"-81.32845","feature_class":"P","feature_code":"PPL","country_code":"US","cc2":"","admin1_code":"WV","admin2_code":"039","admin3_code":"","admin4_code":"","population":"1638","elevation":"194","dem":"195","timezone":"America/New_York","modification_date":"2011-05-14"},{"geonameid":"4815286","name":"Moorefield","asciiname":"Moorefield","alternatenames":"Murfild,mwrfyld,mwrfyld  wyrjynyay ghrby,Мурфилд,مورفيلد,مورفیلد، ویرجینیای غربی,مورفیلڈ، مغربی ورجینیا","latitude":"39.06233","longitude":"-78.96947","feature_class":"P","feature_code":"PPLA2","country_code":"US","cc2":"","admin1_code":"WV","admin2_code":"031","admin3_code":"","admin4_code":"","population":"2544","elevation":"247","dem":"249","timezone":"America/New_York","modification_date":"2011-05-14"},{"geonameid":"4815352","name":"Morgantown","asciiname":"Morgantown","alternatenames":"MGW,Morganopolis,Morgantaun,mo gen dui,mogantaun,mogeontaun,mrgntawn  wyrjynyay ghrby,mwrghantawn,Моргантаун,مرگنتاون، ویرجینیای غربی,مورغانتاون,مورگن ٹاؤن، مغربی ورجینیا,モーガンタウン,摩根敦,모건타운","latitude":"39.62953","longitude":"-79.9559","feature_class":"P","feature_code":"PPLA2","country_code":"US","cc2":"","admin1_code":"WV","admin2_code":"061","admin3_code":"","admin4_code":"","population":"29660","elevation":"271","dem":"275","timezone":"America/New_York","modification_date":"2011-05-14"},{"geonameid":"4815462","name":"Moundsville","asciiname":"Moundsville","alternatenames":"Maundsvil,Maundsvill,mawndzwyl  wyrjynyay ghrby,mwwndsfyl,Маундсвил,Маундсвилл,ماوندزویل، ویرجینیای غربی,مووندسفيل","latitude":"39.92035","longitude":"-80.74314","feature_class":"P","feature_code":"PPLA2","country_code":"US","cc2":"","admin1_code":"WV","admin2_code":"051","admin3_code":"","admin4_code":"","population":"9318","elevation":"212","dem":"211","timezone":"America/New_York","modification_date":"2011-05-14"},{"geonameid":"4815582","name":"Mount Hope","asciiname":"Mount Hope","alternatenames":"","latitude":"37.89539","longitude":"-81.16427","feature_class":"P","feature_code":"PPL","country_code":"US","cc2":"","admin1_code":"WV","admin2_code":"019","admin3_code":"","admin4_code":"","population":"1414","elevation":"525","dem":"526","timezone":"America/New_York","modification_date":"2011-05-14"},{"geonameid":"4816186","name":"Mullens","asciiname":"Mullens","alternatenames":"Malins,maln  wyrjynyay ghrby,mwlns,Малинс,مالن، ویرجینیای غربی,مولنس","latitude":"37.58317","longitude":"-81.38038","feature_class":"P","feature_code":"PPL","country_code":"US","cc2":"","admin1_code":"WV","admin2_code":"109","admin3_code":"","admin4_code":"","population":"1559","elevation":"432","dem":"436","timezone":"America/New_York","modification_date":"2011-05-14"},{"geonameid":"4816520","name":"New Martinsville","asciiname":"New Martinsville","alternatenames":"N'ju-Martinsvill,Nju Martinsvil,nyw martnzwyl  wyrjynyay ghrby,nyw martynsfyl,Њу Мартинсвил,Нью-Мартинсвилл,نيو مارتينسفيل,نیو مارتنزویل، ویرجینیای غربی","latitude":"39.64452","longitude":"-80.8576","feature_class":"P","feature_code":"PPLA2","country_code":"US","cc2":"","admin1_code":"WV","admin2_code":"103","admin3_code":"","admin4_code":"","population":"5366","elevation":"190","dem":"192","timezone":"America/New_York","modification_date":"2011-05-14"},{"geonameid":"4816522","name":"New Haven","asciiname":"New Haven","alternatenames":"N'ju-Khejven,Нью-Хейвен","latitude":"38.98647","longitude":"-81.97347","feature_class":"P","feature_code":"PPL","country_code":"US","cc2":"","admin1_code":"WV","admin2_code":"053","admin3_code":"","admin4_code":"","population":"1560","elevation":"183","dem":"182","timezone":"America/New_York","modification_date":"2011-05-14"},{"geonameid":"4816665","name":"Nitro","asciiname":"Nitro","alternatenames":"","latitude":"38.41481","longitude":"-81.84402","feature_class":"P","feature_code":"PPL","country_code":"US","cc2":"","admin1_code":"WV","admin2_code":"039","admin3_code":"","admin4_code":"","population":"7178","elevation":"181","dem":"184","timezone":"America/New_York","modification_date":"2011-05-14"},{"geonameid":"4816898","name":"Nutter Fort","asciiname":"Nutter Fort","alternatenames":"","latitude":"39.26342","longitude":"-80.31981","feature_class":"P","feature_code":"PPL","country_code":"US","cc2":"","admin1_code":"WV","admin2_code":"033","admin3_code":"","admin4_code":"","population":"1593","elevation":"322","dem":"322","timezone":"America/New_York","modification_date":"2011-05-14"},{"geonameid":"4816993","name":"Oak Hill","asciiname":"Oak Hill","alternatenames":"","latitude":"37.97233","longitude":"-81.14871","feature_class":"P","feature_code":"PPL","country_code":"US","cc2":"","admin1_code":"WV","admin2_code":"019","admin3_code":"","admin4_code":"","population":"7730","elevation":"614","dem":"610","timezone":"America/New_York","modification_date":"2011-05-14"},{"geonameid":"4817070","name":"Oceana","asciiname":"Oceana","alternatenames":"","latitude":"37.69206","longitude":"-81.624","feature_class":"P","feature_code":"PPL","country_code":"US","cc2":"","admin1_code":"WV","admin2_code":"109","admin3_code":"","admin4_code":"","population":"1394","elevation":"385","dem":"380","timezone":"America/New_York","modification_date":"2011-05-14"},{"geonameid":"4817486","name":"Paden City","asciiname":"Paden City","alternatenames":"","latitude":"39.60285","longitude":"-80.93677","feature_class":"P","feature_code":"PPL","country_code":"US","cc2":"","admin1_code":"WV","admin2_code":"095","admin3_code":"","admin4_code":"","population":"2633","elevation":"201","dem":"201","timezone":"America/New_York","modification_date":"2011-05-14"},{"geonameid":"4817641","name":"Parkersburg","asciiname":"Parkersburg","alternatenames":"PKB,Parkersberg,Parkersburg,Parkursburg,barkrsbwrgh,pa ke si bao,pakazubagu,pakeojeubeogeu,parkrzbrg  mghrby wrjynya,parkrzbrg  wyrjynyay ghrby,Паркерсберг,Паркерсбург,Паркърсбърг,باركرسبورغ,پارکرزبرگ، مغربی ورجینیا,پارکرزبرگ، ویرجینیای غربی,パーカーズバーグ,帕克斯堡,파커즈버그","latitude":"39.26674","longitude":"-81.56151","feature_class":"P","feature_code":"PPLA2","country_code":"US","cc2":"","admin1_code":"WV","admin2_code":"107","admin3_code":"","admin4_code":"","population":"31492","elevation":"187","dem":"199","timezone":"America/New_York","modification_date":"2011-05-14"},{"geonameid":"4817695","name":"Parsons","asciiname":"Parsons","alternatenames":"Parsons,barswnz,parswnz  wyrjynyay ghrby,Парсонс,بارسونز,پارسونز، ویرجینیای غربی","latitude":"39.09649","longitude":"-79.6809","feature_class":"P","feature_code":"PPLA2","country_code":"US","cc2":"","admin1_code":"WV","admin2_code":"093","admin3_code":"","admin4_code":"","population":"1485","elevation":"502","dem":"501","timezone":"America/New_York","modification_date":"2011-05-14"},{"geonameid":"4817825","name":"Pea Ridge","asciiname":"Pea Ridge","alternatenames":"","latitude":"38.41397","longitude":"-82.31987","feature_class":"P","feature_code":"PPL","country_code":"US","cc2":"","admin1_code":"WV","admin2_code":"011","admin3_code":"","admin4_code":"","population":"6650","elevation":"191","dem":"200","timezone":"America/New_York","modification_date":"2011-05-14"},{"geonameid":"4817911","name":"Pennsboro","asciiname":"Pennsboro","alternatenames":"","latitude":"39.28508","longitude":"-80.96844","feature_class":"P","feature_code":"PPL","country_code":"US","cc2":"","admin1_code":"WV","admin2_code":"085","admin3_code":"","admin4_code":"","population":"1171","elevation":"264","dem":"261","timezone":"America/New_York","modification_date":"2011-05-14"},{"geonameid":"4818030","name":"Petersburg","asciiname":"Petersburg","alternatenames":"Peterburg,Petroburgum,Pitersberg,Pitersburg,btrsbwrgh,pytrzbrg  wyrjynyay ghrby,Петербург,Питерсберг,Питерсбург,بطرسبورغ,پیترزبرگ، ویرجینیای غربی,پیٹرزبرگ، مغربی ورجینیا","latitude":"38.99261","longitude":"-79.12392","feature_class":"P","feature_code":"PPLA2","country_code":"US","cc2":"","admin1_code":"WV","admin2_code":"023","admin3_code":"","admin4_code":"","population":"2467","elevation":"285","dem":"285","timezone":"America/New_York","modification_date":"2011-05-14"},{"geonameid":"4818074","name":"Philippi","asciiname":"Philippi","alternatenames":"Filipi,Filippi,fylby,fylypay  wyrjynyay ghrby,Филипи,Филиппи,فيلبي,فیلیپای، ویرجینیای غربی","latitude":"39.15232","longitude":"-80.04036","feature_class":"P","feature_code":"PPLA2","country_code":"US","cc2":"","admin1_code":"WV","admin2_code":"001","admin3_code":"","admin4_code":"","population":"2966","elevation":"397","dem":"398","timezone":"America/New_York","modification_date":"2011-05-14"},{"geonameid":"4818227","name":"Pinch","asciiname":"Pinch","alternatenames":"","latitude":"38.40871","longitude":"-81.48179","feature_class":"P","feature_code":"PPL","country_code":"US","cc2":"","admin1_code":"WV","admin2_code":"039","admin3_code":"","admin4_code":"","population":"3262","elevation":"218","dem":"223","timezone":"America/New_York","modification_date":"2011-05-14"},{"geonameid":"4818347","name":"Pineville","asciiname":"Pineville","alternatenames":"","latitude":"37.58317","longitude":"-81.53705","feature_class":"P","feature_code":"PPLA2","country_code":"US","cc2":"","admin1_code":"WV","admin2_code":"109","admin3_code":"","admin4_code":"","population":"668","elevation":"395","dem":"396","timezone":"America/New_York","modification_date":"2011-05-14"},{"geonameid":"4818573","name":"Pleasant Valley","asciiname":"Pleasant Valley","alternatenames":"","latitude":"39.45536","longitude":"-80.14175","feature_class":"P","feature_code":"PPL","country_code":"US","cc2":"","admin1_code":"WV","admin2_code":"049","admin3_code":"","admin4_code":"","population":"3149","elevation":"314","dem":"314","timezone":"America/New_York","modification_date":"2011-05-14"},{"geonameid":"4818750","name":"Point Pleasant","asciiname":"Point Pleasant","alternatenames":"Pojnt Plezant,bwynt blyzant,pointeupeullejeonteu,pwynt plznt,pwynt plznt  wyrjynyay ghrby,Појнт Плезант,פוינט פלזנט,بوينت بليزانت,پوینت پلزنت، ویرجینیای غربی,포인트플레전트","latitude":"38.84453","longitude":"-82.13709","feature_class":"P","feature_code":"PPLA2","country_code":"US","cc2":"","admin1_code":"WV","admin2_code":"053","admin3_code":"","admin4_code":"","population":"4350","elevation":"173","dem":"173","timezone":"America/New_York","modification_date":"2011-05-14"},{"geonameid":"4819079","name":"Princeton","asciiname":"Princeton","alternatenames":"Principitonia,Prinston,brynstwn,prynstn  wyrjynyay ghrby,Принстон,برينستون,پرنسٹن، مغربی ورجینیا,پرینستن، ویرجینیای غربی","latitude":"37.36623","longitude":"-81.10259","feature_class":"P","feature_code":"PPLA2","country_code":"US","cc2":"","admin1_code":"WV","admin2_code":"055","admin3_code":"","admin4_code":"","population":"6432","elevation":"743","dem":"744","timezone":"America/New_York","modification_date":"2011-05-14"},{"geonameid":"4819121","name":"Prosperity","asciiname":"Prosperity","alternatenames":"","latitude":"37.8365","longitude":"-81.20177","feature_class":"P","feature_code":"PPL","country_code":"US","cc2":"","admin1_code":"WV","admin2_code":"081","admin3_code":"","admin4_code":"","population":"1498","elevation":"752","dem":"750","timezone":"America/New_York","modification_date":"2011-05-14"},{"geonameid":"4819307","name":"Rainelle","asciiname":"Rainelle","alternatenames":"","latitude":"37.96873","longitude":"-80.76703","feature_class":"P","feature_code":"PPL","country_code":"US","cc2":"","admin1_code":"WV","admin2_code":"025","admin3_code":"","admin4_code":"","population":"1505","elevation":"733","dem":"729","timezone":"America/New_York","modification_date":"2011-05-14"},{"geonameid":"4819360","name":"Rand","asciiname":"Rand","alternatenames":"","latitude":"38.2826","longitude":"-81.56234","feature_class":"P","feature_code":"PPL","country_code":"US","cc2":"","admin1_code":"WV","admin2_code":"039","admin3_code":"","admin4_code":"","population":"1631","elevation":"187","dem":"193","timezone":"America/New_York","modification_date":"2011-05-14"},{"geonameid":"4819389","name":"Ranson","asciiname":"Ranson","alternatenames":"","latitude":"39.2951","longitude":"-77.86055","feature_class":"P","feature_code":"PPL","country_code":"US","cc2":"","admin1_code":"WV","admin2_code":"037","admin3_code":"","admin4_code":"","population":"4440","elevation":"158","dem":"159","timezone":"America/New_York","modification_date":"2011-05-14"},{"geonameid":"4819418","name":"Ravenswood","asciiname":"Ravenswood","alternatenames":"Rejvensvud,rawnswwd  wyrjynyay ghrby,Рејвенсвуд,راونسوود، ویرجینیای غربی","latitude":"38.94814","longitude":"-81.76096","feature_class":"P","feature_code":"PPL","country_code":"US","cc2":"","admin1_code":"WV","admin2_code":"035","admin3_code":"","admin4_code":"","population":"3876","elevation":"185","dem":"187","timezone":"America/New_York","modification_date":"2011-05-14"},{"geonameid":"4819768","name":"Richwood","asciiname":"Richwood","alternatenames":"Richvud,rykwwd  wyrjynyay ghrby,rytshwwd,Ричвуд,ريتشوود,ریکوود، ویرجینیای غربی","latitude":"38.22484","longitude":"-80.53314","feature_class":"P","feature_code":"PPL","country_code":"US","cc2":"","admin1_code":"WV","admin2_code":"067","admin3_code":"","admin4_code":"","population":"2051","elevation":"673","dem":"673","timezone":"America/New_York","modification_date":"2011-05-14"},{"geonameid":"4820037","name":"Ripley","asciiname":"Ripley","alternatenames":"Ripli,rybly,ryply  wyrjynyay ghrby,Рипли,ريبلي,ریپلی، ویرجینیای غربی","latitude":"38.8187","longitude":"-81.71069","feature_class":"P","feature_code":"PPLA2","country_code":"US","cc2":"","admin1_code":"WV","admin2_code":"035","admin3_code":"","admin4_code":"","population":"3252","elevation":"187","dem":"185","timezone":"America/New_York","modification_date":"2011-05-14"},{"geonameid":"4820597","name":"Romney","asciiname":"Romney","alternatenames":"Romni,Romnia,ramny  wyrjynyay ghrby,rwmny,Ромни,رامنی، ویرجینیای غربی,رومني","latitude":"39.34204","longitude":"-78.75668","feature_class":"P","feature_code":"PPLA2","country_code":"US","cc2":"","admin1_code":"WV","admin2_code":"027","admin3_code":"","admin4_code":"","population":"1848","elevation":"250","dem":"250","timezone":"America/New_York","modification_date":"2011-05-14"},{"geonameid":"4820608","name":"Ronceverte","asciiname":"Ronceverte","alternatenames":"rwnswrt  wyrjynyay ghrby,rwnsyfyrt,رونسورت، ویرجینیای غربی,رونسيفيرت","latitude":"37.74984","longitude":"-80.46285","feature_class":"P","feature_code":"PPL","country_code":"US","cc2":"","admin1_code":"WV","admin2_code":"025","admin3_code":"","admin4_code":"","population":"1765","elevation":"511","dem":"513","timezone":"America/New_York","modification_date":"2011-05-14"},{"geonameid":"4820938","name":"Saint Albans","asciiname":"Saint Albans","alternatenames":"","latitude":"38.38565","longitude":"-81.83624","feature_class":"P","feature_code":"PPL","country_code":"US","cc2":"","admin1_code":"WV","admin2_code":"039","admin3_code":"","admin4_code":"","population":"11044","elevation":"186","dem":"185","timezone":"America/New_York","modification_date":"2011-05-14"},{"geonameid":"4821087","name":"Saint Marys","asciiname":"Saint Marys","alternatenames":"","latitude":"39.39174","longitude":"-81.20511","feature_class":"P","feature_code":"PPLA2","country_code":"US","cc2":"","admin1_code":"WV","admin2_code":"073","admin3_code":"","admin4_code":"","population":"1860","elevation":"190","dem":"190","timezone":"America/New_York","modification_date":"2011-05-14"},{"geonameid":"4821203","name":"Salem","asciiname":"Salem","alternatenames":"Sejlem,salm,sylm  mghrby wrjynya,sylm  wyrjynyay ghrby,Сейлем,Сејлем,سالم,سیلم، مغربی ورجینیا,سیلم، ویرجینیای غربی","latitude":"39.28287","longitude":"-80.55899","feature_class":"P","feature_code":"PPL","country_code":"US","cc2":"","admin1_code":"WV","admin2_code":"033","admin3_code":"","admin4_code":"","population":"1586","elevation":"320","dem":"322","timezone":"America/New_York","modification_date":"2011-05-14"},{"geonameid":"4821800","name":"Shady Spring","asciiname":"Shady Spring","alternatenames":"","latitude":"37.70567","longitude":"-81.09843","feature_class":"P","feature_code":"PPL","country_code":"US","cc2":"","admin1_code":"WV","admin2_code":"081","admin3_code":"","admin4_code":"","population":"2998","elevation":"822","dem":"823","timezone":"America/New_York","modification_date":"2011-05-14"},{"geonameid":"4821860","name":"Shannondale","asciiname":"Shannondale","alternatenames":"","latitude":"39.21705","longitude":"-77.80749","feature_class":"P","feature_code":"PPL","country_code":"US","cc2":"","admin1_code":"WV","admin2_code":"037","admin3_code":"","admin4_code":"","population":"3358","elevation":"171","dem":"175","timezone":"America/New_York","modification_date":"2011-05-14"},{"geonameid":"4821983","name":"Shepherdstown","asciiname":"Shepherdstown","alternatenames":"Shepardstaun,shbrdztawn,shphrdstwwn  wyrjynyay ghrby,Шепардстаун,ועידת שפרדסטאון,شبردزتاون,شپهردستوون، ویرجینیای غربی","latitude":"39.4301","longitude":"-77.80416","feature_class":"P","feature_code":"PPL","country_code":"US","cc2":"","admin1_code":"WV","admin2_code":"037","admin3_code":"","admin4_code":"","population":"1734","elevation":"122","dem":"123","timezone":"America/New_York","modification_date":"2011-05-14"},{"geonameid":"4822050","name":"Shinnston","asciiname":"Shinnston","alternatenames":"","latitude":"39.39564","longitude":"-80.30009","feature_class":"P","feature_code":"PPL","country_code":"US","cc2":"","admin1_code":"WV","admin2_code":"033","admin3_code":"","admin4_code":"","population":"2201","elevation":"283","dem":"281","timezone":"America/New_York","modification_date":"2011-05-14"},{"geonameid":"4822310","name":"Sissonville","asciiname":"Sissonville","alternatenames":"","latitude":"38.52815","longitude":"-81.63096","feature_class":"P","feature_code":"PPL","country_code":"US","cc2":"","admin1_code":"WV","admin2_code":"039","admin3_code":"","admin4_code":"","population":"4028","elevation":"190","dem":"190","timezone":"America/New_York","modification_date":"2011-05-14"},{"geonameid":"4822313","name":"Sistersville","asciiname":"Sistersville","alternatenames":"Sistersvil,systrfyl,systrswyl  wyrjynyay ghrby,Систерсвил,سيسترفيل,سیسترسویل، ویرجینیای غربی","latitude":"39.56424","longitude":"-80.99594","feature_class":"P","feature_code":"PPL","country_code":"US","cc2":"","admin1_code":"WV","admin2_code":"095","admin3_code":"","admin4_code":"","population":"1396","elevation":"198","dem":"198","timezone":"America/New_York","modification_date":"2011-05-14"},{"geonameid":"4822741","name":"Sophia","asciiname":"Sophia","alternatenames":"","latitude":"37.70761","longitude":"-81.25066","feature_class":"P","feature_code":"PPL","country_code":"US","cc2":"","admin1_code":"WV","admin2_code":"081","admin3_code":"","admin4_code":"","population":"1344","elevation":"707","dem":"706","timezone":"America/New_York","modification_date":"2011-05-14"},{"geonameid":"4822764","name":"South Charleston","asciiname":"South Charleston","alternatenames":"Saut Charlston,Saut-Charlston,nan cha er si dun,sausucharusuton,sawth tsharlstwn,Саут Чарлстон,Саут-Чарлстон,جنوبی چارلسٹن، مغربی ورجینیا,ساوث تشارلستون,サウスチャールストン,南查爾斯頓","latitude":"38.36843","longitude":"-81.69957","feature_class":"P","feature_code":"PPL","country_code":"US","cc2":"","admin1_code":"WV","admin2_code":"039","admin3_code":"","admin4_code":"","population":"13450","elevation":"183","dem":"185","timezone":"America/New_York","modification_date":"2011-05-14"},{"geonameid":"4822933","name":"Spencer","asciiname":"Spencer","alternatenames":"Spenser,aspnsr  wyrjynyay ghrby,sbnsr,Спенсер,اسپنسر، ویرجینیای غربی,سبنسر","latitude":"38.80203","longitude":"-81.35095","feature_class":"P","feature_code":"PPLA2","country_code":"US","cc2":"","admin1_code":"WV","admin2_code":"087","admin3_code":"","admin4_code":"","population":"2322","elevation":"228","dem":"231","timezone":"America/New_York","modification_date":"2011-05-14"},{"geonameid":"4823285","name":"Stanaford","asciiname":"Stanaford","alternatenames":"","latitude":"37.81595","longitude":"-81.15232","feature_class":"P","feature_code":"PPL","country_code":"US","cc2":"","admin1_code":"WV","admin2_code":"081","admin3_code":"","admin4_code":"","population":"1350","elevation":"734","dem":"734","timezone":"America/New_York","modification_date":"2011-05-14"},{"geonameid":"4823309","name":"Star City","asciiname":"Star City","alternatenames":"","latitude":"39.65841","longitude":"-79.98645","feature_class":"P","feature_code":"PPL","country_code":"US","cc2":"","admin1_code":"WV","admin2_code":"061","admin3_code":"","admin4_code":"","population":"1825","elevation":"291","dem":"286","timezone":"America/New_York","modification_date":"2011-05-14"},{"geonameid":"4823571","name":"Stonewood","asciiname":"Stonewood","alternatenames":"","latitude":"39.25092","longitude":"-80.31231","feature_class":"P","feature_code":"PPL","country_code":"US","cc2":"","admin1_code":"WV","admin2_code":"033","admin3_code":"","admin4_code":"","population":"1806","elevation":"316","dem":"315","timezone":"America/New_York","modification_date":"2011-05-14"},{"geonameid":"4824027","name":"Summersville","asciiname":"Summersville","alternatenames":"Samervil,Sammersvill,samrswyl  wyrjynyay ghrby,smrsfyl,Самервил,Саммерсвилл,سامرسویل، ویرجینیای غربی,سمرسفيل","latitude":"38.28122","longitude":"-80.8526","feature_class":"P","feature_code":"PPLA2","country_code":"US","cc2":"","admin1_code":"WV","admin2_code":"067","admin3_code":"","admin4_code":"","population":"3572","elevation":"573","dem":"573","timezone":"America/New_York","modification_date":"2011-05-14"},{"geonameid":"4824118","name":"Sutton","asciiname":"Sutton","alternatenames":"Saton,Satton,satn  wyrjynyay ghrby,satwn,Сатон,Саттон,ساتن، ویرجینیای غربی,ساتون","latitude":"38.66454","longitude":"-80.70982","feature_class":"P","feature_code":"PPLA2","country_code":"US","cc2":"","admin1_code":"WV","admin2_code":"007","admin3_code":"","admin4_code":"","population":"994","elevation":"256","dem":"254","timezone":"America/New_York","modification_date":"2011-05-14"},{"geonameid":"4824469","name":"Teays Valley","asciiname":"Teays Valley","alternatenames":"","latitude":"38.45009","longitude":"-81.9293","feature_class":"P","feature_code":"PPL","country_code":"US","cc2":"","admin1_code":"WV","admin2_code":"079","admin3_code":"","admin4_code":"","population":"13175","elevation":"203","dem":"202","timezone":"America/New_York","modification_date":"2011-05-14"},{"geonameid":"4824515","name":"Terra Alta","asciiname":"Terra Alta","alternatenames":"","latitude":"39.44565","longitude":"-79.54644","feature_class":"P","feature_code":"PPL","country_code":"US","cc2":"","admin1_code":"WV","admin2_code":"077","admin3_code":"","admin4_code":"","population":"1477","elevation":"787","dem":"786","timezone":"America/New_York","modification_date":"2011-05-14"},{"geonameid":"4825447","name":"Union","asciiname":"Union","alternatenames":"","latitude":"37.59151","longitude":"-80.54368","feature_class":"P","feature_code":"PPLA2","country_code":"US","cc2":"","admin1_code":"WV","admin2_code":"063","admin3_code":"","admin4_code":"","population":"565","elevation":"632","dem":"631","timezone":"America/New_York","modification_date":"2011-05-14"},{"geonameid":"4825617","name":"Tornado","asciiname":"Tornado","alternatenames":"","latitude":"38.34287","longitude":"-81.8443","feature_class":"P","feature_code":"PPL","country_code":"US","cc2":"","admin1_code":"WV","admin2_code":"039","admin3_code":"","admin4_code":"","population":"3701","elevation":"187","dem":"187","timezone":"America/New_York","modification_date":"2014-10-08"},{"geonameid":"4825976","name":"Vienna","asciiname":"Vienna","alternatenames":"Vajena,Vienna,biena,fyyna,wei ye na,wyana  mghrby wrjynya,wyna  wyrjynyay ghrby,Вајена,Виенна,فيينا,ویانا، مغربی ورجینیا,وینا، ویرجینیای غربی,ビエナ,维也纳","latitude":"39.32702","longitude":"-81.54846","feature_class":"P","feature_code":"PPL","country_code":"US","cc2":"","admin1_code":"WV","admin2_code":"107","admin3_code":"","admin4_code":"","population":"10749","elevation":"194","dem":"196","timezone":"America/New_York","modification_date":"2011-05-14"},{"geonameid":"4826522","name":"Washington","asciiname":"Washington","alternatenames":"Vashington,Вашингтон","latitude":"39.26119","longitude":"-81.6718","feature_class":"P","feature_code":"PPL","country_code":"US","cc2":"","admin1_code":"WV","admin2_code":"107","admin3_code":"","admin4_code":"","population":"1175","elevation":"196","dem":"210","timezone":"America/New_York","modification_date":"2011-05-14"},{"geonameid":"4826592","name":"Wayne","asciiname":"Wayne","alternatenames":"","latitude":"38.22147","longitude":"-82.44237","feature_class":"P","feature_code":"PPLA2","country_code":"US","cc2":"","admin1_code":"WV","admin2_code":"099","admin3_code":"","admin4_code":"","population":"1413","elevation":"212","dem":"214","timezone":"America/New_York","modification_date":"2011-05-14"},{"geonameid":"4826648","name":"Webster Springs","asciiname":"Webster Springs","alternatenames":"","latitude":"38.47927","longitude":"-80.41342","feature_class":"P","feature_code":"PPLA2","country_code":"US","cc2":"","admin1_code":"WV","admin2_code":"101","admin3_code":"","admin4_code":"","population":"1009","elevation":"445","dem":"442","timezone":"America/New_York","modification_date":"2011-03-02"},{"geonameid":"4826660","name":"Welch","asciiname":"Welch","alternatenames":"Velch,wlch  wyrjynyay ghrby,wlsh,Велч,ولش,ولچ، ویرجینیای غربی","latitude":"37.43289","longitude":"-81.58455","feature_class":"P","feature_code":"PPLA2","country_code":"US","cc2":"","admin1_code":"WV","admin2_code":"047","admin3_code":"","admin4_code":"","population":"2406","elevation":"402","dem":"405","timezone":"America/New_York","modification_date":"2011-05-14"},{"geonameid":"4826808","name":"West Union","asciiname":"West Union","alternatenames":"Vest Junion,wst aywnyn  wyrjynyay ghrby,wyst ywnywn,Вест Јунион,وست ایونین، ویرجینیای غربی,ويست يونيون,ویسٹ یونین، مغربی ورجینیا","latitude":"39.29647","longitude":"-80.77705","feature_class":"P","feature_code":"PPLA2","country_code":"US","cc2":"","admin1_code":"WV","admin2_code":"017","admin3_code":"","admin4_code":"","population":"825","elevation":"240","dem":"240","timezone":"America/New_York","modification_date":"2011-05-14"},{"geonameid":"4826882","name":"Weston","asciiname":"Weston","alternatenames":"Uehston,Veston,wstwn  wyrjynyay ghrby,wystwn,Вестон,Уэстон,وستون، ویرجینیای غربی,ويستون","latitude":"39.03843","longitude":"-80.46731","feature_class":"P","feature_code":"PPLA2","country_code":"US","cc2":"","admin1_code":"WV","admin2_code":"041","admin3_code":"","admin4_code":"","population":"4110","elevation":"311","dem":"313","timezone":"America/New_York","modification_date":"2011-05-14"},{"geonameid":"4826895","name":"Westover","asciiname":"Westover","alternatenames":"","latitude":"39.63453","longitude":"-79.96979","feature_class":"P","feature_code":"PPL","country_code":"US","cc2":"","admin1_code":"WV","admin2_code":"061","admin3_code":"","admin4_code":"","population":"3983","elevation":"288","dem":"285","timezone":"America/New_York","modification_date":"2011-05-14"},{"geonameid":"4827104","name":"White Sulphur Springs","asciiname":"White Sulphur Springs","alternatenames":"Vajt Sulfer Springs,bai liu huang quan zhen,wayt salfr aspryngz  wyrjynyay ghrby,wayt swlfwr sbrynghz,Вајт Сулфер Спрингс,وايت سولفور سبرينغز,وایت سالفر اسپرینگز، ویرجینیای غربی,白硫磺泉镇","latitude":"37.79651","longitude":"-80.29757","feature_class":"P","feature_code":"PPL","country_code":"US","cc2":"","admin1_code":"WV","admin2_code":"025","admin3_code":"","admin4_code":"","population":"2444","elevation":"566","dem":"566","timezone":"America/New_York","modification_date":"2011-05-14"},{"geonameid":"4827255","name":"Wiley Ford","asciiname":"Wiley Ford","alternatenames":"","latitude":"39.61453","longitude":"-78.77502","feature_class":"P","feature_code":"PPL","country_code":"US","cc2":"","admin1_code":"WV","admin2_code":"057","admin3_code":"","admin4_code":"","population":"1026","elevation":"208","dem":"214","timezone":"America/New_York","modification_date":"2011-05-14"},{"geonameid":"4827333","name":"Williamson","asciiname":"Williamson","alternatenames":"Vilijamson,wylymsn  wyrjynyay ghrby,Вилијамсон,ویلیمسن، ویرجینیای غربی","latitude":"37.67427","longitude":"-82.27736","feature_class":"P","feature_code":"PPLA2","country_code":"US","cc2":"","admin1_code":"WV","admin2_code":"059","admin3_code":"","admin4_code":"","population":"3191","elevation":"200","dem":"200","timezone":"America/New_York","modification_date":"2011-05-14"},{"geonameid":"4827351","name":"Williamstown","asciiname":"Williamstown","alternatenames":"Vilijamstaun,wylyamstwwn  wyrjynyay ghrby,wylyamztawn,Вилијамстаун,ولیمزٹاؤن، مغربی ورجینیا,ويليامزتاون,ویلیامستوون، ویرجینیای غربی","latitude":"39.40063","longitude":"-81.44818","feature_class":"P","feature_code":"PPL","country_code":"US","cc2":"","admin1_code":"WV","admin2_code":"107","admin3_code":"","admin4_code":"","population":"2908","elevation":"193","dem":"192","timezone":"America/New_York","modification_date":"2011-05-14"},{"geonameid":"4827506","name":"Winfield","asciiname":"Winfield","alternatenames":"Vinfild,wynfyld,wynfyld  wyrjynyay ghrby,Винфилд,وينفيلد,وینفیلد، ویرجینیای غربی","latitude":"38.53314","longitude":"-81.89347","feature_class":"P","feature_code":"PPLA2","country_code":"US","cc2":"","admin1_code":"WV","admin2_code":"079","admin3_code":"","admin4_code":"","population":"2301","elevation":"183","dem":"184","timezone":"America/New_York","modification_date":"2011-05-14"},{"geonameid":"4828081","name":"Elba","asciiname":"Elba","alternatenames":"Elba,alba  alabama,aylba,e er ba,elaba,Елба,إيلبا,ئێلبا، ئەلاباما,البا، آلاباما,एलबा,厄尔巴","latitude":"31.41461","longitude":"-86.06772","feature_class":"P","feature_code":"PPLA2","country_code":"US","cc2":"","admin1_code":"AL","admin2_code":"031","admin3_code":"","admin4_code":"","population":"3940","elevation":"59","dem":"61","timezone":"America/Chicago","modification_date":"2011-05-14"},{"geonameid":"4828090","name":"Elmore","asciiname":"Elmore","alternatenames":"Elmor,ai er mo er,almwr,almwr  alabama,elmora,Елмор,إلمور,ئێلمۆر، ئەلاباما,المور، آلاباما,एल्मोर,埃尔莫尔","latitude":"32.53874","longitude":"-86.31497","feature_class":"P","feature_code":"PPL","country_code":"US","cc2":"","admin1_code":"AL","admin2_code":"051","admin3_code":"","admin4_code":"","population":"1262","elevation":"62","dem":"64","timezone":"America/Chicago","modification_date":"2011-05-14"},{"geonameid":"4828193","name":"Sherwood","asciiname":"Sherwood","alternatenames":"Shervud,seravuda,shrwwd,shyrwwd,Шервуд,شروود,شيروود,شیرووڈ، آرکنساس,शेरवूड","latitude":"34.81509","longitude":"-92.22432","feature_class":"P","feature_code":"PPL","country_code":"US","cc2":"","admin1_code":"AR","admin2_code":"119","admin3_code":"","admin4_code":"","population":"29523","elevation":"100","dem":"105","timezone":"America/Chicago","modification_date":"2011-05-14"},{"geonameid":"4828382","name":"Franklin","asciiname":"Franklin","alternatenames":"Franklin,franklyn,franklyn  ayndyana,fu lan ke lin,peulaengkeullin,Франклин,فرانكلين,فرانکلین، ایندیانا,فرینکلن، انڈیانا,富蘭克林,프랭클린","latitude":"39.48061","longitude":"-86.05499","feature_class":"P","feature_code":"PPLA2","country_code":"US","cc2":"","admin1_code":"IN","admin2_code":"081","admin3_code":"","admin4_code":"","population":"23712","elevation":"221","dem":"225","timezone":"America/Indiana/Indianapolis","modification_date":"2011-05-14"},{"geonameid":"4828384","name":"Newton","asciiname":"Newton","alternatenames":"N'juton,Njuton,n'yutana,nywtn,nywtwn  aylynwy,Њутон,Ньютон,نيوتن,نیوتون، ایلینوی,نیوٹن، الینوائے,न्युटन","latitude":"38.99088","longitude":"-88.16254","feature_class":"P","feature_code":"PPLA2","country_code":"US","cc2":"","admin1_code":"IL","admin2_code":"079","admin3_code":"","admin4_code":"","population":"2849","elevation":"163","dem":"165","timezone":"America/Chicago","modification_date":"2011-05-14"},{"geonameid":"4828677","name":"Linn","asciiname":"Linn","alternatenames":"","latitude":"38.48587","longitude":"-91.85045","feature_class":"P","feature_code":"PPLA2","country_code":"US","cc2":"","admin1_code":"MO","admin2_code":"151","admin3_code":"","admin4_code":"","population":"1459","elevation":"258","dem":"265","timezone":"America/Chicago","modification_date":"2011-05-14"},{"geonameid":"4828696","name":"Villa Ridge","asciiname":"Villa Ridge","alternatenames":"","latitude":"38.47255","longitude":"-90.8868","feature_class":"P","feature_code":"PPL","country_code":"US","cc2":"","admin1_code":"MO","admin2_code":"071","admin3_code":"","admin4_code":"","population":"2636","elevation":"201","dem":"204","timezone":"America/Chicago","modification_date":"2011-05-14"},{"geonameid":"4828755","name":"Rosedale","asciiname":"Rosedale","alternatenames":"Rouzdejl,Rozdejl,rwsdl,rwzdyl  mysysypy,Роздейл,Роуздејл,روزدیل، میسیسیپی,روزڈیل، مسیسپی,روسدل","latitude":"33.85344","longitude":"-91.02789","feature_class":"P","feature_code":"PPL","country_code":"US","cc2":"","admin1_code":"MS","admin2_code":"011","admin3_code":"","admin4_code":"","population":"1873","elevation":"46","dem":"48","timezone":"America/Chicago","modification_date":"2011-05-14"},{"geonameid":"4828766","name":"Shaw","asciiname":"Shaw","alternatenames":"","latitude":"33.60211","longitude":"-90.77458","feature_class":"P","feature_code":"PPL","country_code":"US","cc2":"","admin1_code":"MS","admin2_code":"011","admin3_code":"","admin4_code":"","population":"1952","elevation":"39","dem":"43","timezone":"America/Chicago","modification_date":"2014-11-30"},{"geonameid":"4828862","name":"Merchantville","asciiname":"Merchantville","alternatenames":"Mehrkantvill,Merchantvil,mrshantwyl  nywjrsy,Мерчантвил,Мэркантвилл,مرشانتویل، نیوجرسی","latitude":"39.94734","longitude":"-75.06656","feature_class":"P","feature_code":"PPL","country_code":"US","cc2":"","admin1_code":"NJ","admin2_code":"007","admin3_code":"","admin4_code":"","population":"3821","elevation":"14","dem":"16","timezone":"America/New_York","modification_date":"2011-05-14"},{"geonameid":"4828864","name":"Florence","asciiname":"Florence","alternatenames":"","latitude":"39.73428","longitude":"-74.91822","feature_class":"P","feature_code":"PPL","country_code":"US","cc2":"","admin1_code":"NJ","admin2_code":"007","admin3_code":"","admin4_code":"","population":"4426","elevation":"42","dem":"47","timezone":"America/New_York","modification_date":"2011-05-14"},{"geonameid":"4828875","name":"Oak Valley","asciiname":"Oak Valley","alternatenames":"","latitude":"39.80122","longitude":"-75.1624","feature_class":"P","feature_code":"PPL","country_code":"US","cc2":"","admin1_code":"NJ","admin2_code":"015","admin3_code":"","admin4_code":"","population":"3483","elevation":"20","dem":"23","timezone":"America/New_York","modification_date":"2011-05-14"},{"geonameid":"4828883","name":"Bremen","asciiname":"Bremen","alternatenames":"","latitude":"39.70173","longitude":"-82.42682","feature_class":"P","feature_code":"PPL","country_code":"US","cc2":"","admin1_code":"OH","admin2_code":"045","admin3_code":"","admin4_code":"","population":"1425","elevation":"234","dem":"240","timezone":"America/New_York","modification_date":"2011-05-14"},{"geonameid":"4828890","name":"Chillicothe","asciiname":"Chillicothe","alternatenames":"","latitude":"39.33312","longitude":"-82.9824","feature_class":"P","feature_code":"PPLA2","country_code":"US","cc2":"","admin1_code":"OH","admin2_code":"141","admin3_code":"","admin4_code":"","population":"21901","elevation":"192","dem":"196","timezone":"America/New_York","modification_date":"2011-05-14"},{"geonameid":"4828923","name":"Coalgate","asciiname":"Coalgate","alternatenames":"Koalgehjt,Koulgejt,kwalgat  aklahma,kwlghyt,Коалгэйт,Коулгејт,كولغيت,کوالگات، اکلاهما","latitude":"34.53815","longitude":"-96.21861","feature_class":"P","feature_code":"PPLA2","country_code":"US","cc2":"","admin1_code":"OK","admin2_code":"029","admin3_code":"","admin4_code":"","population":"1967","elevation":"185","dem":"193","timezone":"America/Chicago","modification_date":"2011-05-14"},{"geonameid":"4829206","name":"Dilley","asciiname":"Dilley","alternatenames":"","latitude":"28.66748","longitude":"-99.17059","feature_class":"P","feature_code":"PPL","country_code":"US","cc2":"","admin1_code":"TX","admin2_code":"163","admin3_code":"","admin4_code":"","population":"3894","elevation":"171","dem":"169","timezone":"America/Chicago","modification_date":"2011-05-14"},{"geonameid":"4829208","name":"Devine","asciiname":"Devine","alternatenames":"","latitude":"29.13996","longitude":"-98.90531","feature_class":"P","feature_code":"PPL","country_code":"US","cc2":"","admin1_code":"TX","admin2_code":"325","admin3_code":"","admin4_code":"","population":"4350","elevation":"197","dem":"200","timezone":"America/Chicago","modification_date":"2011-05-14"},{"geonameid":"4829219","name":"Hickory Creek","asciiname":"Hickory Creek","alternatenames":"","latitude":"33.12234","longitude":"-97.04306","feature_class":"P","feature_code":"PPL","country_code":"US","cc2":"","admin1_code":"TX","admin2_code":"121","admin3_code":"","admin4_code":"","population":"3247","elevation":"176","dem":"180","timezone":"America/Chicago","modification_date":"2011-05-14"},{"geonameid":"4829243","name":"Wallis","asciiname":"Wallis","alternatenames":"","latitude":"29.63135","longitude":"-96.06524","feature_class":"P","feature_code":"PPL","country_code":"US","cc2":"","admin1_code":"TX","admin2_code":"015","admin3_code":"","admin4_code":"","population":"1252","elevation":"39","dem":"41","timezone":"America/Chicago","modification_date":"2011-05-14"},{"geonameid":"4829274","name":"New Kent","asciiname":"New Kent","alternatenames":"","latitude":"37.51765","longitude":"-76.97886","feature_class":"P","feature_code":"PPLA2","country_code":"US","cc2":"","admin1_code":"VA","admin2_code":"127","admin3_code":"","admin4_code":"","population":"239","elevation":"41","dem":"44","timezone":"America/New_York","modification_date":"2011-05-14"},{"geonameid":"4829280","name":"Independence","asciiname":"Independence","alternatenames":"","latitude":"36.62245","longitude":"-81.15309","feature_class":"P","feature_code":"PPLA2","country_code":"US","cc2":"","admin1_code":"VA","admin2_code":"077","admin3_code":"","admin4_code":"","population":"947","elevation":"817","dem":"825","timezone":"America/New_York","modification_date":"2014-09-30"},{"geonameid":"4829307","name":"Bay City","asciiname":"Bay City","alternatenames":"Bej Siti,Bej-Siti,bay syty,beishiti,beisiti,by syty  tgzas,Бей-Сити,Беј Сити,باي سيتي,بی سیتی، تگزاس,ベイシティ,베이시티","latitude":"28.98276","longitude":"-95.9694","feature_class":"P","feature_code":"PPLA2","country_code":"US","cc2":"","admin1_code":"TX","admin2_code":"321","admin3_code":"","admin4_code":"","population":"17614","elevation":"16","dem":"19","timezone":"America/Chicago","modification_date":"2013-03-27"},{"geonameid":"4829341","name":"Wise","asciiname":"Wise","alternatenames":"LNP,Vajz,Вајз","latitude":"36.97593","longitude":"-82.57571","feature_class":"P","feature_code":"PPLA2","country_code":"US","cc2":"","admin1_code":"VA","admin2_code":"195","admin3_code":"","admin4_code":"","population":"3286","elevation":"747","dem":"746","timezone":"America/New_York","modification_date":"2011-05-14"},{"geonameid":"4829449","name":"Abbeville","asciiname":"Abbeville","alternatenames":"Abevil,Ebbivill,a bi wei er,abwyl  alabama,abyfyl,aebibil,ebebhila,Абевил,Еббівілл,أبيفيل,ابویل، آلاباما,एबेभिल,阿比维尔,애비빌","latitude":"31.57184","longitude":"-85.25049","feature_class":"P","feature_code":"PPLA2","country_code":"US","cc2":"","admin1_code":"AL","admin2_code":"067","admin3_code":"","admin4_code":"","population":"2688","elevation":"137","dem":"142","timezone":"America/Chicago","modification_date":"2011-05-14"},{"geonameid":"4829588","name":"Adamsville","asciiname":"Adamsville","alternatenames":"Adamsvil,Adamsvill,adamsfyl,adamzwyl,edamsabhila,ya dang si wei er,Адамсвил,Адамсвілл,آدامزویل,أدامسفيل,एडम्सभिल,亚当斯维尔","latitude":"33.60094","longitude":"-86.95611","feature_class":"P","feature_code":"PPL","country_code":"US","cc2":"","admin1_code":"AL","admin2_code":"073","admin3_code":"","admin4_code":"","population":"4522","elevation":"176","dem":"176","timezone":"America/Chicago","modification_date":"2011-05-14"},{"geonameid":"4829762","name":"Alabaster","asciiname":"Alabaster","alternatenames":"Alabaster,Alebastr,a la ba si te,alabastr  alabama,alabastyr,elbyastara,Алабастер,Алебастр,آلاباستر، آلاباما,ألاباستير,एल्ब्यास्टर,阿拉巴斯特","latitude":"33.24428","longitude":"-86.81638","feature_class":"P","feature_code":"PPL","country_code":"US","cc2":"","admin1_code":"AL","admin2_code":"117","admin3_code":"","admin4_code":"","population":"30352","elevation":"153","dem":"145","timezone":"America/Chicago","modification_date":"2011-05-14"},{"geonameid":"4829791","name":"Albertville","asciiname":"Albertville","alternatenames":"Al'bertvill,Albertvil,ai bo te wei er,albartabhila,albrt‌wyl,albyrtfyl,Албертвил,Альбертвілл,آلبرت‌ویل,ألبيرتفيل,अल्बर्टभिल,艾伯特维尔","latitude":"34.26759","longitude":"-86.20887","feature_class":"P","feature_code":"PPL","country_code":"US","cc2":"","admin1_code":"AL","admin2_code":"095","admin3_code":"","admin4_code":"","population":"21160","elevation":"322","dem":"323","timezone":"America/Chicago","modification_date":"2011-05-14"},{"geonameid":"4829843","name":"Alexander City","asciiname":"Alexander City","alternatenames":"ALX,Aleksander Siti,Aleksander-Siti,alekjendara siti,alksandr syty,alksndr syty,ya li shan da cheng,Александер Сити,Александер-Сіті,آلکساندر سیتی,ألكسندر سيتي,अलेक्जेन्डर सिटी,亚历山大城","latitude":"32.94401","longitude":"-85.95385","feature_class":"P","feature_code":"PPL","country_code":"US","cc2":"","admin1_code":"AL","admin2_code":"123","admin3_code":"","admin4_code":"","population":"14875","elevation":"214","dem":"217","timezone":"America/Chicago","modification_date":"2011-05-14"},{"geonameid":"4829861","name":"Alexandria","asciiname":"Alexandria","alternatenames":"Aleksandrija,Александрия","latitude":"33.77399","longitude":"-85.88552","feature_class":"P","feature_code":"PPL","country_code":"US","cc2":"","admin1_code":"AL","admin2_code":"015","admin3_code":"","admin4_code":"","population":"3917","elevation":"176","dem":"174","timezone":"America/Chicago","modification_date":"2011-05-14"},{"geonameid":"4829885","name":"Aliceville","asciiname":"Aliceville","alternatenames":"AIV,Alisvil,Alisvill,ai li si wei er,alysfyl,alyswyl,elisabhila,Алисвил,Алісвілл,آلیسویل,أليسفيل,एलिसभिल,艾丽斯维尔","latitude":"33.12957","longitude":"-88.15142","feature_class":"P","feature_code":"PPL","country_code":"US","cc2":"","admin1_code":"AL","admin2_code":"107","admin3_code":"","admin4_code":"","population":"2486","elevation":"58","dem":"61","timezone":"America/Chicago","modification_date":"2016-01-30"},{"geonameid":"4830099","name":"Andalusia","asciiname":"Andalusia","alternatenames":"Andalusija,Andaluzha,an da lu xi ya,andalwsya,endalusiya,Андалужа,Андалусія,آندالوسیا,أندالوسيا,एन्डालुसिया,安达卢西亚","latitude":"31.3085","longitude":"-86.48329","feature_class":"P","feature_code":"PPLA2","country_code":"US","cc2":"","admin1_code":"AL","admin2_code":"039","admin3_code":"","admin4_code":"","population":"9015","elevation":"106","dem":"106","timezone":"America/Chicago","modification_date":"2011-05-14"},{"geonameid":"4830198","name":"Anniston","asciiname":"Anniston","alternatenames":"ANB,Aniston,Anniston,aeniseuteon,an ni si dui,anisuton,annistana,annystwn,anystwn,enisatana,Анистон,Аннистон,Анністон,آنیستون,أننيستون,انیسٹن، الاباما,अन्निस्टन,एनिसटन,アニストン,安尼斯敦,애니스턴","latitude":"33.65983","longitude":"-85.83163","feature_class":"P","feature_code":"PPLA2","country_code":"US","cc2":"","admin1_code":"AL","admin2_code":"015","admin3_code":"","admin4_code":"","population":"23106","elevation":"219","dem":"215","timezone":"America/Chicago","modification_date":"2011-05-14"},{"geonameid":"4830455","name":"Arab","asciiname":"Arab","alternatenames":"Arab,Ejrab,a la bo,arab,araba,arabu,arb,Араб,Ејраб,أراب,ارب,अरब,アラブ,阿拉伯","latitude":"34.31815","longitude":"-86.49582","feature_class":"P","feature_code":"PPL","country_code":"US","cc2":"","admin1_code":"AL","admin2_code":"095","admin3_code":"","admin4_code":"","population":"8050","elevation":"336","dem":"336","timezone":"America/Chicago","modification_date":"2011-05-14"},{"geonameid":"4830478","name":"Argo","asciiname":"Argo","alternatenames":"Argo,a er ge,ago,arghw,argo,argw  alabama,Арго,Арґо,آرگو، آلاباما,أرغو,आर्गो,阿尔戈,아고","latitude":"33.68177","longitude":"-86.53054","feature_class":"P","feature_code":"PPL","country_code":"US","cc2":"","admin1_code":"AL","admin2_code":"073","admin3_code":"","admin4_code":"","population":"4071","elevation":"248","dem":"246","timezone":"America/Chicago","modification_date":"2011-05-14"},{"geonameid":"4830504","name":"Ardmore","asciiname":"Ardmore","alternatenames":"","latitude":"34.99203","longitude":"-86.84695","feature_class":"P","feature_code":"PPL","country_code":"US","cc2":"","admin1_code":"AL","admin2_code":"083","admin3_code":"","admin4_code":"","population":"1194","elevation":"269","dem":"271","timezone":"America/Chicago","modification_date":"2011-05-14"},{"geonameid":"4830668","name":"Athens","asciiname":"Athens","alternatenames":"Afini,Atens,a sen si,aeseonseu,athnz,atn  alabama,ethensa,Атенс,Афіни,آتن، آلاباما,آثنز,ایتھنز، الاباما,एथेन्स,阿森斯,애선스","latitude":"34.80287","longitude":"-86.97167","feature_class":"P","feature_code":"PPLA2","country_code":"US","cc2":"","admin1_code":"AL","admin2_code":"083","admin3_code":"","admin4_code":"","population":"21897","elevation":"220","dem":"220","timezone":"America/Chicago","modification_date":"2011-05-14"},{"geonameid":"4830684","name":"Ashford","asciiname":"Ashford","alternatenames":"Eshford,a shen fu de,ashfwrd,ashfwrd  alabama,espharda,Ешфорд,آشفورد,اشفورد، آلاباما,एश्फर्ड,阿什福德","latitude":"31.18296","longitude":"-85.23632","feature_class":"P","feature_code":"PPL","country_code":"US","cc2":"","admin1_code":"AL","admin2_code":"069","admin3_code":"","admin4_code":"","population":"2148","elevation":"76","dem":"79","timezone":"America/Chicago","modification_date":"2011-05-14"},{"geonameid":"4830687","name":"Ashland","asciiname":"Ashland","alternatenames":"Eshland,Eshlend,a shen lan,aesyullaendeu,ashland,ashlnd  alabama,eslyanda,Ешланд,Ешленд,آشلاند,اشلند، آلاباما,ایشلنڈ، الاباما,एश्ल्यान्ड,阿什兰,애슐랜드","latitude":"33.27373","longitude":"-85.83607","feature_class":"P","feature_code":"PPLA2","country_code":"US","cc2":"","admin1_code":"AL","admin2_code":"027","admin3_code":"","admin4_code":"","population":"2037","elevation":"341","dem":"343","timezone":"America/Chicago","modification_date":"2011-05-14"},{"geonameid":"4830707","name":"Ashville","asciiname":"Ashville","alternatenames":"Eshvil,Eshvill,a shen wei er,aesyubil,ashfyl,ashwyl,esbhila,Ешвил,Ешвілл,آشفيل,اشویل,एश्भिल,阿什维尔,애슈빌","latitude":"33.83704","longitude":"-86.25442","feature_class":"P","feature_code":"PPL","country_code":"US","cc2":"","admin1_code":"AL","admin2_code":"115","admin3_code":"","admin4_code":"","population":"2212","elevation":"172","dem":"173","timezone":"America/Chicago","modification_date":"2011-05-14"},{"geonameid":"4830759","name":"Atmore","asciiname":"Atmore","alternatenames":"Atmor,a te mo er,atmwr,etmora,Атмор,آتمور,أتمور,एट्मोर,阿特莫尔","latitude":"31.02379","longitude":"-87.49387","feature_class":"P","feature_code":"PPL","country_code":"US","cc2":"","admin1_code":"AL","admin2_code":"053","admin3_code":"","admin4_code":"","population":"10194","elevation":"87","dem":"89","timezone":"America/Chicago","modification_date":"2011-05-14"},{"geonameid":"4830768","name":"Attalla","asciiname":"Attalla","alternatenames":"Atala,Etolla,a ta la,atala,atilla,Атала,Етолла,آتالا,أتالا,अटिल्ला,阿塔拉","latitude":"34.02176","longitude":"-86.08859","feature_class":"P","feature_code":"PPL","country_code":"US","cc2":"","admin1_code":"AL","admin2_code":"055","admin3_code":"","admin4_code":"","population":"6048","elevation":"167","dem":"165","timezone":"America/Chicago","modification_date":"2011-05-14"},{"geonameid":"4830796","name":"Auburn","asciiname":"Auburn","alternatenames":"AUO,Obern,a'ubarna,abarna,abrn  alabama,awbwrn,oban,obeon,ou ben,Оберн,آبرن، آلاباما,آبرن، الاباما,أوبورن,अउबर्न,अबर्न,オーバーン,歐本,오번","latitude":"32.60986","longitude":"-85.48078","feature_class":"P","feature_code":"PPL","country_code":"US","cc2":"","admin1_code":"AL","admin2_code":"081","admin3_code":"","admin4_code":"","population":"53380","elevation":"215","dem":"220","timezone":"America/Chicago","modification_date":"2011-05-14"},{"geonameid":"4831176","name":"Ballplay","asciiname":"Ballplay","alternatenames":"","latitude":"34.05871","longitude":"-85.80802","feature_class":"P","feature_code":"PPL","country_code":"US","cc2":"","admin1_code":"AL","admin2_code":"055","admin3_code":"","admin4_code":"","population":"1580","elevation":"181","dem":"182","timezone":"America/Chicago","modification_date":"2011-05-14"},{"geonameid":"4831764","name":"South Coventry","asciiname":"South Coventry","alternatenames":"","latitude":"41.7701","longitude":"-72.30508","feature_class":"P","feature_code":"PPL","country_code":"US","cc2":"","admin1_code":"CT","admin2_code":"013","admin3_code":"","admin4_code":"","population":"1483","elevation":"160","dem":"160","timezone":"America/New_York","modification_date":"2011-05-14"},{"geonameid":"4831766","name":"Tariffville","asciiname":"Tariffville","alternatenames":"","latitude":"41.90871","longitude":"-72.7601","feature_class":"P","feature_code":"PPL","country_code":"US","cc2":"","admin1_code":"CT","admin2_code":"003","admin3_code":"","admin4_code":"","population":"1324","elevation":"62","dem":"55","timezone":"America/New_York","modification_date":"2011-05-14"},{"geonameid":"4831969","name":"Cos Cob","asciiname":"Cos Cob","alternatenames":"","latitude":"41.03343","longitude":"-73.59957","feature_class":"P","feature_code":"PPL","country_code":"US","cc2":"","admin1_code":"CT","admin2_code":"001","admin3_code":"","admin4_code":"","population":"6770","elevation":"15","dem":"20","timezone":"America/New_York","modification_date":"2011-05-14"},{"geonameid":"4831990","name":"Canton","asciiname":"Canton","alternatenames":"","latitude":"40.55809","longitude":"-90.03512","feature_class":"P","feature_code":"PPL","country_code":"US","cc2":"","admin1_code":"IL","admin2_code":"057","admin3_code":"","admin4_code":"","population":"14704","elevation":"197","dem":"200","timezone":"America/Chicago","modification_date":"2011-05-14"},{"geonameid":"4832014","name":"Deer Park","asciiname":"Deer Park","alternatenames":"","latitude":"41.29503","longitude":"-89.03619","feature_class":"P","feature_code":"PPL","country_code":"US","cc2":"","admin1_code":"IL","admin2_code":"099","admin3_code":"","admin4_code":"","population":"3192","elevation":"168","dem":"177","timezone":"America/Chicago","modification_date":"2006-01-17"},{"geonameid":"4832027","name":"Coventry Lake","asciiname":"Coventry Lake","alternatenames":"","latitude":"41.77232","longitude":"-72.33258","feature_class":"P","feature_code":"PPL","country_code":"US","cc2":"","admin1_code":"CT","admin2_code":"013","admin3_code":"","admin4_code":"","population":"2990","elevation":"157","dem":"159","timezone":"America/New_York","modification_date":"2011-05-14"},{"geonameid":"4832038","name":"Glendale Heights","asciiname":"Glendale Heights","alternatenames":"","latitude":"41.91031","longitude":"-88.07174","feature_class":"P","feature_code":"PPL","country_code":"US","cc2":"","admin1_code":"IL","admin2_code":"043","admin3_code":"","admin4_code":"","population":"34208","elevation":"232","dem":"235","timezone":"America/Chicago","modification_date":"2011-05-14"},{"geonameid":"4832074","name":"Lena","asciiname":"Lena","alternatenames":"Lina,lena,lyna,Лина,لينا,लेना","latitude":"42.37946","longitude":"-89.82234","feature_class":"P","feature_code":"PPL","country_code":"US","cc2":"","admin1_code":"IL","admin2_code":"177","admin3_code":"","admin4_code":"","population":"2912","elevation":"289","dem":"293","timezone":"America/Chicago","modification_date":"2011-05-14"},{"geonameid":"4832121","name":"Cromwell","asciiname":"Cromwell","alternatenames":"Kromvehll,Kromvel',Kromvell,krwmwyl,Кромвелл,Кромвель,Кромвэлл,كرومويل,کرامویل، کنیکٹیکٹ","latitude":"41.5951","longitude":"-72.64537","feature_class":"P","feature_code":"PPL","country_code":"US","cc2":"","admin1_code":"CT","admin2_code":"007","admin3_code":"","admin4_code":"","population":"13750","elevation":"4","dem":"11","timezone":"America/New_York","modification_date":"2006-01-17"},{"geonameid":"4832176","name":"East Falmouth","asciiname":"East Falmouth","alternatenames":"","latitude":"41.57844","longitude":"-70.55864","feature_class":"P","feature_code":"PPL","country_code":"US","cc2":"","admin1_code":"MA","admin2_code":"001","admin3_code":"","admin4_code":"","population":"6038","elevation":"11","dem":"11","timezone":"America/New_York","modification_date":"2011-05-14"},{"geonameid":"4832225","name":"Crystal Lake","asciiname":"Crystal Lake","alternatenames":"","latitude":"41.93176","longitude":"-72.37842","feature_class":"P","feature_code":"PPL","country_code":"US","cc2":"","admin1_code":"CT","admin2_code":"013","admin3_code":"","admin4_code":"","population":"1945","elevation":"208","dem":"213","timezone":"America/New_York","modification_date":"2011-05-14"},{"geonameid":"4832272","name":"North Andover","asciiname":"North Andover","alternatenames":"Andover Septentrionalis,Nors Andover,andrwr shmaly  masachwst,Норс Андовер,اندرور شمالی، ماساچوست","latitude":"42.6987","longitude":"-71.13506","feature_class":"P","feature_code":"PPL","country_code":"US","cc2":"","admin1_code":"MA","admin2_code":"009","admin3_code":"","admin4_code":"","population":"28222","elevation":"29","dem":"31","timezone":"America/New_York","modification_date":"2010-02-15"},{"geonameid":"4832294","name":"Revere","asciiname":"Revere","alternatenames":"Rehvia,Revir,Riviur,li wei er,libieo,rfyr,ribia,rwy‌yr  masachwst,Ревир,Ривиър,Рэвиа,راویر، میساچوسٹس,رفير,روی‌یر، ماساچوست,リビア,里维尔,리비어","latitude":"42.40843","longitude":"-71.01199","feature_class":"P","feature_code":"PPL","country_code":"US","cc2":"","admin1_code":"MA","admin2_code":"025","admin3_code":"","admin4_code":"","population":"51755","elevation":"3","dem":"8","timezone":"America/New_York","modification_date":"2011-05-14"},{"geonameid":"4832322","name":"West Barnstable","asciiname":"West Barnstable","alternatenames":"","latitude":"41.70566","longitude":"-70.37447","feature_class":"P","feature_code":"PPL","country_code":"US","cc2":"","admin1_code":"MA","admin2_code":"001","admin3_code":"","admin4_code":"","population":"1508","elevation":"13","dem":"14","timezone":"America/New_York","modification_date":"2006-01-15"},{"geonameid":"4832342","name":"Alfred","asciiname":"Alfred","alternatenames":"Al'frehd,Alfred,ai er fu lei de,alfrd  mayn,arufureddo,Алфред,Альфрэд,آلفرد، ماین,アルフレッド,艾尔弗雷德","latitude":"43.47647","longitude":"-70.71839","feature_class":"P","feature_code":"PPLA2","country_code":"US","cc2":"","admin1_code":"ME","admin2_code":"031","admin3_code":"","admin4_code":"","population":"2596","elevation":"77","dem":"83","timezone":"America/New_York","modification_date":"2011-03-02"},{"geonameid":"4832353","name":"Danbury","asciiname":"Danbury","alternatenames":"DXR,Danberi,Danbjuri,Danburi,daenbeli,dan bo li,danberi,danbry,danbry  kntykt,denabari,dyanabari,Данбери,Данбері,Данбъри,Данбюри,دانبري,دانبری، کنتیکت,ڈینبری، کنیکٹیکٹ,डॅनबरी,ड्यानबरी,แดนเบอรี,ダンベリー,丹伯里,댄베리","latitude":"41.39482","longitude":"-73.45401","feature_class":"P","feature_code":"PPL","country_code":"US","cc2":"","admin1_code":"CT","admin2_code":"001","admin3_code":"","admin4_code":"","population":"80893","elevation":"121","dem":"126","timezone":"America/New_York","modification_date":"2011-05-14"},{"geonameid":"4832356","name":"Berwick","asciiname":"Berwick","alternatenames":"Behrvik,Vervik,Бэрвик,Вервик","latitude":"43.26592","longitude":"-70.8645","feature_class":"P","feature_code":"PPL","country_code":"US","cc2":"","admin1_code":"ME","admin2_code":"031","admin3_code":"","admin4_code":"","population":"2187","elevation":"52","dem":"57","timezone":"America/New_York","modification_date":"2011-05-14"},{"geonameid":"4832408","name":"Hope","asciiname":"Hope","alternatenames":"","latitude":"44.26508","longitude":"-69.15893","feature_class":"P","feature_code":"PPL","country_code":"US","cc2":"","admin1_code":"ME","admin2_code":"013","admin3_code":"","admin4_code":"","population":"1362","elevation":"108","dem":"109","timezone":"America/New_York","modification_date":"2006-01-17"},{"geonameid":"4832411","name":"Danielson","asciiname":"Danielson","alternatenames":"Danijelson,dyaniyalasana,Данијелсон,ड्यानियलसन","latitude":"41.8026","longitude":"-71.88591","feature_class":"P","feature_code":"PPL","country_code":"US","cc2":"","admin1_code":"CT","admin2_code":"015","admin3_code":"","admin4_code":"","population":"4051","elevation":"67","dem":"66","timezone":"America/New_York","modification_date":"2011-05-14"},{"geonameid":"4832425","name":"Darien","asciiname":"Darien","alternatenames":"Dariehn,Dehrien,Derijen,daelien,daryn,deriyana,Дариэн,Деријен,Дэриен,دارين,ڈیرین، کنیکٹیکٹ,डेरियन,대리엔","latitude":"41.07871","longitude":"-73.46929","feature_class":"P","feature_code":"PPL","country_code":"US","cc2":"","admin1_code":"CT","admin2_code":"001","admin3_code":"","admin4_code":"","population":"20732","elevation":"14","dem":"19","timezone":"America/New_York","modification_date":"2011-05-14"},{"geonameid":"4832458","name":"Rockland","asciiname":"Rockland","alternatenames":"RKD,Rokland,Roklend,luo ke lan,raklnd  myn,rokkurando,rwkland,Рокланд,Рокленд,راکلند، مین,راکلینڈ، میئن,روكلاند,ロックランド,罗克兰","latitude":"44.10369","longitude":"-69.10893","feature_class":"P","feature_code":"PPLA2","country_code":"US","cc2":"","admin1_code":"ME","admin2_code":"013","admin3_code":"","admin4_code":"","population":"7297","elevation":"7","dem":"10","timezone":"America/New_York","modification_date":"2011-05-14"},{"geonameid":"4832484","name":"Union","asciiname":"Union","alternatenames":"","latitude":"44.21147","longitude":"-69.27421","feature_class":"P","feature_code":"PPL","country_code":"US","cc2":"","admin1_code":"ME","admin2_code":"013","admin3_code":"","admin4_code":"","population":"2297","elevation":"28","dem":"29","timezone":"America/New_York","modification_date":"2006-01-17"},{"geonameid":"4832554","name":"Inkster","asciiname":"Inkster","alternatenames":"Inkster,ankstr,aynkstr  myshygan,Инкстер,إنكستر,اینکستر، میشیگان","latitude":"42.2942","longitude":"-83.30993","feature_class":"P","feature_code":"PPL","country_code":"US","cc2":"","admin1_code":"MI","admin2_code":"163","admin3_code":"","admin4_code":"","population":"25369","elevation":"191","dem":"191","timezone":"America/Detroit","modification_date":"2011-05-14"},{"geonameid":"4832684","name":"Edina","asciiname":"Edina","alternatenames":"Edin,Един","latitude":"40.16754","longitude":"-92.17268","feature_class":"P","feature_code":"PPLA2","country_code":"US","cc2":"","admin1_code":"MO","admin2_code":"103","admin3_code":"","admin4_code":"","population":"1176","elevation":"248","dem":"249","timezone":"America/Chicago","modification_date":"2011-05-14"},{"geonameid":"4832745","name":"Derby","asciiname":"Derby","alternatenames":"Dehrbi,Derbi,dabi,darbi,de bi,drby,drby  kntykt,Дерби,Дербі,Дэрби,برمنگھم، کنیکٹیکٹ,دربي,دربی، کنتیکت,डर्बी,ダービー,德比","latitude":"41.32065","longitude":"-73.089","feature_class":"P","feature_code":"PPL","country_code":"US","cc2":"","admin1_code":"CT","admin2_code":"009","admin3_code":"","admin4_code":"","population":"12902","elevation":"31","dem":"25","timezone":"America/New_York","modification_date":"2011-05-14"},{"geonameid":"4833084","name":"Yardville","asciiname":"Yardville","alternatenames":"","latitude":"40.18122","longitude":"-74.66432","feature_class":"P","feature_code":"PPL","country_code":"US","cc2":"","admin1_code":"NJ","admin2_code":"021","admin3_code":"","admin4_code":"","population":"7186","elevation":"18","dem":"22","timezone":"America/New_York","modification_date":"2011-05-14"},{"geonameid":"4833098","name":"Camillus","asciiname":"Camillus","alternatenames":"","latitude":"43.03923","longitude":"-76.3041","feature_class":"P","feature_code":"PPL","country_code":"US","cc2":"","admin1_code":"NY","admin2_code":"067","admin3_code":"","admin4_code":"","population":"1213","elevation":"132","dem":"134","timezone":"America/New_York","modification_date":"2011-05-14"},{"geonameid":"4833108","name":"Clyde","asciiname":"Clyde","alternatenames":"","latitude":"43.08423","longitude":"-76.8694","feature_class":"P","feature_code":"PPL","country_code":"US","cc2":"","admin1_code":"NY","admin2_code":"117","admin3_code":"","admin4_code":"","population":"2093","elevation":"122","dem":"124","timezone":"America/New_York","modification_date":"2011-05-14"},{"geonameid":"4833123","name":"Durham","asciiname":"Durham","alternatenames":"Daram,Darem,Durkham,dar'hyama,dwrham,Дарам,Дарем,Дурхам,دورهام,ڈرہم، کنیکٹیکٹ,डर्ह्याम","latitude":"41.48176","longitude":"-72.68121","feature_class":"P","feature_code":"PPL","country_code":"US","cc2":"","admin1_code":"CT","admin2_code":"007","admin3_code":"","admin4_code":"","population":"2933","elevation":"69","dem":"73","timezone":"America/New_York","modification_date":"2011-05-14"},{"geonameid":"4833272","name":"Wayland","asciiname":"Wayland","alternatenames":"","latitude":"42.56784","longitude":"-77.58971","feature_class":"P","feature_code":"PPL","country_code":"US","cc2":"","admin1_code":"NY","admin2_code":"101","admin3_code":"","admin4_code":"","population":"1865","elevation":"419","dem":"418","timezone":"America/New_York","modification_date":"2011-05-14"},{"geonameid":"4833276","name":"Watervliet","asciiname":"Watervliet","alternatenames":"Vatervlejt,Votervlit,watrwyt  nywywrk,wtrflyt,Ватервлейт,Вотервлит,واترویت، نیویورک,وترفليت","latitude":"42.73008","longitude":"-73.70123","feature_class":"P","feature_code":"PPL","country_code":"US","cc2":"","admin1_code":"NY","admin2_code":"001","admin3_code":"","admin4_code":"","population":"10254","elevation":"9","dem":"7","timezone":"America/New_York","modification_date":"2011-05-14"},{"geonameid":"4833279","name":"East Brooklyn","asciiname":"East Brooklyn","alternatenames":"","latitude":"41.79677","longitude":"-71.89729","feature_class":"P","feature_code":"PPL","country_code":"US","cc2":"","admin1_code":"CT","admin2_code":"015","admin3_code":"","admin4_code":"","population":"1638","elevation":"84","dem":"86","timezone":"America/New_York","modification_date":"2011-05-14"},{"geonameid":"4833304","name":"Camden","asciiname":"Camden","alternatenames":"","latitude":"41.23783","longitude":"-82.30572","feature_class":"P","feature_code":"PPL","country_code":"US","cc2":"","admin1_code":"OH","admin2_code":"093","admin3_code":"","admin4_code":"","population":"2281","elevation":"264","dem":"265","timezone":"America/New_York","modification_date":"2006-01-17"},{"geonameid":"4833320","name":"Cleveland Heights","asciiname":"Cleveland Heights","alternatenames":"Klevalehnd Khehjts,Kliveland Khajts,Klivlend-Khajts,ke li fu lan gao de,klyfland hayts,klywlnd hayts  awhayw,Клевалэнд Хэйтс,Кливеланд Хајтс,Кливленд-Хайтс,كليفلاند هايتس,کلیولند هایتس، اوهایو,克利夫兰高地","latitude":"41.52005","longitude":"-81.55624","feature_class":"P","feature_code":"PPL","country_code":"US","cc2":"","admin1_code":"OH","admin2_code":"035","admin3_code":"","admin4_code":"","population":"46121","elevation":"285","dem":"288","timezone":"America/New_York","modification_date":"2011-05-14"},{"geonameid":"4833348","name":"Genoa","asciiname":"Genoa","alternatenames":"","latitude":"41.51811","longitude":"-83.35909","feature_class":"P","feature_code":"PPL","country_code":"US","cc2":"","admin1_code":"OH","admin2_code":"123","admin3_code":"","admin4_code":"","population":"2336","elevation":"190","dem":"191","timezone":"America/New_York","modification_date":"2011-05-14"},{"geonameid":"4833363","name":"East Haddam","asciiname":"East Haddam","alternatenames":"Ist Khaddam,ayst hadam,Ист Хаддам,إيست هادام,ایسٹ ہیڈام، کنیکٹیکٹ","latitude":"41.45315","longitude":"-72.4612","feature_class":"P","feature_code":"PPL","country_code":"US","cc2":"","admin1_code":"CT","admin2_code":"007","admin3_code":"","admin4_code":"","population":"9042","elevation":"11","dem":"14","timezone":"America/New_York","modification_date":"2006-01-17"},{"geonameid":"4833387","name":"East Hampton","asciiname":"East Hampton","alternatenames":"Ist Khehmpton,Ist Khempton,ayst hambtwn,ista hyamptana,Ист Хемптон,Ист Хэмптон,إيست هامبتون,ایسٹ ہیمپٹن، کنیکٹیکٹ,इस्ट ह्याम्प्टन","latitude":"41.57593","longitude":"-72.50259","feature_class":"P","feature_code":"PPL","country_code":"US","cc2":"","admin1_code":"CT","admin2_code":"007","admin3_code":"","admin4_code":"","population":"2691","elevation":"122","dem":"123","timezone":"America/New_York","modification_date":"2011-05-14"},{"geonameid":"4833403","name":"East Hartford","asciiname":"East Hartford","alternatenames":"EHT,Ist Khartford,ayst hartfwrd,ista hartapharda,isutohatofodo,Ист Хартфорд,إيست هارتفورد,ایسٹ ہارٹفورڈ، کنیکٹیکٹ,इस्ट हार्टफर्ड,イーストハートフォード","latitude":"41.78232","longitude":"-72.61203","feature_class":"P","feature_code":"PPL","country_code":"US","cc2":"","admin1_code":"CT","admin2_code":"003","admin3_code":"","admin4_code":"","population":"51252","elevation":"16","dem":"19","timezone":"America/New_York","modification_date":"2013-04-04"},{"geonameid":"4833425","name":"East Haven","asciiname":"East Haven","alternatenames":"Ist Khehven,Ist Khejven,ayst hyfn,ista hyabhena,Ист Хејвен,Ист Хэвен,إيست هيفن,ایسٹ ہیون، کنیکٹیکٹ,इस्ट ह्याभेन","latitude":"41.27621","longitude":"-72.86843","feature_class":"P","feature_code":"PPL","country_code":"US","cc2":"","admin1_code":"CT","admin2_code":"009","admin3_code":"","admin4_code":"","population":"29257","elevation":"7","dem":"10","timezone":"America/New_York","modification_date":"2011-05-14"},{"geonameid":"4833478","name":"Carnegie","asciiname":"Carnegie","alternatenames":"Karnegi,Карнеги","latitude":"40.40868","longitude":"-80.08339","feature_class":"P","feature_code":"PPL","country_code":"US","cc2":"","admin1_code":"PA","admin2_code":"003","admin3_code":"","admin4_code":"","population":"7972","elevation":"236","dem":"239","timezone":"America/New_York","modification_date":"2011-05-14"},{"geonameid":"4833505","name":"East Norwalk","asciiname":"East Norwalk","alternatenames":"","latitude":"41.10565","longitude":"-73.39845","feature_class":"P","feature_code":"PPL","country_code":"US","cc2":"","admin1_code":"CT","admin2_code":"001","admin3_code":"","admin4_code":"","population":"84530","elevation":"10","dem":"21","timezone":"America/New_York","modification_date":"2006-01-17"},{"geonameid":"4833760","name":"Hayti","asciiname":"Hayti","alternatenames":"","latitude":"44.65719","longitude":"-97.20507","feature_class":"P","feature_code":"PPLA2","country_code":"US","cc2":"","admin1_code":"SD","admin2_code":"057","admin3_code":"","admin4_code":"","population":"381","elevation":"517","dem":"517","timezone":"America/Chicago","modification_date":"2011-05-14"},{"geonameid":"4833883","name":"Ellington","asciiname":"Ellington","alternatenames":"Ehllington,alynghtwn,Эллингтон,إلينغتون,ایلنگٹن، کنیکٹیکٹ","latitude":"41.90399","longitude":"-72.46981","feature_class":"P","feature_code":"PPL","country_code":"US","cc2":"","admin1_code":"CT","admin2_code":"013","admin3_code":"","admin4_code":"","population":"14693","elevation":"73","dem":"80","timezone":"America/New_York","modification_date":"2006-01-17"},{"geonameid":"4834040","name":"Enfield","asciiname":"Enfield","alternatenames":"Ehnfild,aynfyld,enfirudo,Энфилд,إينفيلد,اینفیلڈ، کنیکٹیکٹ,エンフィールド","latitude":"41.97621","longitude":"-72.59176","feature_class":"P","feature_code":"PPL","country_code":"US","cc2":"","admin1_code":"CT","admin2_code":"003","admin3_code":"","admin4_code":"","population":"45212","elevation":"47","dem":"53","timezone":"America/New_York","modification_date":"2012-06-29"},{"geonameid":"4834157","name":"Fairfield","asciiname":"Fairfield","alternatenames":"Fajrfild,Fehrfild,Fejrfild,Feurfijld,Feurfild,feafirudo,fei er fei er de,fyrfyld,fyrfyld  kntykt,peeopildeu,Файрфилд,Фейрфілд,Феърфийлд,Феърфилд,Фэрфилд,فيرفيلد,فیئرفیلڈ، کونیکٹیکٹ,فیرفیلد، کنتیکت,フェアフィールド,費爾菲爾德,페어필드","latitude":"41.14121","longitude":"-73.26373","feature_class":"P","feature_code":"PPL","country_code":"US","cc2":"","admin1_code":"CT","admin2_code":"001","admin3_code":"","admin4_code":"","population":"59052","elevation":"10","dem":"5","timezone":"America/New_York","modification_date":"2010-01-29"},{"geonameid":"4834272","name":"Farmington","asciiname":"Farmington","alternatenames":"Farmington,farmnghtwn,farmyngtwn  kntykt,Фармингтон,Фармінґтон,فارمنغتون,فارمنگٹن، کنیکٹیکٹ,فارمینگتون، کنتیکت","latitude":"41.71982","longitude":"-72.83204","feature_class":"P","feature_code":"PPL","country_code":"US","cc2":"","admin1_code":"CT","admin2_code":"003","admin3_code":"","admin4_code":"","population":"25000","elevation":"74","dem":"80","timezone":"America/New_York","modification_date":"2009-01-30"},{"geonameid":"4834837","name":"Gales Ferry","asciiname":"Gales Ferry","alternatenames":"","latitude":"41.42982","longitude":"-72.08202","feature_class":"P","feature_code":"PPL","country_code":"US","cc2":"","admin1_code":"CT","admin2_code":"011","admin3_code":"","admin4_code":"","population":"1162","elevation":"15","dem":"16","timezone":"America/New_York","modification_date":"2011-05-14"},{"geonameid":"4834938","name":"Georgetown","asciiname":"Georgetown","alternatenames":"","latitude":"41.25565","longitude":"-73.43484","feature_class":"P","feature_code":"PPL","country_code":"US","cc2":"","admin1_code":"CT","admin2_code":"001","admin3_code":"","admin4_code":"","population":"1805","elevation":"108","dem":"112","timezone":"America/New_York","modification_date":"2011-05-14"},{"geonameid":"4835003","name":"Glastonbury","asciiname":"Glastonbury","alternatenames":"Glastonberi,Glastonbjuri,ghlastwnbwry,Гластонбери,Гластонбюри,غلاستونبوري,گلیسٹنبری، کنیکٹیکٹ","latitude":"41.71232","longitude":"-72.60815","feature_class":"P","feature_code":"PPL","country_code":"US","cc2":"","admin1_code":"CT","admin2_code":"003","admin3_code":"","admin4_code":"","population":"31876","elevation":"19","dem":"19","timezone":"America/New_York","modification_date":"2010-01-29"},{"geonameid":"4835004","name":"Glastonbury Center","asciiname":"Glastonbury Center","alternatenames":"","latitude":"41.70093","longitude":"-72.59953","feature_class":"P","feature_code":"PPL","country_code":"US","cc2":"","admin1_code":"CT","admin2_code":"003","admin3_code":"","admin4_code":"","population":"7387","elevation":"21","dem":"19","timezone":"America/New_York","modification_date":"2011-05-14"},{"geonameid":"4835032","name":"Glenville","asciiname":"Glenville","alternatenames":"","latitude":"41.03538","longitude":"-73.65985","feature_class":"P","feature_code":"PPL","country_code":"US","cc2":"","admin1_code":"CT","admin2_code":"001","admin3_code":"","admin4_code":"","population":"2327","elevation":"52","dem":"55","timezone":"America/New_York","modification_date":"2011-05-14"},{"geonameid":"4835395","name":"Greenwich","asciiname":"Greenwich","alternatenames":"Grinuich,Grinvich,ge lin ni zhi,geulinichi,ghrynwytsh,grynwych  kntykt,gurinijji,Гринвич,Гринуич,Ґринвіч,غرينويتش,گرینویچ، کنتیکت,گرینچ، کنیکٹیکٹ,グリニッジ,格林尼治,그리니치","latitude":"41.02649","longitude":"-73.62846","feature_class":"P","feature_code":"PPL","country_code":"US","cc2":"","admin1_code":"CT","admin2_code":"001","admin3_code":"","admin4_code":"","population":"12942","elevation":"28","dem":"35","timezone":"America/New_York","modification_date":"2011-05-14"},{"geonameid":"4835461","name":"Groton","asciiname":"Groton","alternatenames":"GON,Groton,Grotun,ge luo dun shi,grotana,guroton,Гротон,Гротън,Ґротон,ग्रोटन,グロトン,格罗顿市","latitude":"41.3501","longitude":"-72.07841","feature_class":"P","feature_code":"PPL","country_code":"US","cc2":"","admin1_code":"CT","admin2_code":"011","admin3_code":"","admin4_code":"","population":"10389","elevation":"24","dem":"28","timezone":"America/New_York","modification_date":"2011-05-14"},{"geonameid":"4835512","name":"Guilford","asciiname":"Guilford","alternatenames":"Gilford,Gilford Senter,Guilford Center,ghwylfwrd,gilapharda sentara,Гилфорд,Гилфорд Сентер,غويلفورد,گیلفورڈ، کنیکٹیکٹ,गिलफर्ड सेन्टर","latitude":"41.28899","longitude":"-72.68176","feature_class":"P","feature_code":"PPL","country_code":"US","cc2":"","admin1_code":"CT","admin2_code":"009","admin3_code":"","admin4_code":"","population":"22498","elevation":"14","dem":"11","timezone":"America/New_York","modification_date":"2010-01-29"},{"geonameid":"4835654","name":"Hamden","asciiname":"Hamden","alternatenames":"Khamdehn,hamdn,hamuden,Хамдэн,هامدن,ہیمڈن، کنیکٹیکٹ,ハムデン","latitude":"41.39593","longitude":"-72.89677","feature_class":"P","feature_code":"PPL","country_code":"US","cc2":"","admin1_code":"CT","admin2_code":"009","admin3_code":"","admin4_code":"","population":"59847","elevation":"31","dem":"32","timezone":"America/New_York","modification_date":"2006-01-17"},{"geonameid":"4835797","name":"Hartford","asciiname":"Hartford","alternatenames":"Chartfornt,Gartford,Gorad Khartfard,HFD,Halakepoka,Hartford,Hartforda,Hartfordas,Hartfordia,Hartfords,Hārtforda,Kharford,Khartford,Siti of Khartford,ha te fu,hartafard,hartaforda,hartapharda,hartaphorda,hartfwrd,hartfwrd  kntykt,hartpart,hateupeodeu,hatofodo,hrtpwrd,Χάρτφορντ,Гартфорд,Горад Хартфард,Сити оф Хартфорд,Хартфорд,Харфорд,Ҳартфорд,Հարթֆորդ,הרטפורד,هارتفورد,هارتفورد، کنتیکت,ہارٹفورڈ,ہارٹفورڈ، کنیکٹیکٹ,हार्टफर्ड,हार्टफ़र्ड्,हार्टफ़ोर्ड,हार्टफोर्ड,हार्तफर्द,ஹார்ட்பர்ட்,ハートフォード,哈特福,하트퍼드","latitude":"41.76371","longitude":"-72.68509","feature_class":"P","feature_code":"PPLA","country_code":"US","cc2":"","admin1_code":"CT","admin2_code":"003","admin3_code":"","admin4_code":"","population":"124775","elevation":"18","dem":"27","timezone":"America/New_York","modification_date":"2011-05-14"},{"geonameid":"4835946","name":"Hazardville","asciiname":"Hazardville","alternatenames":"","latitude":"41.98732","longitude":"-72.54481","feature_class":"P","feature_code":"PPL","country_code":"US","cc2":"","admin1_code":"CT","admin2_code":"003","admin3_code":"","admin4_code":"","population":"4599","elevation":"56","dem":"54","timezone":"America/New_York","modification_date":"2011-05-14"},{"geonameid":"4835969","name":"Hebron","asciiname":"Hebron","alternatenames":"Khehbron,hybrwn,Хэброн,حبرون، کنیکٹیکٹ,هيبرون","latitude":"41.65788","longitude":"-72.36592","feature_class":"P","feature_code":"PPL","country_code":"US","cc2":"","admin1_code":"CT","admin2_code":"013","admin3_code":"","admin4_code":"","population":"9298","elevation":"168","dem":"169","timezone":"America/New_York","modification_date":"2006-01-17"},{"geonameid":"4836026","name":"Heritage Village","asciiname":"Heritage Village","alternatenames":"","latitude":"41.48565","longitude":"-73.23789","feature_class":"P","feature_code":"PPL","country_code":"US","cc2":"","admin1_code":"CT","admin2_code":"009","admin3_code":"","admin4_code":"","population":"3736","elevation":"108","dem":"104","timezone":"America/New_York","modification_date":"2011-05-14"},{"geonameid":"4836058","name":"Higganum","asciiname":"Higganum","alternatenames":"","latitude":"41.49704","longitude":"-72.55703","feature_class":"P","feature_code":"PPL","country_code":"US","cc2":"","admin1_code":"CT","admin2_code":"007","admin3_code":"","admin4_code":"","population":"1698","elevation":"21","dem":"28","timezone":"America/New_York","modification_date":"2011-05-14"},{"geonameid":"4836993","name":"Jewett City","asciiname":"Jewett City","alternatenames":"","latitude":"41.60677","longitude":"-71.98091","feature_class":"P","feature_code":"PPL","country_code":"US","cc2":"","admin1_code":"CT","admin2_code":"011","admin3_code":"","admin4_code":"","population":"3487","elevation":"47","dem":"46","timezone":"America/New_York","modification_date":"2011-05-14"},{"geonameid":"4837222","name":"Kensington","asciiname":"Kensington","alternatenames":"","latitude":"41.63538","longitude":"-72.76871","feature_class":"P","feature_code":"PPL","country_code":"US","cc2":"","admin1_code":"CT","admin2_code":"003","admin3_code":"","admin4_code":"","population":"8459","elevation":"24","dem":"26","timezone":"America/New_York","modification_date":"2011-05-14"},{"geonameid":"4837232","name":"Kent","asciiname":"Kent","alternatenames":"Kent,knt  kntykt,kynt,Кент,كينت,کنت، کنتیکت,کینٹ، کنیکٹیکٹ","latitude":"41.72482","longitude":"-73.47707","feature_class":"P","feature_code":"PPL","country_code":"US","cc2":"","admin1_code":"CT","admin2_code":"005","admin3_code":"","admin4_code":"","population":"2858","elevation":"119","dem":"123","timezone":"America/New_York","modification_date":"2012-06-29"},{"geonameid":"4837278","name":"Killingly Center","asciiname":"Killingly Center","alternatenames":"","latitude":"41.83871","longitude":"-71.86924","feature_class":"P","feature_code":"PPL","country_code":"US","cc2":"","admin1_code":"CT","admin2_code":"015","admin3_code":"","admin4_code":"","population":"17282","elevation":"103","dem":"104","timezone":"America/New_York","modification_date":"2006-01-17"},{"geonameid":"4837466","name":"Lake Pocotopaug","asciiname":"Lake Pocotopaug","alternatenames":"","latitude":"41.59843","longitude":"-72.51037","feature_class":"P","feature_code":"PPL","country_code":"US","cc2":"","admin1_code":"CT","admin2_code":"007","admin3_code":"","admin4_code":"","population":"3436","elevation":"142","dem":"141","timezone":"America/New_York","modification_date":"2011-05-14"},{"geonameid":"4837648","name":"Ledyard Center","asciiname":"Ledyard Center","alternatenames":"","latitude":"41.43982","longitude":"-72.01424","feature_class":"P","feature_code":"PPL","country_code":"US","cc2":"","admin1_code":"CT","admin2_code":"011","admin3_code":"","admin4_code":"","population":"15212","elevation":"89","dem":"100","timezone":"America/New_York","modification_date":"2006-01-17"},{"geonameid":"4837798","name":"Lisbon","asciiname":"Lisbon","alternatenames":"","latitude":"41.60399","longitude":"-72.01174","feature_class":"P","feature_code":"PPL","country_code":"US","cc2":"","admin1_code":"CT","admin2_code":"011","admin3_code":"","admin4_code":"","population":"4234","elevation":"100","dem":"107","timezone":"America/New_York","modification_date":"2010-03-06"},{"geonameid":"4837799","name":"Litchfield","asciiname":"Litchfield","alternatenames":"Lichfijld,Lichfild,Litcfeld,Litchfild,Litçfeld,licaphilda,lytshfyld,ritchifirudo,Литчфилд,Личфийлд,Личфилд,ليتشفيلد,لچفیلڈ، کنیکٹیکٹ,लिचफिल्ड,リッチフィールド","latitude":"41.74732","longitude":"-73.18872","feature_class":"P","feature_code":"PPL","country_code":"US","cc2":"","admin1_code":"CT","admin2_code":"005","admin3_code":"","admin4_code":"","population":"1258","elevation":"331","dem":"335","timezone":"America/New_York","modification_date":"2011-05-14"},{"geonameid":"4837916","name":"Long Hill","asciiname":"Long Hill","alternatenames":"Long Hill","latitude":"41.35399","longitude":"-72.0523","feature_class":"P","feature_code":"PPL","country_code":"US","cc2":"","admin1_code":"CT","admin2_code":"011","admin3_code":"","admin4_code":"","population":"4205","elevation":"8","dem":"14","timezone":"America/New_York","modification_date":"2011-05-14"},{"geonameid":"4838116","name":"Madison","asciiname":"Madison","alternatenames":"Madison,Madison Center,Medison,Medison Senter,Mehdison,madyswn,myadisana sentara,Мадисон,Медисон Сентер,Медісон,Мэдисон,ماديسون,میڈیسون، کونیکٹیکوٹ,म्याडिसन सेन्टर","latitude":"41.27954","longitude":"-72.59843","feature_class":"P","feature_code":"PPL","country_code":"US","cc2":"","admin1_code":"CT","admin2_code":"009","admin3_code":"","admin4_code":"","population":"19100","elevation":"7","dem":"6","timezone":"America/New_York","modification_date":"2010-01-29"},{"geonameid":"4838174","name":"Manchester","asciiname":"Manchester","alternatenames":"Central Manchester,Manchester,manchesuta,manshstr,mnchstr  kntykt,sentrala myancestara,Манчестер,مانشستر,مانچسٹر، کنیکٹیکٹ,منچستر، کنتیکت,सेन्ट्रल म्यांचेस्टर,マンチェスター","latitude":"41.77593","longitude":"-72.52148","feature_class":"P","feature_code":"PPL","country_code":"US","cc2":"","admin1_code":"CT","admin2_code":"003","admin3_code":"","admin4_code":"","population":"30577","elevation":"83","dem":"87","timezone":"America/New_York","modification_date":"2011-05-15"},{"geonameid":"4838204","name":"Mansfield City","asciiname":"Mansfield City","alternatenames":"","latitude":"41.76593","longitude":"-72.23369","feature_class":"P","feature_code":"PPL","country_code":"US","cc2":"","admin1_code":"CT","admin2_code":"013","admin3_code":"","admin4_code":"","population":"26439","elevation":"151","dem":"154","timezone":"America/New_York","modification_date":"2006-01-17"},{"geonameid":"4838524","name":"Meriden","asciiname":"Meriden","alternatenames":"Meridehn,Meriden,mei li deng,meriden,meridena,mrydn  kntykt,myrydyan,Мериден,Меридэн,Меріден,مریدن، کنتیکت,ميريديان,میریڈن، کنیکٹیکٹ,मेरिडेन,メリデン,梅里登","latitude":"41.53815","longitude":"-72.80704","feature_class":"P","feature_code":"PPL","country_code":"US","cc2":"","admin1_code":"CT","admin2_code":"009","admin3_code":"","admin4_code":"","population":"60868","elevation":"54","dem":"52","timezone":"America/New_York","modification_date":"2011-05-14"},{"geonameid":"4838611","name":"Middlebury","asciiname":"Middlebury","alternatenames":"Middlbjuri,Middlebury,mydlbwry,Миддлбюри,ميدلبوري,مڈلبری، کنیکٹیکٹ","latitude":"41.52787","longitude":"-73.12761","feature_class":"P","feature_code":"PPL","country_code":"US","cc2":"","admin1_code":"CT","admin2_code":"009","admin3_code":"","admin4_code":"","population":"6974","elevation":"212","dem":"219","timezone":"America/New_York","modification_date":"2012-05-30"},{"geonameid":"4838633","name":"Middletown","asciiname":"Middletown","alternatenames":"Middltaun,Middltoun,Midltaun,mi de er dui,midalata'una,midorutaun,mydltawn,Миддлтаун,Миддлтоун,Мидлтаун,Міддлтаун,ميدلتاون,مڈل ٹاؤن، کنیکٹیکٹ,میدل‌تاون، کنتیکت,मिडलटाउन,ミドルタウン,米德尔敦","latitude":"41.56232","longitude":"-72.65065","feature_class":"P","feature_code":"PPL","country_code":"US","cc2":"","admin1_code":"CT","admin2_code":"007","admin3_code":"","admin4_code":"","population":"47648","elevation":"12","dem":"19","timezone":"America/New_York","modification_date":"2011-05-14"},{"geonameid":"4838652","name":"Milford","asciiname":"Milford","alternatenames":"Milford,Milfordas,mi er fu de,milapharda,milaphorda,milpeodeu,mirufodo,myldfwrd  kntykt,mylfwrd,Милфорд,Мілфорд,ميلفورد,میلدفورد، کنتیکت,میلفورڈ، کنیکٹیکٹ,मिलफर्ड,मिलफोर्ड,ミルフォード,米尔福德,밀퍼드","latitude":"41.22232","longitude":"-73.0565","feature_class":"P","feature_code":"PPL","country_code":"US","cc2":"","admin1_code":"CT","admin2_code":"009","admin3_code":"","admin4_code":"","population":"52759","elevation":"8","dem":"13","timezone":"America/New_York","modification_date":"2011-05-14"},{"geonameid":"4838887","name":"Montville Center","asciiname":"Montville Center","alternatenames":"","latitude":"41.47899","longitude":"-72.15119","feature_class":"P","feature_code":"PPL","country_code":"US","cc2":"","admin1_code":"CT","admin2_code":"011","admin3_code":"","admin4_code":"","population":"20180","elevation":"114","dem":"121","timezone":"America/New_York","modification_date":"2006-01-17"},{"geonameid":"4838895","name":"Moodus","asciiname":"Moodus","alternatenames":"","latitude":"41.50288","longitude":"-72.45009","feature_class":"P","feature_code":"PPL","country_code":"US","cc2":"","admin1_code":"CT","admin2_code":"007","admin3_code":"","admin4_code":"","population":"1413","elevation":"54","dem":"69","timezone":"America/New_York","modification_date":"2011-05-14"},{"geonameid":"4838928","name":"Moosup","asciiname":"Moosup","alternatenames":"","latitude":"41.71288","longitude":"-71.88091","feature_class":"P","feature_code":"PPL","country_code":"US","cc2":"","admin1_code":"CT","admin2_code":"015","admin3_code":"","admin4_code":"","population":"3231","elevation":"72","dem":"76","timezone":"America/New_York","modification_date":"2011-05-14"},{"geonameid":"4839141","name":"Mystic","asciiname":"Mystic","alternatenames":"Mistik,Mystic,maystyk,mistika,Мистик,مائی سٹک، کونیکٹیکٹ,مايستيك,मिस्टिक","latitude":"41.35427","longitude":"-71.96646","feature_class":"P","feature_code":"PPL","country_code":"US","cc2":"","admin1_code":"CT","admin2_code":"011","admin3_code":"","admin4_code":"","population":"4205","elevation":"3","dem":"6","timezone":"America/New_York","modification_date":"2011-05-14"},{"geonameid":"4839222","name":"Naugatuck","asciiname":"Naugatuck","alternatenames":"Naugatak,Nogatak,naugacuka,nawghatwk,Наугатак,Ногатак,ناوغاتوك,یونین سٹی، کنیکٹیکٹ,नौगाचुक","latitude":"41.48593","longitude":"-73.05066","feature_class":"P","feature_code":"PPL","country_code":"US","cc2":"","admin1_code":"CT","admin2_code":"009","admin3_code":"","admin4_code":"","population":"31862","elevation":"63","dem":"64","timezone":"America/New_York","modification_date":"2011-05-14"},{"geonameid":"4839292","name":"New Britain","asciiname":"New Britain","alternatenames":"N'ju Britan,N'ju-Briten,New Britain,Nju Briten,n'yu britana,n'yu britena,nyubeuliteun,nyuburiten,nyw brytn,nyw brytyn  kntykt,xin bu lie dian,Њу Бритен,Нью Британ,Нью-Бритен,Нью-Брітен,نيو بريتن,نیو بریتین، کنتیکت,نیو بریٹن، کنیکٹیکٹ,न्यु ब्रिटेन,न्यू ब्रिटन,ニューブリテン,新不列颠,뉴브리튼","latitude":"41.66121","longitude":"-72.77954","feature_class":"P","feature_code":"PPL","country_code":"US","cc2":"","admin1_code":"CT","admin2_code":"003","admin3_code":"","admin4_code":"","population":"73206","elevation":"51","dem":"55","timezone":"America/New_York","modification_date":"2011-05-14"},