{"nextFile":"cities.110.json","rows":[{"geonameid":"3096797","name":"Kamieniec","asciiname":"Kamieniec","alternatenames":"Kamieniec,Kamieniec Poznanskie,Kamieniec Poznańskie","latitude":"52.16614","longitude":"16.46164","feature_class":"P","feature_code":"PPL","country_code":"PL","cc2":"PL","admin1_code":"86","admin2_code":"3005","admin3_code":"300503","admin4_code":"","population":"1098","elevation":"","dem":"70","timezone":"Europe/Warsaw","modification_date":"2010-09-28"},{"geonameid":"3096816","name":"Kamienica Polska","asciiname":"Kamienica Polska","alternatenames":"","latitude":"50.6709","longitude":"19.12265","feature_class":"P","feature_code":"PPL","country_code":"PL","cc2":"","admin1_code":"83","admin2_code":"2404","admin3_code":"240404","admin4_code":"","population":"1456","elevation":"","dem":"271","timezone":"Europe/Warsaw","modification_date":"2010-09-06"},{"geonameid":"3096826","name":"Kamienica","asciiname":"Kamienica","alternatenames":"","latitude":"50.45007","longitude":"16.95396","feature_class":"P","feature_code":"PPL","country_code":"PL","cc2":"","admin1_code":"79","admin2_code":"1607","admin3_code":"160707","admin4_code":"","population":"1300","elevation":"","dem":"261","timezone":"Europe/Warsaw","modification_date":"2010-09-11"},{"geonameid":"3096844","name":"Kamień","asciiname":"Kamien","alternatenames":"","latitude":"50.01215","longitude":"19.58536","feature_class":"P","feature_code":"PPL","country_code":"PL","cc2":"","admin1_code":"77","admin2_code":"1206","admin3_code":"120601","admin4_code":"","population":"1470","elevation":"","dem":"259","timezone":"Europe/Warsaw","modification_date":"2010-10-17"},{"geonameid":"3096847","name":"Kamesznica","asciiname":"Kamesznica","alternatenames":"","latitude":"49.56469","longitude":"19.0212","feature_class":"P","feature_code":"PPL","country_code":"PL","cc2":"","admin1_code":"83","admin2_code":"2417","admin3_code":"241709","admin4_code":"","population":"2806","elevation":"","dem":"538","timezone":"Europe/Warsaw","modification_date":"2010-09-06"},{"geonameid":"3096852","name":"Kalwaria Zebrzydowska","asciiname":"Kalwaria Zebrzydowska","alternatenames":"Kal'varija Zebzhidovska,Kal'varija-Zebzhidovs'ka,Kal'varija-Zebzhidovska,Kalarija Zebrzydowska,Kalvarija Zebrzydowska,Kalvarija Zebzhidovska,Kalvarija Zebzydovska,Kalvarija Zebžydovska,Kalvarja Zebzidovska,Kalvarja Zebžidovska,Kalwaria,Kalwaria Zebrzydowska,Kalwarja,Kalwarja Zebrydowska,ka er wa li ya-ze bu ri duo fu si ka,Калвария Зебжидовска,Калварија Зебжидовска,Кальвария Зебжидовска,Кальвария-Зебжидовска,Кальварія-Зебжидовська,קלוואריה זבזידובסקה,კალვარია-ზაბჟიდოვსკა,カルヴァリア・ゼブジトフスカ,卡爾瓦里亞-澤布日多夫斯卡","latitude":"49.86759","longitude":"19.6772","feature_class":"P","feature_code":"PPLA3","country_code":"PL","cc2":"","admin1_code":"77","admin2_code":"1218","admin3_code":"121803","admin4_code":"","population":"4429","elevation":"","dem":"327","timezone":"Europe/Warsaw","modification_date":"2010-10-06"},{"geonameid":"3096873","name":"Kalisz Pomorski","asciiname":"Kalisz Pomorski","alternatenames":"Callies,Comuna de Kalisz Pomorski,Gmina Kalish-Pomors'kij,Gmina Kalisz Pomorski,Kalish-Pomorskij,Kalisz Pomorski,Kallies,Калиш-Поморский,Ґміна Каліш-Поморський","latitude":"53.29908","longitude":"15.90631","feature_class":"P","feature_code":"PPLA3","country_code":"PL","cc2":"PL","admin1_code":"87","admin2_code":"3203","admin3_code":"320303","admin4_code":"","population":"4110","elevation":"","dem":"92","timezone":"Europe/Warsaw","modification_date":"2010-10-28"},{"geonameid":"3096880","name":"Kalisz","asciiname":"Kalisz","alternatenames":"Gorad Kalish,Kalis,Kalisa,Kalisas,Kalisch,Kalish,Kalisz,Kališa,Kališas,ka li shen,kallisi,kalysh,karishu,Горад Каліш,Калиш,Каліш,Կալիշ,קאליש,كاليش,کالیش,カリシュ,卡利什,칼리시","latitude":"51.76109","longitude":"18.09102","feature_class":"P","feature_code":"PPLA3","country_code":"PL","cc2":"","admin1_code":"86","admin2_code":"3061","admin3_code":"306101","admin4_code":"","population":"108759","elevation":"","dem":"109","timezone":"Europe/Warsaw","modification_date":"2011-07-31"},{"geonameid":"3096885","name":"Kaliska","asciiname":"Kaliska","alternatenames":"Kaliska,Калиска","latitude":"53.90535","longitude":"18.21885","feature_class":"P","feature_code":"PPL","country_code":"PL","cc2":"","admin1_code":"82","admin2_code":"2213","admin3_code":"221305","admin4_code":"","population":"2268","elevation":"","dem":"143","timezone":"Europe/Warsaw","modification_date":"2010-09-13"},{"geonameid":"3096911","name":"Kalety","asciiname":"Kalety","alternatenames":"Kaleti,Kalety,ka lai di,Калети,Калеты,卡萊蒂","latitude":"50.5627","longitude":"18.8926","feature_class":"P","feature_code":"PPLA3","country_code":"PL","cc2":"","admin1_code":"83","admin2_code":"2413","admin3_code":"241301","admin4_code":"","population":"8670","elevation":"","dem":"271","timezone":"Europe/Warsaw","modification_date":"2011-07-31"},{"geonameid":"3096924","name":"Kalej","asciiname":"Kalej","alternatenames":"","latitude":"50.83662","longitude":"18.98429","feature_class":"P","feature_code":"PPL","country_code":"PL","cc2":"","admin1_code":"83","admin2_code":"2406","admin3_code":"240609","admin4_code":"","population":"1668","elevation":"","dem":"287","timezone":"Europe/Warsaw","modification_date":"2010-09-07"},{"geonameid":"3096964","name":"Kaczyce","asciiname":"Kaczyce","alternatenames":"Kaczyce,Kaczyce Gorne,Kaczyce Górne","latitude":"49.82752","longitude":"18.59161","feature_class":"P","feature_code":"PPL","country_code":"PL","cc2":"PL","admin1_code":"83","admin2_code":"2403","admin3_code":"240312","admin4_code":"","population":"3056","elevation":"","dem":"268","timezone":"Europe/Warsaw","modification_date":"2010-09-06"},{"geonameid":"3096966","name":"Kaczory","asciiname":"Kaczory","alternatenames":"","latitude":"53.10348","longitude":"16.88169","feature_class":"P","feature_code":"PPL","country_code":"PL","cc2":"","admin1_code":"86","admin2_code":"3019","admin3_code":"301903","admin4_code":"","population":"2911","elevation":"","dem":"91","timezone":"Europe/Warsaw","modification_date":"2010-09-11"},{"geonameid":"3096986","name":"Wielki Kack","asciiname":"Wielki Kack","alternatenames":"Kack,Kack Wielki,Wielki Kack","latitude":"54.46754","longitude":"18.4881","feature_class":"P","feature_code":"PPL","country_code":"PL","cc2":"PL","admin1_code":"82","admin2_code":"2262","admin3_code":"226201","admin4_code":"","population":"10012","elevation":"","dem":"134","timezone":"Europe/Warsaw","modification_date":"2012-12-04"},{"geonameid":"3096999","name":"Jutrosin","asciiname":"Jutrosin","alternatenames":"Jutrosin,Jutrosina,you te luo xin,Јутросин,Ютросин,尤特羅辛","latitude":"51.65009","longitude":"17.16957","feature_class":"P","feature_code":"PPLA3","country_code":"PL","cc2":"","admin1_code":"86","admin2_code":"3022","admin3_code":"302202","admin4_code":"","population":"1908","elevation":"","dem":"107","timezone":"Europe/Warsaw","modification_date":"2011-07-31"},{"geonameid":"3097004","name":"Juszczyna","asciiname":"Juszczyna","alternatenames":"","latitude":"49.62984","longitude":"19.22032","feature_class":"P","feature_code":"PPL","country_code":"PL","cc2":"","admin1_code":"83","admin2_code":"2417","admin3_code":"241710","admin4_code":"","population":"1693","elevation":"","dem":"474","timezone":"Europe/Warsaw","modification_date":"2010-09-06"},{"geonameid":"3097006","name":"Juszczyn","asciiname":"Juszczyn","alternatenames":"","latitude":"49.6929","longitude":"19.69128","feature_class":"P","feature_code":"PPL","country_code":"PL","cc2":"","admin1_code":"77","admin2_code":"1215","admin3_code":"121506","admin4_code":"","population":"2511","elevation":"","dem":"461","timezone":"Europe/Warsaw","modification_date":"2010-09-23"},{"geonameid":"3097043","name":"Jugów","asciiname":"Jugow","alternatenames":"","latitude":"50.62758","longitude":"16.51812","feature_class":"P","feature_code":"PPL","country_code":"PL","cc2":"","admin1_code":"72","admin2_code":"0208","admin3_code":"020811","admin4_code":"","population":"3700","elevation":"","dem":"472","timezone":"Europe/Warsaw","modification_date":"2010-09-12"},{"geonameid":"3097104","name":"Jordanów Śląski","asciiname":"Jordanow Slaski","alternatenames":"Jordanow,Jordanow Slaski,Jordansmuhl,Jordansmühl,Jordanów,Jordanów Śląski","latitude":"50.86421","longitude":"16.86873","feature_class":"P","feature_code":"PPLA3","country_code":"PL","cc2":"","admin1_code":"72","admin2_code":"0223","admin3_code":"022303","admin4_code":"","population":"1000","elevation":"","dem":"154","timezone":"Europe/Warsaw","modification_date":"2010-09-22"},{"geonameid":"3097107","name":"Jordanów","asciiname":"Jordanow","alternatenames":"Jordanov,Jordanova,Jordanuv,yue er da nu fu,Јорданов,Йорданов,Йорданув,約爾達努夫","latitude":"49.64935","longitude":"19.82981","feature_class":"P","feature_code":"PPLA3","country_code":"PL","cc2":"","admin1_code":"77","admin2_code":"1215","admin3_code":"121501","admin4_code":"","population":"5194","elevation":"","dem":"497","timezone":"Europe/Warsaw","modification_date":"2010-09-22"},{"geonameid":"3097130","name":"Jeżów Sudecki","asciiname":"Jezow Sudecki","alternatenames":"Grunau,Jezow,Jezow Sudecki,Jeżów,Jeżów Sudecki","latitude":"50.93507","longitude":"15.74306","feature_class":"P","feature_code":"PPLA3","country_code":"PL","cc2":"PL","admin1_code":"72","admin2_code":"0206","admin3_code":"020606","admin4_code":"","population":"1800","elevation":"","dem":"369","timezone":"Europe/Warsaw","modification_date":"2011-07-31"},{"geonameid":"3097137","name":"Jeżów","asciiname":"Jezow","alternatenames":"","latitude":"51.81376","longitude":"19.96877","feature_class":"P","feature_code":"PPLA3","country_code":"PL","cc2":"","admin1_code":"74","admin2_code":"1021","admin3_code":"102104","admin4_code":"","population":"1400","elevation":"","dem":"186","timezone":"Europe/Warsaw","modification_date":"2010-10-16"},{"geonameid":"3097177","name":"Jeziora Wielkie","asciiname":"Jeziora Wielkie","alternatenames":"","latitude":"52.53043","longitude":"18.26803","feature_class":"P","feature_code":"PPLA3","country_code":"PL","cc2":"","admin1_code":"73","admin2_code":"0409","admin3_code":"040902","admin4_code":"","population":"560","elevation":"","dem":"102","timezone":"Europe/Warsaw","modification_date":"2010-09-15"},{"geonameid":"3097194","name":"Jeżewo","asciiname":"Jezewo","alternatenames":"Comuna de Jezewo,Comuna de Jeżewo,Ezhevo,Gmina Ezhevo,Gmina Jezewo,Gmina Jeżewo,Гміна Єжево,Ежево","latitude":"53.51061","longitude":"18.49437","feature_class":"P","feature_code":"PPL","country_code":"PL","cc2":"","admin1_code":"73","admin2_code":"0414","admin3_code":"041404","admin4_code":"","population":"1753","elevation":"","dem":"89","timezone":"Europe/Warsaw","modification_date":"2010-09-13"},{"geonameid":"3097219","name":"Jerzmanowice","asciiname":"Jerzmanowice","alternatenames":"","latitude":"50.21267","longitude":"19.74672","feature_class":"P","feature_code":"PPLA3","country_code":"PL","cc2":"","admin1_code":"77","admin2_code":"1206","admin3_code":"120604","admin4_code":"","population":"2230","elevation":"","dem":"430","timezone":"Europe/Warsaw","modification_date":"2010-10-17"},{"geonameid":"3097228","name":"Jenin","asciiname":"Jenin","alternatenames":"Gennin,Jenin","latitude":"52.69647","longitude":"15.09796","feature_class":"P","feature_code":"PPL","country_code":"PL","cc2":"","admin1_code":"76","admin2_code":"0801","admin3_code":"080102","admin4_code":"","population":"1100","elevation":"","dem":"23","timezone":"Europe/Warsaw","modification_date":"2015-09-04"},{"geonameid":"3097232","name":"Jemielno","asciiname":"Jemielno","alternatenames":"Comuna de Jemielno,Emel'no,Gmina Emel'no,Gmina Jemielno,Емельно,Ґміна Ємельно","latitude":"51.52434","longitude":"16.54326","feature_class":"P","feature_code":"PPLA3","country_code":"PL","cc2":"","admin1_code":"72","admin2_code":"0204","admin3_code":"020402","admin4_code":"","population":"0","elevation":"","dem":"107","timezone":"Europe/Warsaw","modification_date":"2011-07-31"},{"geonameid":"3097233","name":"Jemielnica","asciiname":"Jemielnica","alternatenames":"","latitude":"50.54573","longitude":"18.37807","feature_class":"P","feature_code":"PPLA3","country_code":"PL","cc2":"","admin1_code":"79","admin2_code":"1611","admin3_code":"161102","admin4_code":"","population":"3500","elevation":"","dem":"215","timezone":"Europe/Warsaw","modification_date":"2010-09-24"},{"geonameid":"3097241","name":"Jeleśnia","asciiname":"Jelesnia","alternatenames":"","latitude":"49.64246","longitude":"19.32701","feature_class":"P","feature_code":"PPL","country_code":"PL","cc2":"","admin1_code":"83","admin2_code":"2417","admin3_code":"241704","admin4_code":"","population":"4098","elevation":"","dem":"439","timezone":"Europe/Warsaw","modification_date":"2010-09-06"},{"geonameid":"3097257","name":"Jelenia Góra","asciiname":"Jelenia Gora","alternatenames":"Hirschberg,Hirschberg im Riesengebirge,Hirschberg in Schlesien,Jelena Gura,Jelenia Gora,Jelenia Góra,Jelenja Gura,Jeleņa Gura,yelleniagula,Йеленя Гура,옐레니아구라","latitude":"50.89973","longitude":"15.72899","feature_class":"P","feature_code":"PPL","country_code":"PL","cc2":"","admin1_code":"72","admin2_code":"0261","admin3_code":"026101","admin4_code":"","population":"87310","elevation":"","dem":"331","timezone":"Europe/Warsaw","modification_date":"2010-09-09"},{"geonameid":"3097271","name":"Jelcz","asciiname":"Jelcz","alternatenames":"Jelcz,Jelczc,Jelez,Jeltsch,Zaklady Samochodowe Jelcz SA,Zakłady Samochodowe Jelcz SA,i~eruchi she,イェルチ社","latitude":"51.02102","longitude":"17.32095","feature_class":"P","feature_code":"PPLX","country_code":"PL","cc2":"","admin1_code":"72","admin2_code":"0215","admin3_code":"021503","admin4_code":"","population":"15308","elevation":"","dem":"128","timezone":"Europe/Warsaw","modification_date":"2015-09-05"},{"geonameid":"3097272","name":"Jejkowice","asciiname":"Jejkowice","alternatenames":"","latitude":"50.10814","longitude":"18.46767","feature_class":"P","feature_code":"PPLA3","country_code":"PL","cc2":"","admin1_code":"83","admin2_code":"2412","admin3_code":"241203","admin4_code":"","population":"3753","elevation":"","dem":"252","timezone":"Europe/Warsaw","modification_date":"2010-09-20"},{"geonameid":"3097301","name":"Jedlina-Zdrój","asciiname":"Jedlina-Zdroj","alternatenames":"Bad Charlottenbrunn,Charlottenbrunn,Charlottenbrunn-Zdroj,Charlottenbrunn-Zdrój,Edlina-Zdruj,Jedlina Zdroj,Jedlina Zdrój,Jedlina-Zdroj,Jedlina-Zdrój,Jedlinazdroja,ye de li na-zi de lu yi,Єдліна-Здруй,Једлина-Здрој,Едлина-Здруй,耶德利納-茲德魯伊","latitude":"50.72005","longitude":"16.34645","feature_class":"P","feature_code":"PPLA3","country_code":"PL","cc2":"PL","admin1_code":"72","admin2_code":"0221","admin3_code":"022102","admin4_code":"","population":"5062","elevation":"","dem":"448","timezone":"Europe/Warsaw","modification_date":"2015-09-02"},{"geonameid":"3097327","name":"Jaworzynka","asciiname":"Jaworzynka","alternatenames":"Jaworzynka","latitude":"49.54019","longitude":"18.86996","feature_class":"P","feature_code":"PPL","country_code":"PL","cc2":"","admin1_code":"83","admin2_code":"2403","admin3_code":"240309","admin4_code":"","population":"3109","elevation":"","dem":"638","timezone":"Europe/Warsaw","modification_date":"2010-09-06"},{"geonameid":"3097328","name":"Jaworzyna Śląska","asciiname":"Jaworzyna Slaska","alternatenames":"Javozhina Shl'onska,Javozhina Slonska,Javozhina-Shl'ons'ka,Javozhina-Sljonska,Javozina Slonska,Javožina Slonska,Jaworzyna Slaska,Jaworzyna Śląska,Konigszelt,Königszelt,xi long si ke de qu ya wo ri na,Јавожиња Слонска,Явожина Шльонска,Явожина-Слёнска,Явожина-Шльонська,希隆斯克地區亞沃日納","latitude":"50.9134","longitude":"16.43241","feature_class":"P","feature_code":"PPL","country_code":"PL","cc2":"PL","admin1_code":"72","admin2_code":"0219","admin3_code":"021904","admin4_code":"","population":"5242","elevation":"","dem":"232","timezone":"Europe/Warsaw","modification_date":"2010-09-12"},{"geonameid":"3097333","name":"Jaworzno","asciiname":"Jaworzno","alternatenames":"Gorad Javozhna,Javozhno,Javoznas,Javozno,Javožnas,Javožno,Jaworzyna,ya wo ri nuo,yabojuno,yafwrjnw,yavu~ojuno,yawwzhnw,Горад Явожна,Явожно,يافورجنو,یاووژنو,ヤヴォジュノ,亚沃日诺,야보주노","latitude":"50.20528","longitude":"19.27498","feature_class":"P","feature_code":"PPLA2","country_code":"PL","cc2":"","admin1_code":"83","admin2_code":"2468","admin3_code":"246801","admin4_code":"","population":"96541","elevation":"","dem":"318","timezone":"Europe/Warsaw","modification_date":"2010-10-20"},{"geonameid":"3097339","name":"Jaworze","asciiname":"Jaworze","alternatenames":"","latitude":"49.79351","longitude":"18.9479","feature_class":"P","feature_code":"PPL","country_code":"PL","cc2":"","admin1_code":"83","admin2_code":"2402","admin3_code":"240206","admin4_code":"","population":"6723","elevation":"","dem":"381","timezone":"Europe/Warsaw","modification_date":"2010-09-06"},{"geonameid":"3097355","name":"Jawornik","asciiname":"Jawornik","alternatenames":"","latitude":"49.8558","longitude":"19.89315","feature_class":"P","feature_code":"PPL","country_code":"PL","cc2":"","admin1_code":"77","admin2_code":"1209","admin3_code":"120903","admin4_code":"","population":"2822","elevation":"","dem":"309","timezone":"Europe/Warsaw","modification_date":"2010-10-23"},{"geonameid":"3097367","name":"Jawor","asciiname":"Jawor","alternatenames":"Jauer,Javor,Javora,Javoras,Jawor,ya wo er,Јавор,Явор,יאבור,亚沃尔","latitude":"51.05132","longitude":"16.19347","feature_class":"P","feature_code":"PPLA3","country_code":"PL","cc2":"","admin1_code":"72","admin2_code":"0205","admin3_code":"020501","admin4_code":"","population":"23865","elevation":"","dem":"206","timezone":"Europe/Warsaw","modification_date":"2011-07-31"},{"geonameid":"3097391","name":"Jastrzębie Zdrój","asciiname":"Jastrzebie Zdroj","alternatenames":"Jastrzebie Zdroj,Jastrzebie-Zdroj,Jastrzębie Zdrój,Jastrzębie-Zdrój,Jastsembe Zdroja,Jastšembe Zdroja","latitude":"49.95542","longitude":"18.57479","feature_class":"P","feature_code":"PPLA2","country_code":"PL","cc2":"","admin1_code":"83","admin2_code":"2467","admin3_code":"246701","admin4_code":"","population":"95813","elevation":"260","dem":"237","timezone":"Europe/Warsaw","modification_date":"2010-10-21"},{"geonameid":"3097409","name":"Jastrzębia Góra","asciiname":"Jastrzebia Gora","alternatenames":"","latitude":"54.83135","longitude":"18.31301","feature_class":"P","feature_code":"PPL","country_code":"PL","cc2":"","admin1_code":"82","admin2_code":"2211","admin3_code":"221104","admin4_code":"","population":"1068","elevation":"","dem":"33","timezone":"Europe/Warsaw","modification_date":"2010-09-07"},{"geonameid":"3097416","name":"Jastrząb","asciiname":"Jastrzab","alternatenames":"","latitude":"50.67019","longitude":"19.1817","feature_class":"P","feature_code":"PPL","country_code":"PL","cc2":"","admin1_code":"83","admin2_code":"2409","admin3_code":"240904","admin4_code":"","population":"1295","elevation":"","dem":"276","timezone":"Europe/Warsaw","modification_date":"2010-09-06"},{"geonameid":"3097420","name":"Jastrowie","asciiname":"Jastrowie","alternatenames":"Jastrove,Jastrovje,Jastrovė,Jastrow,Jastrowie,Jastrowié,ya si te luo wei,Јастровје,Ястрове,جسترووئے,亞斯特羅維","latitude":"53.42048","longitude":"16.81756","feature_class":"P","feature_code":"PPLA3","country_code":"PL","cc2":"","admin1_code":"86","admin2_code":"3031","admin3_code":"303102","admin4_code":"","population":"8452","elevation":"","dem":"97","timezone":"Europe/Warsaw","modification_date":"2011-07-31"},{"geonameid":"3097421","name":"Jastarnia","asciiname":"Jastarnia","alternatenames":"Gemeen Heisternest,Heisternest,Jastaania,Jastarna,Jastarnia,Jastarnio,Jastarniô,Jastarnja,Jastarņa,ya si ta er ni ya,Јастарња,Ястарня,جسترنیہ,亞斯塔爾尼亞","latitude":"54.69606","longitude":"18.67873","feature_class":"P","feature_code":"PPLA3","country_code":"PL","cc2":"PL","admin1_code":"82","admin2_code":"2211","admin3_code":"221102","admin4_code":"","population":"3925","elevation":"","dem":"26","timezone":"Europe/Warsaw","modification_date":"2010-10-12"},{"geonameid":"3097471","name":"Jasienica","asciiname":"Jasienica","alternatenames":"","latitude":"49.82281","longitude":"19.84191","feature_class":"P","feature_code":"PPL","country_code":"PL","cc2":"","admin1_code":"77","admin2_code":"1209","admin3_code":"120903","admin4_code":"","population":"1500","elevation":"","dem":"360","timezone":"Europe/Warsaw","modification_date":"2010-09-06"},{"geonameid":"3097472","name":"Jasienica","asciiname":"Jasienica","alternatenames":"Jasienica,جسینیکا، سیلسیان صوبہ","latitude":"49.81312","longitude":"18.92155","feature_class":"P","feature_code":"PPL","country_code":"PL","cc2":"","admin1_code":"83","admin2_code":"2402","admin3_code":"240205","admin4_code":"","population":"4872","elevation":"","dem":"322","timezone":"Europe/Warsaw","modification_date":"2010-09-06"},{"geonameid":"3097480","name":"Jasień","asciiname":"Jasien","alternatenames":"Gassen,Jasien,Jasień","latitude":"51.75142","longitude":"15.01419","feature_class":"P","feature_code":"PPLA3","country_code":"PL","cc2":"PL","admin1_code":"76","admin2_code":"0811","admin3_code":"081104","admin4_code":"","population":"4398","elevation":"","dem":"85","timezone":"Europe/Warsaw","modification_date":"2010-10-15"},{"geonameid":"3097504","name":"Jaroszowice","asciiname":"Jaroszowice","alternatenames":"","latitude":"49.86267","longitude":"19.51962","feature_class":"P","feature_code":"PPL","country_code":"PL","cc2":"","admin1_code":"77","admin2_code":"1218","admin3_code":"121809","admin4_code":"","population":"1700","elevation":"","dem":"266","timezone":"Europe/Warsaw","modification_date":"2010-10-17"},{"geonameid":"3097528","name":"Jarocin","asciiname":"Jarocin","alternatenames":"Gorad Jarocin,Jarochin,Jarocin,Jarocina,Jarocinas,jrwkn,ya luo qin,Јароћин,Горад Яроцін,Яроцин,Ярочин,جروکن,亚罗钦","latitude":"51.97266","longitude":"17.50256","feature_class":"P","feature_code":"PPL","country_code":"PL","cc2":"","admin1_code":"86","admin2_code":"3006","admin3_code":"300602","admin4_code":"","population":"25665","elevation":"","dem":"119","timezone":"Europe/Warsaw","modification_date":"2010-09-28"},{"geonameid":"3097553","name":"Jaraczewo","asciiname":"Jaraczewo","alternatenames":"Jaraczew,Jaraczewo","latitude":"51.96854","longitude":"17.29707","feature_class":"P","feature_code":"PPL","country_code":"PL","cc2":"PL","admin1_code":"86","admin2_code":"3006","admin3_code":"300601","admin4_code":"","population":"1392","elevation":"","dem":"103","timezone":"Europe/Warsaw","modification_date":"2010-09-28"},{"geonameid":"3097561","name":"Januszkowice","asciiname":"Januszkowice","alternatenames":"","latitude":"50.39189","longitude":"18.1368","feature_class":"P","feature_code":"PPL","country_code":"PL","cc2":"","admin1_code":"79","admin2_code":"1605","admin3_code":"160505","admin4_code":"","population":"1091","elevation":"","dem":"173","timezone":"Europe/Warsaw","modification_date":"2010-10-21"},{"geonameid":"3097594","name":"Janowiec Wielkopolski","asciiname":"Janowiec Wielkopolski","alternatenames":"Janovec'-Vel'kopol's'kij,Janovec-Vel'kopol'skij,Janoveca Velkopolska,Janovjec Vjelkopolski,Janowiec,da bo lan de qu ya nuo wei ci,jnwwyk wylkwpwlsky,Јановјец Вјелкополски,Яновец-Велькопольский,Яновець-Велькопольський,جنوویک ویلکوپولسکی,大波蘭地區亞諾維茨","latitude":"52.75583","longitude":"17.48981","feature_class":"P","feature_code":"PPLA3","country_code":"PL","cc2":"PL","admin1_code":"73","admin2_code":"0419","admin3_code":"041903","admin4_code":"","population":"5110","elevation":"","dem":"97","timezone":"Europe/Warsaw","modification_date":"2010-09-16"},{"geonameid":"3097599","name":"Janowice Wielkie","asciiname":"Janowice Wielkie","alternatenames":"Janowice Wielkie,جنووکے ویلکئی","latitude":"50.87569","longitude":"15.92322","feature_class":"P","feature_code":"PPL","country_code":"PL","cc2":"","admin1_code":"72","admin2_code":"0206","admin3_code":"020605","admin4_code":"","population":"2100","elevation":"","dem":"401","timezone":"Europe/Warsaw","modification_date":"2010-09-09"},{"geonameid":"3097610","name":"Janowice","asciiname":"Janowice","alternatenames":"","latitude":"49.88496","longitude":"19.09376","feature_class":"P","feature_code":"PPL","country_code":"PL","cc2":"","admin1_code":"83","admin2_code":"2402","admin3_code":"240202","admin4_code":"","population":"1708","elevation":"","dem":"315","timezone":"Europe/Warsaw","modification_date":"2015-09-05"},{"geonameid":"3097638","name":"Janków Przygodzki","asciiname":"Jankow Przygodzki","alternatenames":"","latitude":"51.59808","longitude":"17.78824","feature_class":"P","feature_code":"PPL","country_code":"PL","cc2":"","admin1_code":"86","admin2_code":"3017","admin3_code":"301705","admin4_code":"","population":"1707","elevation":"","dem":"135","timezone":"Europe/Warsaw","modification_date":"2010-10-16"},{"geonameid":"3097651","name":"Jankowice Rybnickie","asciiname":"Jankowice Rybnickie","alternatenames":"","latitude":"50.04479","longitude":"18.54707","feature_class":"P","feature_code":"PPLA3","country_code":"PL","cc2":"","admin1_code":"83","admin2_code":"2412","admin3_code":"241205","admin4_code":"","population":"3895","elevation":"","dem":"267","timezone":"Europe/Warsaw","modification_date":"2010-09-20"},{"geonameid":"3097660","name":"Jankowice","asciiname":"Jankowice","alternatenames":"","latitude":"50.0009","longitude":"18.98901","feature_class":"P","feature_code":"PPL","country_code":"PL","cc2":"","admin1_code":"83","admin2_code":"2410","admin3_code":"241005","admin4_code":"","population":"2840","elevation":"","dem":"247","timezone":"Europe/Warsaw","modification_date":"2010-09-06"},{"geonameid":"3097688","name":"Janikowo","asciiname":"Janikowo","alternatenames":"Janikovo,Janikowo,Яниково","latitude":"52.75328","longitude":"18.11328","feature_class":"P","feature_code":"PPLA3","country_code":"PL","cc2":"","admin1_code":"73","admin2_code":"0407","admin3_code":"040705","admin4_code":"","population":"9169","elevation":"","dem":"92","timezone":"Europe/Warsaw","modification_date":"2014-06-27"},{"geonameid":"3097808","name":"Jabłonowo Pomorskie","asciiname":"Jablonowo Pomorskie","alternatenames":"Jablonovo Pomorske,Jablonovo Pomorskje,Jablonovo-Pomors'ke,Jablonovo-Pomorske,Jablonowo,Jablonowo Pomorskie,Jabłonowo,Jabłonowo Pomorskie,Jabłónowò,bo mo rui de qu ya bu wo nuo wo,Јаблоново Поморскје,Яблоново-Поморске,Яблоново-Поморське,جبوؤںووو پومورسکئی,波莫瑞地區亞布沃諾沃","latitude":"53.39137","longitude":"19.15509","feature_class":"P","feature_code":"PPLA3","country_code":"PL","cc2":"PL","admin1_code":"73","admin2_code":"0402","admin3_code":"040207","admin4_code":"","population":"3658","elevation":"","dem":"89","timezone":"Europe/Warsaw","modification_date":"2010-10-12"},{"geonameid":"3097813","name":"Jabłonna","asciiname":"Jablonna","alternatenames":"","latitude":"52.20598","longitude":"16.20741","feature_class":"P","feature_code":"PPL","country_code":"PL","cc2":"","admin1_code":"86","admin2_code":"3005","admin3_code":"300504","admin4_code":"","population":"1001","elevation":"","dem":"82","timezone":"Europe/Warsaw","modification_date":"2010-10-09"},{"geonameid":"3097823","name":"Jabłonka","asciiname":"Jablonka","alternatenames":"Jablonka,Jabłonka","latitude":"49.47968","longitude":"19.6937","feature_class":"P","feature_code":"PPLA3","country_code":"PL","cc2":"","admin1_code":"77","admin2_code":"1211","admin3_code":"121105","admin4_code":"","population":"4767","elevation":"","dem":"617","timezone":"Europe/Warsaw","modification_date":"2010-10-30"},{"geonameid":"3097833","name":"Izdebnik","asciiname":"Izdebnik","alternatenames":"","latitude":"49.87218","longitude":"19.76801","feature_class":"P","feature_code":"PPL","country_code":"PL","cc2":"","admin1_code":"77","admin2_code":"1218","admin3_code":"121804","admin4_code":"","population":"2054","elevation":"","dem":"258","timezone":"Europe/Warsaw","modification_date":"2010-10-23"},{"geonameid":"3097839","name":"Izbicko","asciiname":"Izbicko","alternatenames":"Izbicko,Stubendorf","latitude":"50.57163","longitude":"18.15585","feature_class":"P","feature_code":"PPLA3","country_code":"PL","cc2":"PL","admin1_code":"79","admin2_code":"1611","admin3_code":"161101","admin4_code":"","population":"1100","elevation":"","dem":"186","timezone":"Europe/Warsaw","modification_date":"2010-09-24"},{"geonameid":"3097841","name":"Izbica Kujawska","asciiname":"Izbica Kujawska","alternatenames":"Izbica,Izbica Kujavska,Izbica Kujawska,Izbica-Kujavska,Izbicja-Kujavs'ka,Kujavijos Izbica,Ізбиця-Куявська,Избица Кујавска,Избица-Куявска,איזביצה קויאווסקה","latitude":"52.42073","longitude":"18.7627","feature_class":"P","feature_code":"PPLA3","country_code":"PL","cc2":"PL","admin1_code":"73","admin2_code":"0418","admin3_code":"041808","admin4_code":"","population":"2771","elevation":"","dem":"118","timezone":"Europe/Warsaw","modification_date":"2010-09-16"},{"geonameid":"3097865","name":"Istebna","asciiname":"Istebna","alternatenames":"Istebna,Istebno,Istempna,Ιστέμπνα","latitude":"49.56319","longitude":"18.90567","feature_class":"P","feature_code":"PPL","country_code":"PL","cc2":"","admin1_code":"83","admin2_code":"2403","admin3_code":"240309","admin4_code":"","population":"4895","elevation":"","dem":"617","timezone":"Europe/Warsaw","modification_date":"2010-09-06"},{"geonameid":"3097869","name":"Inwałd","asciiname":"Inwald","alternatenames":"","latitude":"49.86355","longitude":"19.39276","feature_class":"P","feature_code":"PPL","country_code":"PL","cc2":"","admin1_code":"77","admin2_code":"1218","admin3_code":"121801","admin4_code":"","population":"3254","elevation":"","dem":"319","timezone":"Europe/Warsaw","modification_date":"2010-10-17"},{"geonameid":"3097871","name":"Ińsko","asciiname":"Insko","alternatenames":"In'sko,Ins'ko,Insko,Iņsko,Nierbarg,Norenberg,Nörenberg,yin si ke,Інсько,Иньско,Ињско,因斯科","latitude":"53.43613","longitude":"15.5502","feature_class":"P","feature_code":"PPLA3","country_code":"PL","cc2":"PL","admin1_code":"87","admin2_code":"3214","admin3_code":"321405","admin4_code":"","population":"2002","elevation":"","dem":"121","timezone":"Europe/Warsaw","modification_date":"2010-09-22"},{"geonameid":"3097872","name":"Inowrocław","asciiname":"Inowroclaw","alternatenames":"Gorad Inauroclau,Hohensalza,Inovroclav,Inovroclava,Inovroclavas,Inovrotslav,Inowraclaw,Inowracław,Inowroclaw,Inowrocław,Irownoclaw,inovurotsuwafu,xi nxw rxtswaf,yi nuo fu luo ci wa fu,Іновроцлав,Горад Інаўроцлаў,Иновроцлав,อีนอวรอตสวัฟ,イノヴロツワフ,伊诺弗罗茨瓦夫","latitude":"52.79886","longitude":"18.26387","feature_class":"P","feature_code":"PPLA3","country_code":"PL","cc2":"","admin1_code":"73","admin2_code":"0407","admin3_code":"040701","admin4_code":"","population":"77597","elevation":"","dem":"98","timezone":"Europe/Warsaw","modification_date":"2011-07-31"},{"geonameid":"3097886","name":"Imielin","asciiname":"Imielin","alternatenames":"Imelin,Imelina,Imielin,Imjelin,imyerin,yi mei lin,Імелін,Имелин,Имјелин,イミェリン,伊梅林","latitude":"50.14534","longitude":"19.18599","feature_class":"P","feature_code":"PPLA3","country_code":"PL","cc2":"","admin1_code":"83","admin2_code":"2414","admin3_code":"241402","admin4_code":"","population":"8057","elevation":"","dem":"256","timezone":"Europe/Warsaw","modification_date":"2010-09-24"},{"geonameid":"3097896","name":"Iłowa","asciiname":"Ilowa","alternatenames":"Halbau,Ilova,Ilowa,Iłowa,Jilwa,Jiłwa,Stadt Halbau,xi wx wa,yi wo wa,Ілова,Илова,อีวอวา,伊沃瓦","latitude":"51.5006","longitude":"15.1998","feature_class":"P","feature_code":"PPL","country_code":"PL","cc2":"PL","admin1_code":"76","admin2_code":"0810","admin3_code":"081004","admin4_code":"","population":"4085","elevation":"","dem":"126","timezone":"Europe/Warsaw","modification_date":"2010-09-10"},{"geonameid":"3097902","name":"Iława","asciiname":"Ilawa","alternatenames":"Deutsch Eylau,Ilava,Ilawa,Iława,Ylava,iwavu~a,yi wa wa,Ілава,Илава,イワヴァ,伊瓦瓦","latitude":"53.59601","longitude":"19.56849","feature_class":"P","feature_code":"PPL","country_code":"PL","cc2":"","admin1_code":"85","admin2_code":"2807","admin3_code":"280701","admin4_code":"","population":"32557","elevation":"","dem":"105","timezone":"Europe/Warsaw","modification_date":"2010-09-28"},{"geonameid":"3097935","name":"Huta Stara B","asciiname":"Huta Stara B","alternatenames":"","latitude":"50.73792","longitude":"19.13295","feature_class":"P","feature_code":"PPLX","country_code":"PL","cc2":"","admin1_code":"83","admin2_code":"2404","admin3_code":"240413","admin4_code":"","population":"1939","elevation":"","dem":"290","timezone":"Europe/Warsaw","modification_date":"2010-09-06"},{"geonameid":"3098007","name":"Herby","asciiname":"Herby","alternatenames":"","latitude":"50.75318","longitude":"18.88756","feature_class":"P","feature_code":"PPL","country_code":"PL","cc2":"","admin1_code":"83","admin2_code":"2407","admin3_code":"240704","admin4_code":"","population":"2421","elevation":"","dem":"284","timezone":"Europe/Warsaw","modification_date":"2010-09-06"},{"geonameid":"3098015","name":"Henryków","asciiname":"Henrykow","alternatenames":"Heinrichau,Henrykow,Henryków","latitude":"50.65327","longitude":"17.01027","feature_class":"P","feature_code":"PPL","country_code":"PL","cc2":"PL","admin1_code":"72","admin2_code":"0224","admin3_code":"022406","admin4_code":"","population":"3200","elevation":"","dem":"208","timezone":"Europe/Warsaw","modification_date":"2010-10-20"},{"geonameid":"3098030","name":"Hel","asciiname":"Hel","alternatenames":"Gel',Hel,Hela,Helas,Hél,Khel,Khel',he er,heru,Гель,Хел,Хель,ヘル,赫爾","latitude":"54.60814","longitude":"18.8013","feature_class":"P","feature_code":"PPLA3","country_code":"PL","cc2":"PL","admin1_code":"82","admin2_code":"2211","admin3_code":"221101","admin4_code":"","population":"4136","elevation":"","dem":"1","timezone":"Europe/Warsaw","modification_date":"2014-06-26"},{"geonameid":"3098033","name":"Hażlach","asciiname":"Hazlach","alternatenames":"Hazlach,Hażlach","latitude":"49.80714","longitude":"18.65178","feature_class":"P","feature_code":"PPL","country_code":"PL","cc2":"","admin1_code":"83","admin2_code":"2403","admin3_code":"240308","admin4_code":"","population":"2175","elevation":"","dem":"282","timezone":"Europe/Warsaw","modification_date":"2010-09-06"},{"geonameid":"3098039","name":"Harbutowice","asciiname":"Harbutowice","alternatenames":"Harbutowice","latitude":"49.81235","longitude":"19.78045","feature_class":"P","feature_code":"PPL","country_code":"PL","cc2":"","admin1_code":"77","admin2_code":"1209","admin3_code":"120907","admin4_code":"","population":"1519","elevation":"","dem":"362","timezone":"Europe/Warsaw","modification_date":"2010-09-08"},{"geonameid":"3098130","name":"Gubin","asciiname":"Gubin","alternatenames":"Gorad Gubin,Guben,Gubin,Gubina,Gubinas,gu bin,Горад Губін,Губин,Ґубін,古賓","latitude":"51.94956","longitude":"14.72837","feature_class":"P","feature_code":"PPLA3","country_code":"PL","cc2":"","admin1_code":"76","admin2_code":"0802","admin3_code":"080201","admin4_code":"","population":"16629","elevation":"","dem":"45","timezone":"Europe/Warsaw","modification_date":"2010-10-16"},{"geonameid":"3098163","name":"Grzmiąca","asciiname":"Grzmiaca","alternatenames":"Gramenz,Grzmiaca,Grzmiąca","latitude":"53.83734","longitude":"16.43512","feature_class":"P","feature_code":"PPL","country_code":"PL","cc2":"PL","admin1_code":"87","admin2_code":"3215","admin3_code":"321505","admin4_code":"","population":"1348","elevation":"","dem":"112","timezone":"Europe/Warsaw","modification_date":"2010-09-28"},{"geonameid":"3098173","name":"Grzegorzew","asciiname":"Grzegorzew","alternatenames":"","latitude":"52.20177","longitude":"18.73409","feature_class":"P","feature_code":"PPLA3","country_code":"PL","cc2":"","admin1_code":"86","admin2_code":"3009","admin3_code":"300905","admin4_code":"","population":"1650","elevation":"","dem":"100","timezone":"Europe/Warsaw","modification_date":"2010-10-14"},{"geonameid":"3098182","name":"Grzechynia","asciiname":"Grzechynia","alternatenames":"","latitude":"49.7136","longitude":"19.64561","feature_class":"P","feature_code":"PPL","country_code":"PL","cc2":"","admin1_code":"77","admin2_code":"1215","admin3_code":"121506","admin4_code":"","population":"2503","elevation":"","dem":"413","timezone":"Europe/Warsaw","modification_date":"2010-10-19"},{"geonameid":"3098199","name":"Gryfów Śląski","asciiname":"Gryfow Slaski","alternatenames":"Greiffenberg,Greiffenberg in Schlesien,Greiffeńberg,Grifov Shl'onski,Grifov Slonski,Grifova Slonska,Grifuv-Shl'ons'kij,Gryfow Slaski,Gryfuv-Sljonskij,Gryfów Śląski,xi long si ke de qu ge lei fu fu,Грифов Слонски,Грифов Шльонски,Грыфув-Слёнский,Ґрифув-Шльонський,希隆斯克地區格雷富夫","latitude":"51.03081","longitude":"15.42017","feature_class":"P","feature_code":"PPLA3","country_code":"PL","cc2":"","admin1_code":"72","admin2_code":"0212","admin3_code":"021201","admin4_code":"","population":"6890","elevation":"","dem":"322","timezone":"Europe/Warsaw","modification_date":"2011-07-31"},{"geonameid":"3098200","name":"Gryfino","asciiname":"Gryfino","alternatenames":"Gorad Gryfina,Greifenhagen,Grifino,Gripenhagen,Gripiewo,Gripiewò,Gryfinas,Gryfino,ge lei fei nuo,Горад Грыфіна,Грифино,Грифіно,Грыфино,格雷菲諾","latitude":"53.25243","longitude":"14.48831","feature_class":"P","feature_code":"PPLA3","country_code":"PL","cc2":"","admin1_code":"87","admin2_code":"3206","admin3_code":"320604","admin4_code":"","population":"21270","elevation":"","dem":"7","timezone":"Europe/Warsaw","modification_date":"2011-07-31"},{"geonameid":"3098201","name":"Gryfice","asciiname":"Gryfice","alternatenames":"Gorad Gryficy,Greifenberg,Greifenberg in Pommern,Grifice,Gripiewo Gora,Gripiewô Góra,Gryfice,Gryficė,ge lei fei cai,Горад Грыфіцы,Грифице,Грифіце,Грыфице,Գրիֆիցե,格雷菲采","latitude":"53.9165","longitude":"15.20027","feature_class":"P","feature_code":"PPLA2","country_code":"PL","cc2":"","admin1_code":"87","admin2_code":"3205","admin3_code":"320502","admin4_code":"","population":"16720","elevation":"","dem":"17","timezone":"Europe/Warsaw","modification_date":"2010-09-22"},{"geonameid":"3098204","name":"Gruta","asciiname":"Gruta","alternatenames":"Gruta,Грута","latitude":"53.45315","longitude":"18.957","feature_class":"P","feature_code":"PPLA3","country_code":"PL","cc2":"","admin1_code":"73","admin2_code":"0406","admin3_code":"040602","admin4_code":"","population":"1600","elevation":"","dem":"93","timezone":"Europe/Warsaw","modification_date":"2010-09-14"},{"geonameid":"3098218","name":"Grudziądz","asciiname":"Grudziadz","alternatenames":"Gorad Grudzjondz,Graudenz,Gredzadz,Grudz'ondz,Grudzendz,Grudzh'ondz,Grudziadz,Grudziondzas,Grudziądz,Grudzjondz,Grudzjondza,Grudzundz,Grudzëndz,Grudźůndz,Grëdządz,ge lu qiong zi,geulujiongcheu,ghrwjwnts,grwjwnts,gurujontsu,kru cxn ts,Горад Грудзёндз,Груджьондз,Грудзендз,Грудзьондз,Грудзёндз,Груђондз,غروجونتس,گروجونتس,กรูจอนตส์,グルジョンツ,格魯瓊茲,그루지옹츠","latitude":"53.48411","longitude":"18.75366","feature_class":"P","feature_code":"PPL","country_code":"PL","cc2":"","admin1_code":"73","admin2_code":"0462","admin3_code":"046201","admin4_code":"","population":"99486","elevation":"","dem":"22","timezone":"Europe/Warsaw","modification_date":"2014-06-27"},{"geonameid":"3098239","name":"Gronowo Górne","asciiname":"Gronowo Gorne","alternatenames":"Gronowo,Grunau,Grunau Hohe,Grünau Höhe,Hohe,Höhe","latitude":"54.13863","longitude":"19.45988","feature_class":"P","feature_code":"PPL","country_code":"PL","cc2":"PL","admin1_code":"85","admin2_code":"2804","admin3_code":"280401","admin4_code":"","population":"1270","elevation":"","dem":"18","timezone":"Europe/Warsaw","modification_date":"2010-09-28"},{"geonameid":"3098240","name":"Gronowo Elbląskie","asciiname":"Gronowo Elblaskie","alternatenames":"Gronowo,Gronowo Elblaskie,Gronowo Elbląskie,Grunau","latitude":"54.08588","longitude":"19.30598","feature_class":"P","feature_code":"PPL","country_code":"PL","cc2":"PL","admin1_code":"85","admin2_code":"2804","admin3_code":"280403","admin4_code":"","population":"1600","elevation":"","dem":"0","timezone":"Europe/Warsaw","modification_date":"2010-09-05"},{"geonameid":"3098267","name":"Gromadka","asciiname":"Gromadka","alternatenames":"Greulich,Gromadka","latitude":"51.36063","longitude":"15.76452","feature_class":"P","feature_code":"PPLA3","country_code":"PL","cc2":"PL","admin1_code":"72","admin2_code":"0201","admin3_code":"020103","admin4_code":"","population":"2150","elevation":"","dem":"148","timezone":"Europe/Warsaw","modification_date":"2011-07-31"},{"geonameid":"3098276","name":"Grojec","asciiname":"Grojec","alternatenames":"Grojec","latitude":"50.08975","longitude":"19.55704","feature_class":"P","feature_code":"PPL","country_code":"PL","cc2":"","admin1_code":"77","admin2_code":"1203","admin3_code":"120301","admin4_code":"","population":"1259","elevation":"","dem":"361","timezone":"Europe/Warsaw","modification_date":"2010-10-17"},{"geonameid":"3098277","name":"Grojec","asciiname":"Grojec","alternatenames":"","latitude":"49.98147","longitude":"19.23792","feature_class":"P","feature_code":"PPL","country_code":"PL","cc2":"","admin1_code":"77","admin2_code":"1213","admin3_code":"121306","admin4_code":"","population":"2923","elevation":"","dem":"268","timezone":"Europe/Warsaw","modification_date":"2010-10-23"},{"geonameid":"3098288","name":"Grodzisk Wielkopolski","asciiname":"Grodzisk Wielkopolski","alternatenames":"Didziosios Lenkijos Grodziskas,Didžiosios Lenkijos Grodziskas,Gratz,Grodzhisk Velkopolski,Grodzis'k-Velikopol's'kij,Grodzisk,Grodzisk Wielkopolski,Grodzisk-Vel'kopol'skij,Grodziska Velkopolska,Grätz,da bo lan de qu ge luo ji si ke,Гроджиск Велкополски,Гродзиск-Велькопольский,Гродзиськ-Великопольський,Грођиск Вјелкополски,大波蘭地區格羅濟斯克","latitude":"52.22762","longitude":"16.36534","feature_class":"P","feature_code":"PPLA3","country_code":"PL","cc2":"","admin1_code":"86","admin2_code":"3005","admin3_code":"300502","admin4_code":"","population":"13826","elevation":"","dem":"86","timezone":"Europe/Warsaw","modification_date":"2011-07-31"},{"geonameid":"3098309","name":"Grodziec","asciiname":"Grodziec","alternatenames":"Grodzec,Grodziec,Гродзец","latitude":"52.03855","longitude":"18.05972","feature_class":"P","feature_code":"PPLA3","country_code":"PL","cc2":"","admin1_code":"86","admin2_code":"3010","admin3_code":"301002","admin4_code":"","population":"1400","elevation":"","dem":"105","timezone":"Europe/Warsaw","modification_date":"2010-10-16"},{"geonameid":"3098333","name":"Grodków","asciiname":"Grodkow","alternatenames":"Grodkov,Grodkova,Grodkow,Grodkuv,Grodków,Grotkow,Grottkau,ge luo de ku fu,Гродков,Гродкув,Ґродкув,格羅德庫夫","latitude":"50.69836","longitude":"17.38449","feature_class":"P","feature_code":"PPLA3","country_code":"PL","cc2":"","admin1_code":"79","admin2_code":"1601","admin3_code":"160103","admin4_code":"","population":"8654","elevation":"","dem":"172","timezone":"Europe/Warsaw","modification_date":"2010-09-25"},{"geonameid":"3098380","name":"Grębocice","asciiname":"Grebocice","alternatenames":"Grebocice,Grębocice","latitude":"51.59909","longitude":"16.16741","feature_class":"P","feature_code":"PPL","country_code":"PL","cc2":"","admin1_code":"72","admin2_code":"0216","admin3_code":"021603","admin4_code":"","population":"1500","elevation":"","dem":"85","timezone":"Europe/Warsaw","modification_date":"2010-09-10"},{"geonameid":"3098394","name":"Granowo","asciiname":"Granowo","alternatenames":"","latitude":"52.22244","longitude":"16.52859","feature_class":"P","feature_code":"PPLA3","country_code":"PL","cc2":"","admin1_code":"86","admin2_code":"3005","admin3_code":"300501","admin4_code":"","population":"2031","elevation":"","dem":"76","timezone":"Europe/Warsaw","modification_date":"2011-07-31"},{"geonameid":"3098453","name":"Grabowo Kościerskie","asciiname":"Grabowo Koscierskie","alternatenames":"Grabowo,Grabowo Koscierskie","latitude":"54.16816","longitude":"18.14692","feature_class":"P","feature_code":"PPL","country_code":"PL","cc2":"PL","admin1_code":"82","admin2_code":"2206","admin3_code":"220607","admin4_code":"","population":"1159","elevation":"","dem":"200","timezone":"Europe/Warsaw","modification_date":"2010-09-10"},{"geonameid":"3098470","name":"Grabów nad Prosną","asciiname":"Grabow nad Prosna","alternatenames":"Comuna de Grabow nad Prosna,Comuna de Grabów nad Prosną,Gmina Grabow nad Prosna,Gmina Grabuv-nad-Prosnoju,Gmina Grabów nad Prosną,Grabow nad Prosna,Grabuv-nad-Prosnon,Grabów nad Prosną,Грабув-над-Проснон,Ґміна Ґрабув-над-Просною","latitude":"51.50596","longitude":"18.11929","feature_class":"P","feature_code":"PPLA3","country_code":"PL","cc2":"","admin1_code":"86","admin2_code":"3018","admin3_code":"301803","admin4_code":"","population":"1967","elevation":"","dem":"130","timezone":"Europe/Warsaw","modification_date":"2010-10-16"},{"geonameid":"3098502","name":"Grabów","asciiname":"Grabow","alternatenames":"Grabow,Grabuv,Grabów,Грабув","latitude":"52.12717","longitude":"19.00257","feature_class":"P","feature_code":"PPLA3","country_code":"PL","cc2":"","admin1_code":"74","admin2_code":"1004","admin3_code":"100404","admin4_code":"","population":"1300","elevation":"","dem":"135","timezone":"Europe/Warsaw","modification_date":"2010-10-14"},{"geonameid":"3098556","name":"Grabica","asciiname":"Grabica","alternatenames":"Comuna de Grabica,Gmina Grabica,Gmina Grabicja,Grabica,Грабица,Ґміна Ґрабиця","latitude":"51.47989","longitude":"19.53137","feature_class":"P","feature_code":"PPLA3","country_code":"PL","cc2":"","admin1_code":"74","admin2_code":"1010","admin3_code":"101004","admin4_code":"","population":"390","elevation":"","dem":"222","timezone":"Europe/Warsaw","modification_date":"2010-10-11"},{"geonameid":"3098575","name":"Gozdowo","asciiname":"Gozdowo","alternatenames":"Gozdovo,Gozdowo,Гоздово","latitude":"52.72455","longitude":"19.68501","feature_class":"P","feature_code":"PPLA3","country_code":"PL","cc2":"","admin1_code":"78","admin2_code":"1427","admin3_code":"142702","admin4_code":"","population":"1403","elevation":"","dem":"130","timezone":"Europe/Warsaw","modification_date":"2010-09-19"},{"geonameid":"3098583","name":"Gozdnica","asciiname":"Gozdnica","alternatenames":"Freiwaldau,Gozdnica,Gozdnicja,Gozdņica,ge zi de ni cha,Гоздница,Гоздниця,Гоздњица,戈茲德尼察","latitude":"51.4363","longitude":"15.09856","feature_class":"P","feature_code":"PPLA3","country_code":"PL","cc2":"PL","admin1_code":"76","admin2_code":"0810","admin3_code":"081001","admin4_code":"","population":"3398","elevation":"","dem":"150","timezone":"Europe/Warsaw","modification_date":"2011-07-31"},{"geonameid":"3098613","name":"Goszczanów","asciiname":"Goszczanow","alternatenames":"","latitude":"51.79163","longitude":"18.5057","feature_class":"P","feature_code":"PPLA3","country_code":"PL","cc2":"","admin1_code":"74","admin2_code":"1014","admin3_code":"101406","admin4_code":"","population":"824","elevation":"","dem":"137","timezone":"Europe/Warsaw","modification_date":"2010-10-15"},{"geonameid":"3098619","name":"Gostynin","asciiname":"Gostynin","alternatenames":"Gostinin,Gostinina,Gostiņina,Gostyn,Gostynin,ge si di ning,gwstynyn,Гостинин,Гостинін,Гостињин,Гостынин,גוסטינין,戈斯蒂寧","latitude":"52.42938","longitude":"19.46194","feature_class":"P","feature_code":"PPLA2","country_code":"PL","cc2":"PL","admin1_code":"78","admin2_code":"1404","admin3_code":"140401","admin4_code":"","population":"18976","elevation":"","dem":"89","timezone":"Europe/Warsaw","modification_date":"2010-10-15"},{"geonameid":"3098625","name":"Gostyń","asciiname":"Gostyn","alternatenames":"Gostin,Gostin',Gostina,Gostingen,Gostiņa,Gostyn,Gostyn',Gostynis,Gostyń,ge si teng,Гостин,Гостинь,Гостињ,Гостын,Гостынь,戈斯滕","latitude":"51.88247","longitude":"17.01225","feature_class":"P","feature_code":"PPLA3","country_code":"PL","cc2":"","admin1_code":"86","admin2_code":"3004","admin3_code":"300402","admin4_code":"","population":"20771","elevation":"","dem":"92","timezone":"Europe/Warsaw","modification_date":"2011-07-31"},{"geonameid":"3098626","name":"Gostyń","asciiname":"Gostyn","alternatenames":"","latitude":"50.10528","longitude":"18.88241","feature_class":"P","feature_code":"PPL","country_code":"PL","cc2":"","admin1_code":"83","admin2_code":"2408","admin3_code":"240805","admin4_code":"","population":"3276","elevation":"","dem":"254","timezone":"Europe/Warsaw","modification_date":"2010-09-06"},{"geonameid":"3098629","name":"Gostycyn","asciiname":"Gostycyn","alternatenames":"Gostycyn,Gostyczyn","latitude":"53.49014","longitude":"17.80978","feature_class":"P","feature_code":"PPLA3","country_code":"PL","cc2":"PL","admin1_code":"73","admin2_code":"0416","admin3_code":"041602","admin4_code":"","population":"1800","elevation":"","dem":"111","timezone":"Europe/Warsaw","modification_date":"2010-09-16"},{"geonameid":"3098665","name":"Gościno","asciiname":"Goscino","alternatenames":"Gos'cino,Gosceno,Goscino,Goshchino,Goshcino,Gościno,Gross,Gross Jestin,Gòscëno,ge xi qi nuo,Госьцино,Гошчино,Гошћино,戈希齊諾","latitude":"54.05123","longitude":"15.65256","feature_class":"P","feature_code":"PPLA3","country_code":"PL","cc2":"PL","admin1_code":"87","admin2_code":"3208","admin3_code":"320803","admin4_code":"","population":"2636","elevation":"","dem":"40","timezone":"Europe/Warsaw","modification_date":"2011-01-08"},{"geonameid":"3098686","name":"Gościcino","asciiname":"Goscicino","alternatenames":"Goscicino,Gościcino,Госцицино","latitude":"54.60459","longitude":"18.15491","feature_class":"P","feature_code":"PPL","country_code":"PL","cc2":"","admin1_code":"82","admin2_code":"2215","admin3_code":"221510","admin4_code":"","population":"5278","elevation":"","dem":"47","timezone":"Europe/Warsaw","modification_date":"2010-10-21"},{"geonameid":"3098699","name":"Gorzyczki","asciiname":"Gorzyczki","alternatenames":"Gorzyczki","latitude":"49.94912","longitude":"18.4033","feature_class":"P","feature_code":"PPL","country_code":"PL","cc2":"","admin1_code":"83","admin2_code":"2415","admin3_code":"241506","admin4_code":"","population":"2088","elevation":"","dem":"251","timezone":"Europe/Warsaw","modification_date":"2015-09-05"},{"geonameid":"3098702","name":"Gorzyce Wielkie","asciiname":"Gorzyce Wielkie","alternatenames":"","latitude":"51.63725","longitude":"17.72953","feature_class":"P","feature_code":"PPL","country_code":"PL","cc2":"","admin1_code":"86","admin2_code":"3017","admin3_code":"301704","admin4_code":"","population":"2076","elevation":"","dem":"139","timezone":"Europe/Warsaw","modification_date":"2010-09-21"},{"geonameid":"3098709","name":"Gorzyce","asciiname":"Gorzyce","alternatenames":"Gorzyce","latitude":"49.95945","longitude":"18.39884","feature_class":"P","feature_code":"PPLA3","country_code":"PL","cc2":"","admin1_code":"83","admin2_code":"2415","admin3_code":"241506","admin4_code":"","population":"2435","elevation":"","dem":"243","timezone":"Europe/Warsaw","modification_date":"2010-09-21"},{"geonameid":"3098712","name":"Górzyca","asciiname":"Gorzyca","alternatenames":"Goritz,Göritz","latitude":"52.49447","longitude":"14.65503","feature_class":"P","feature_code":"PPLA3","country_code":"PL","cc2":"PL","admin1_code":"76","admin2_code":"0805","admin3_code":"080502","admin4_code":"","population":"1539","elevation":"","dem":"21","timezone":"Europe/Warsaw","modification_date":"2010-10-16"},{"geonameid":"3098722","name":"Gorzów Wielkopolski","asciiname":"Gorzow Wielkopolski","alternatenames":"Gorad Gozhau Vel'kapol'ski,Gorzow Wielkopolski,Gorzuw Wjelgopolski,Gorzów Wielkopolski,Gorzůw Wjelgopolski,Gozhov Velkopolski,Gozhov Vjelkopolski,Gozhuv-Vel'kopol's'kij,Gozhuv-Vel'kopol'ski,Gozhuv-Vel'kopol'skij,Gozova Velkopolska,Gozuv-Velkopolski,Gozuvas,Gožova Velkopolska,Gožuv-Velkopolski,Gožuvas,Ladzbarg,Landsberg,Landsberg an der Warthe,Landsbergum,Lãdzbarg,Thai Po-lan Thi-khi Ko-yi-fu,Thai Pô-làn Thi-khî Kô-yî-fû,da bo lan de qu ge ru fu,ghwrjwf wylkwbwlsky,gojupeubielkopolseuki,gwrzhwf wylkwpwlsky,gwrzhww wyylwpwlsky,gwzwb wyylqwpwlsqy,kxr sufwei yl khx pxl ski,Гожов Велкополски,Гожов Вјелкополски,Гожув-Велькопольски,Гожув-Велькопольский,Горад Гожаў Велькапольскі,Ґожув-Велькопольський,Գորժուվ-Վելկապոլսկացի,גוזוב ויילקופולסקי,غورجوف ويلكوبولسكي,گورژوف ویلکوپولسکی,گورژوو ویئلوپولسکی,กอร์ซูฟเวียลคอปอลสกี,ゴジュフ・ヴィエルコポルスキ,大波蘭地區戈茹夫,고주프비엘코폴스키","latitude":"52.73679","longitude":"15.22878","feature_class":"P","feature_code":"PPLA","country_code":"PL","cc2":"","admin1_code":"76","admin2_code":"0861","admin3_code":"086101","admin4_code":"","population":"124430","elevation":"","dem":"34","timezone":"Europe/Warsaw","modification_date":"2015-09-05"},{"geonameid":"3098723","name":"Gorzów Śląski","asciiname":"Gorzow Slaski","alternatenames":"Gorzow,Gorzow Slaski,Gorzów,Gorzów Śląski,Gozhov Shl'onski,Gozhov Slaski,Gozhuv-Shl'ons'kij,Gozhuv-Sljonskij,Gozova Slonska,Gožova Slonska,Landsberg,xi long si ke de qu ge ru fu,Гожов Сласки,Гожов Шльонски,Гожув-Слёнский,Гожув-Шльонський,希隆斯克地區戈茹夫","latitude":"51.02871","longitude":"18.42304","feature_class":"P","feature_code":"PPLA3","country_code":"PL","cc2":"","admin1_code":"79","admin2_code":"1608","admin3_code":"160802","admin4_code":"","population":"2300","elevation":"","dem":"193","timezone":"Europe/Warsaw","modification_date":"2011-07-31"},{"geonameid":"3098727","name":"Górzno","asciiname":"Gorzno","alternatenames":"Gorzno,Gozhno,Guzhno,Guzno,Gužno,Górzno,gu ri nuo,Гожно,Гужно,Ґужно,古日諾","latitude":"53.19779","longitude":"19.64317","feature_class":"P","feature_code":"PPL","country_code":"PL","cc2":"","admin1_code":"73","admin2_code":"0402","admin3_code":"040205","admin4_code":"","population":"1352","elevation":"","dem":"126","timezone":"Europe/Warsaw","modification_date":"2010-09-14"},{"geonameid":"3098735","name":"Gorzkowice","asciiname":"Gorzkowice","alternatenames":"Gorzkowice","latitude":"51.21533","longitude":"19.59626","feature_class":"P","feature_code":"PPLA3","country_code":"PL","cc2":"","admin1_code":"74","admin2_code":"1010","admin3_code":"101003","admin4_code":"","population":"3310","elevation":"","dem":"204","timezone":"Europe/Warsaw","modification_date":"2010-10-11"},{"geonameid":"3098815","name":"Górki Wielkie","asciiname":"Gorki Wielkie","alternatenames":"Gorki Wielkie,Górki Wielkie","latitude":"49.77971","longitude":"18.83117","feature_class":"P","feature_code":"PPL","country_code":"PL","cc2":"","admin1_code":"83","admin2_code":"2403","admin3_code":"240304","admin4_code":"","population":"3554","elevation":"","dem":"314","timezone":"Europe/Warsaw","modification_date":"2010-09-06"},{"geonameid":"3098854","name":"Gorenice","asciiname":"Gorenice","alternatenames":"","latitude":"50.208","longitude":"19.62038","feature_class":"P","feature_code":"PPL","country_code":"PL","cc2":"","admin1_code":"77","admin2_code":"1212","admin3_code":"121205","admin4_code":"","population":"1350","elevation":"","dem":"442","timezone":"Europe/Warsaw","modification_date":"2010-10-17"},{"geonameid":"3098865","name":"Górażdże","asciiname":"Gorazdze","alternatenames":"Goradze,Gorazdze,Górażdże,Waldenstein,Waldstein","latitude":"50.52903","longitude":"18.01003","feature_class":"P","feature_code":"PPL","country_code":"PL","cc2":"PL","admin1_code":"79","admin2_code":"1605","admin3_code":"160501","admin4_code":"","population":"1073","elevation":"","dem":"170","timezone":"Europe/Warsaw","modification_date":"2010-10-21"},{"geonameid":"3098871","name":"Góra Świętej Małgorzaty","asciiname":"Gora Swietej Malgorzaty","alternatenames":"Gora Malgorzaty,Gora Swiety Malgorzaty,Góra Małgorzaty,Góra Święty Małgorzaty","latitude":"52.05713","longitude":"19.31997","feature_class":"P","feature_code":"PPLA3","country_code":"PL","cc2":"","admin1_code":"74","admin2_code":"1004","admin3_code":"100403","admin4_code":"","population":"357","elevation":"","dem":"114","timezone":"Europe/Warsaw","modification_date":"2010-10-15"},{"geonameid":"3098898","name":"Góra","asciiname":"Gora","alternatenames":"Gora,Guhrau,Gura,Góra,Gůra,gu la,ku ra,Гора,Гура,Ґура,กูรา,古拉","latitude":"51.66638","longitude":"16.53494","feature_class":"P","feature_code":"PPL","country_code":"PL","cc2":"","admin1_code":"72","admin2_code":"0204","admin3_code":"020401","admin4_code":"","population":"12668","elevation":"","dem":"90","timezone":"Europe/Warsaw","modification_date":"2010-09-13"},{"geonameid":"3098901","name":"Góra","asciiname":"Gora","alternatenames":"","latitude":"49.97971","longitude":"19.10471","feature_class":"P","feature_code":"PPL","country_code":"PL","cc2":"","admin1_code":"83","admin2_code":"2410","admin3_code":"241003","admin4_code":"","population":"2554","elevation":"","dem":"242","timezone":"Europe/Warsaw","modification_date":"2010-09-06"},{"geonameid":"3098909","name":"Gomunice","asciiname":"Gomunice","alternatenames":"","latitude":"51.1689","longitude":"19.49335","feature_class":"P","feature_code":"PPL","country_code":"PL","cc2":"","admin1_code":"74","admin2_code":"1012","admin3_code":"101205","admin4_code":"","population":"1900","elevation":"","dem":"222","timezone":"Europe/Warsaw","modification_date":"2010-09-06"},{"geonameid":"3098923","name":"Gołuchów","asciiname":"Goluchow","alternatenames":"Comuna de Goluchow,Comuna de Gołuchów,Gmina Goluchow,Gmina Golukhuv,Gmina Gołuchów,Golukhuv,Гміна Голухув,Голухув","latitude":"51.85036","longitude":"17.9314","feature_class":"P","feature_code":"PPLA3","country_code":"PL","cc2":"","admin1_code":"86","admin2_code":"3020","admin3_code":"302005","admin4_code":"","population":"2000","elevation":"","dem":"113","timezone":"Europe/Warsaw","modification_date":"2010-10-16"},{"geonameid":"3098925","name":"Golub-Dobrzyń","asciiname":"Golub-Dobrzyn","alternatenames":"Goljub-Dobzhin,Goljub-Dobzhin',Golub,Golub-Dobrzyn,Golub-Dobrzyń,Golub-Dobzhin,Goluba-Dobzina,Goluba-Dobžiņa,ge lu bu-duo bu ren,gwlwb-dwbzyn,Голуб-Добжињ,Голюб-Добжин,Голюб-Добжинь,Ґолюб-Добжинь,גולוב-דובזין,戈盧布-多布任","latitude":"53.11087","longitude":"19.05381","feature_class":"P","feature_code":"PPLA3","country_code":"PL","cc2":"","admin1_code":"73","admin2_code":"0405","admin3_code":"040501","admin4_code":"","population":"12937","elevation":"","dem":"62","timezone":"Europe/Warsaw","modification_date":"2010-09-14"},{"geonameid":"3098938","name":"Gołkowice","asciiname":"Golkowice","alternatenames":"Golkowice,Gołkowice","latitude":"49.91418","longitude":"18.51419","feature_class":"P","feature_code":"PPL","country_code":"PL","cc2":"","admin1_code":"83","admin2_code":"2415","admin3_code":"241505","admin4_code":"","population":"3582","elevation":"","dem":"242","timezone":"Europe/Warsaw","modification_date":"2010-09-06"},{"geonameid":"3098949","name":"Golina","asciiname":"Golina","alternatenames":"Golina,ge li na,gwlynh,Голина,Голіна,גולינה,戈利納","latitude":"52.24315","longitude":"18.09268","feature_class":"P","feature_code":"PPLA3","country_code":"PL","cc2":"","admin1_code":"86","admin2_code":"3010","admin3_code":"301001","admin4_code":"","population":"4387","elevation":"","dem":"94","timezone":"Europe/Warsaw","modification_date":"2014-06-26"},{"geonameid":"3098950","name":"Golina","asciiname":"Golina","alternatenames":"","latitude":"51.91489","longitude":"17.48268","feature_class":"P","feature_code":"PPL","country_code":"PL","cc2":"","admin1_code":"86","admin2_code":"3006","admin3_code":"300602","admin4_code":"","population":"1909","elevation":"","dem":"131","timezone":"Europe/Warsaw","modification_date":"2010-10-16"},{"geonameid":"3098959","name":"Goleszów","asciiname":"Goleszow","alternatenames":"Goleszow,Goleszów,Holesov,Holešov","latitude":"49.7358","longitude":"18.73675","feature_class":"P","feature_code":"PPL","country_code":"PL","cc2":"","admin1_code":"83","admin2_code":"2403","admin3_code":"240307","admin4_code":"","population":"4045","elevation":"","dem":"368","timezone":"Europe/Warsaw","modification_date":"2010-09-06"},{"geonameid":"3098966","name":"Goleniów","asciiname":"Goleniow","alternatenames":"Golen'ov,Goleniow,Goleniuvas,Goleniów,Golenjuv,Golenov,Golenova,Goleņova,Gollnow,Golonog,Gorad Galeneu,Gòłonóg,SZZ,ge lai niu fu,gorenyufu,Голеньов,Голенюв,Голењов,Горад Галенеў,ゴレニュフ,戈萊紐夫","latitude":"53.56392","longitude":"14.82854","feature_class":"P","feature_code":"PPLA2","country_code":"PL","cc2":"","admin1_code":"87","admin2_code":"3204","admin3_code":"320402","admin4_code":"","population":"22505","elevation":"","dem":"14","timezone":"Europe/Warsaw","modification_date":"2013-03-17"},{"geonameid":"3098991","name":"Golczewo","asciiname":"Golczewo","alternatenames":"Gjul'cov,Gol'chevo,Golcevo,Golchevo,Goleszewo,Golčevo,Gulzow,Gòlëszewò,Gülzow,ge er qie fu,Голчево,Гольчево,Гюльцов,戈爾切夫","latitude":"53.82426","longitude":"14.97847","feature_class":"P","feature_code":"PPLA3","country_code":"PL","cc2":"PL","admin1_code":"87","admin2_code":"3207","admin3_code":"320702","admin4_code":"","population":"2714","elevation":"","dem":"17","timezone":"Europe/Warsaw","modification_date":"2010-09-20"},{"geonameid":"3099016","name":"Gołańcz","asciiname":"Golancz","alternatenames":"Golan'ch,Golanca,Golanch,Golancz,Golanča,Gołańcz,ge wan qi,Голаньч,Голањч,戈萬奇","latitude":"52.94326","longitude":"17.29995","feature_class":"P","feature_code":"PPLA3","country_code":"PL","cc2":"","admin1_code":"86","admin2_code":"3028","admin3_code":"302803","admin4_code":"","population":"3375","elevation":"","dem":"95","timezone":"Europe/Warsaw","modification_date":"2011-07-31"},{"geonameid":"3099048","name":"Gogolin","asciiname":"Gogolin","alternatenames":"Gogolin,ge ge lin,kx kx lin,Гоголин,Гоголін,กอกอลิน,戈戈林","latitude":"50.49222","longitude":"18.01994","feature_class":"P","feature_code":"PPLA3","country_code":"PL","cc2":"","admin1_code":"79","admin2_code":"1605","admin3_code":"160501","admin4_code":"","population":"6077","elevation":"","dem":"172","timezone":"Europe/Warsaw","modification_date":"2010-09-25"},{"geonameid":"3099062","name":"Godziszka","asciiname":"Godziszka","alternatenames":"","latitude":"49.71288","longitude":"19.07587","feature_class":"P","feature_code":"PPL","country_code":"PL","cc2":"","admin1_code":"83","admin2_code":"2402","admin3_code":"240203","admin4_code":"","population":"2222","elevation":"450","dem":"473","timezone":"Europe/Warsaw","modification_date":"2015-09-05"},{"geonameid":"3099084","name":"Godów","asciiname":"Godow","alternatenames":"Godow,Godów","latitude":"49.92481","longitude":"18.4783","feature_class":"P","feature_code":"PPLA3","country_code":"PL","cc2":"","admin1_code":"83","admin2_code":"2415","admin3_code":"241505","admin4_code":"","population":"1922","elevation":"","dem":"204","timezone":"Europe/Warsaw","modification_date":"2010-09-21"},{"geonameid":"3099095","name":"Goczałkowice Zdrój","asciiname":"Goczalkowice Zdroj","alternatenames":"Goczalkowice,Goczalkowice Zdroj,Goczałkowice,Goczałkowice Zdrój","latitude":"49.94454","longitude":"18.96927","feature_class":"P","feature_code":"PPLA3","country_code":"PL","cc2":"PL","admin1_code":"83","admin2_code":"2410","admin3_code":"241001","admin4_code":"","population":"6321","elevation":"","dem":"250","timezone":"Europe/Warsaw","modification_date":"2010-09-20"},{"geonameid":"3099112","name":"Gniezno","asciiname":"Gniezno","alternatenames":"Gnesen,Gnesna,Gnezno,Gnieznas,Gniezno,Gorad Gnezna,Gņezno,Hnezdno,Hnězdno,ge nie ci nuo,geuniejeuno,gnezno,gnyyznw,gunyezuno,gynyzna,k neiy snx,Гнезно,Горад Гнезна,Гњезно,גנייזנו,گینیزنا,กเนียซนอ,გნეზნო,グニェズノ,格涅兹诺,그니에즈노","latitude":"52.53481","longitude":"17.58259","feature_class":"P","feature_code":"PPLA2","country_code":"PL","cc2":"","admin1_code":"86","admin2_code":"3003","admin3_code":"300301","admin4_code":"","population":"70269","elevation":"","dem":"120","timezone":"Europe/Warsaw","modification_date":"2010-10-15"},{"geonameid":"3099113","name":"Gnieżdżewo","asciiname":"Gniezdzewo","alternatenames":"","latitude":"54.74741","longitude":"18.37944","feature_class":"P","feature_code":"PPL","country_code":"PL","cc2":"","admin1_code":"82","admin2_code":"2211","admin3_code":"221107","admin4_code":"","population":"1113","elevation":"","dem":"13","timezone":"Europe/Warsaw","modification_date":"2010-10-21"},{"geonameid":"3099120","name":"Gniewkowo","asciiname":"Gniewkowo","alternatenames":"Gnevkovo,Gniekowo,Gniewkowo,Gņevkovo,ge nie fu ke wo,Гневково,Гњевково,格涅夫科沃","latitude":"52.89461","longitude":"18.40785","feature_class":"P","feature_code":"PPLA3","country_code":"PL","cc2":"PL","admin1_code":"73","admin2_code":"0407","admin3_code":"040703","admin4_code":"","population":"7224","elevation":"","dem":"79","timezone":"Europe/Warsaw","modification_date":"2011-07-31"},{"geonameid":"3099125","name":"Gniewino","asciiname":"Gniewino","alternatenames":"Gnevino,Gniewino,Gniéwino,Nknievino,Γκνιεβίνο,Гневино,Гневіно","latitude":"54.71709","longitude":"18.01663","feature_class":"P","feature_code":"PPL","country_code":"PL","cc2":"","admin1_code":"82","admin2_code":"2215","admin3_code":"221505","admin4_code":"","population":"1940","elevation":"","dem":"78","timezone":"Europe/Warsaw","modification_date":"2010-09-14"},{"geonameid":"3099127","name":"Gniew","asciiname":"Gniew","alternatenames":"Gmew,Gméw,Gnev,Gneva,Gņeva,ge nie fu,Гнев,Гњев,格涅夫","latitude":"53.83602","longitude":"18.8231","feature_class":"P","feature_code":"PPL","country_code":"PL","cc2":"","admin1_code":"82","admin2_code":"2214","admin3_code":"221402","admin4_code":"","population":"6759","elevation":"","dem":"35","timezone":"Europe/Warsaw","modification_date":"2010-09-13"},{"geonameid":"3099129","name":"Gniechowice","asciiname":"Gniechowice","alternatenames":"Altenrode,Gnichwitz,Gniechowice","latitude":"50.98804","longitude":"16.83363","feature_class":"P","feature_code":"PPL","country_code":"PL","cc2":"PL","admin1_code":"72","admin2_code":"0223","admin3_code":"022304","admin4_code":"","population":"2000","elevation":"","dem":"145","timezone":"Europe/Warsaw","modification_date":"2010-10-21"},{"geonameid":"3099134","name":"Gniazdów","asciiname":"Gniazdow","alternatenames":"","latitude":"50.59621","longitude":"19.11132","feature_class":"P","feature_code":"PPL","country_code":"PL","cc2":"","admin1_code":"83","admin2_code":"2409","admin3_code":"240902","admin4_code":"","population":"1137","elevation":"","dem":"333","timezone":"Europe/Warsaw","modification_date":"2010-09-06"},{"geonameid":"3099144","name":"Głuszyca Górna","asciiname":"Gluszyca Gorna","alternatenames":"Gluszyca Gorna,Głuszyca Górna,Ober Wustegiersdorf,Ober Wüstegiersdorf","latitude":"50.66606","longitude":"16.37585","feature_class":"P","feature_code":"PPL","country_code":"PL","cc2":"PL","admin1_code":"72","admin2_code":"0221","admin3_code":"022105","admin4_code":"","population":"1278","elevation":"","dem":"501","timezone":"Europe/Warsaw","modification_date":"2010-09-12"},{"geonameid":"3099146","name":"Głuszyca","asciiname":"Gluszyca","alternatenames":"Glushica,Glushicja,Glusica,Gluszyca,Glušica,Głuszyca,Nieder Wustegiersdorf,Nieder Wüstegiersdorf,Wustegiersdorf,Wüstegiersdorf,ge wu xi cha,Глушица,Ґлушиця,格武希察","latitude":"50.68743","longitude":"16.37173","feature_class":"P","feature_code":"PPL","country_code":"PL","cc2":"PL","admin1_code":"72","admin2_code":"0221","admin3_code":"022105","admin4_code":"","population":"6897","elevation":"","dem":"448","timezone":"Europe/Warsaw","modification_date":"2010-09-12"},{"geonameid":"3099169","name":"Głuchołazy","asciiname":"Glucholazy","alternatenames":"Glucholazy,Gluholazi,Glukholazi,Glukholazy,Gucholazy,Głuchołazy,Gůchołazy,Hlucholazy,Ziegenhals,ge wu huo wa ji,Глухолази,Глухолазы,Ґлухолази,格武霍瓦濟","latitude":"50.31505","longitude":"17.38355","feature_class":"P","feature_code":"PPLA3","country_code":"PL","cc2":"","admin1_code":"79","admin2_code":"1607","admin3_code":"160701","admin4_code":"","population":"15120","elevation":"","dem":"288","timezone":"Europe/Warsaw","modification_date":"2010-09-25"},{"geonameid":"3099174","name":"Głubczyce","asciiname":"Glubczyce","alternatenames":"Ghipczyce,Glubchice,Glubcice,Glubczyce,Glubčice,Głubczyce,Hlubcice,Hlubčice,Leobschuetz,Leobschutz,Leobschütz,ge wu bu qi cai,Глубчице,Ґлубчице,格武布奇采","latitude":"50.20086","longitude":"17.82858","feature_class":"P","feature_code":"PPLA2","country_code":"PL","cc2":"","admin1_code":"79","admin2_code":"1602","admin3_code":"160203","admin4_code":"","population":"13697","elevation":"","dem":"273","timezone":"Europe/Warsaw","modification_date":"2015-10-22"},{"geonameid":"3099180","name":"Głowno","asciiname":"Glowno","alternatenames":"Glovno,Glowd,Glowno,Głowno,ge wo fu nuo,glwbnw,Гловно,גלובנו,格沃夫諾","latitude":"51.96463","longitude":"19.71565","feature_class":"P","feature_code":"PPLA3","country_code":"PL","cc2":"","admin1_code":"74","admin2_code":"1020","admin3_code":"102001","admin4_code":"","population":"15103","elevation":"","dem":"123","timezone":"Europe/Warsaw","modification_date":"2010-10-15"},{"geonameid":"3099192","name":"Główczyce","asciiname":"Glowczyce","alternatenames":"Comuna Glowczyce,Comuna Główczyce,Comuna de Glowczyce,Comuna de Główczyce,Glowczyce,Glowitz,Gluvchice,Gmina Glowczece,Gmina Glowczyce,Gmina Gluvchice,Gmina Główczyce,Gmina Główczëce,Główczyce,Глувчице,Ґміна Ґлувчице","latitude":"54.61935","longitude":"17.3723","feature_class":"P","feature_code":"PPLA3","country_code":"PL","cc2":"PL","admin1_code":"82","admin2_code":"2212","admin3_code":"221204","admin4_code":"","population":"1950","elevation":"","dem":"19","timezone":"Europe/Warsaw","modification_date":"2010-09-24"},{"geonameid":"3099209","name":"Głogówek","asciiname":"Glogowek","alternatenames":"Glogovek,Glogowek,Gloguvek,Gloguveka,Głogówek,Oberglogau,ge wo gu wei ke,Глоговек,Глогувек,格沃古韋克","latitude":"50.35355","longitude":"17.86405","feature_class":"P","feature_code":"PPLA3","country_code":"PL","cc2":"PL","admin1_code":"79","admin2_code":"1610","admin3_code":"161002","admin4_code":"","population":"5755","elevation":"","dem":"208","timezone":"Europe/Warsaw","modification_date":"2010-09-25"},{"geonameid":"3099213","name":"Głogów","asciiname":"Glogow","alternatenames":"Glogau,Glogov,Glogova,Glogovia,Glogow,Gloguv,Gloguvas,Gloguw,Głogów,Głogůw,Hlohov,Hlohow,Hłohow,ge wo gu fu,geuwogupeu,glwgwb,guu~ogufu,k wx kuf,Глогов,Глогув,Ґлоґув,גלוגוב,กวอกูฟ,グウォグフ,格沃古夫,그워구프","latitude":"51.66361","longitude":"16.0845","feature_class":"P","feature_code":"PPL","country_code":"PL","cc2":"","admin1_code":"72","admin2_code":"0203","admin3_code":"020301","admin4_code":"","population":"68530","elevation":"","dem":"92","timezone":"Europe/Warsaw","modification_date":"2010-09-10"},{"geonameid":"3099214","name":"Głogoczów","asciiname":"Glogoczow","alternatenames":"","latitude":"49.89452","longitude":"19.8741","feature_class":"P","feature_code":"PPL","country_code":"PL","cc2":"","admin1_code":"77","admin2_code":"1209","admin3_code":"120903","admin4_code":"","population":"2800","elevation":"","dem":"237","timezone":"Europe/Warsaw","modification_date":"2010-10-17"},{"geonameid":"3099230","name":"Gliwice","asciiname":"Gliwice","alternatenames":"Gleiwitz,Glivice,Glivices,Glivicės,Glivitse,Gliwice,Gliwice-Sosnowiec,Glywicy,Gorad Glivicy,QLC,ge li wei cai,geullibiche,ghlyfytsh,glivisa,glybyzh,glywytsh,gurivu~itsu~e,Гливице,Глівіце,Горад Глівіцы,Гљивице,Գլիվիցե,גליביצה,غليفيتسه,گلیویتسه,گلیویتسہ,ग्लिविस,グリヴィツェ,格利维采,글리비체","latitude":"50.29761","longitude":"18.67658","feature_class":"P","feature_code":"PPLA3","country_code":"PL","cc2":"","admin1_code":"83","admin2_code":"2466","admin3_code":"246601","admin4_code":"","population":"198835","elevation":"200","dem":"219","timezone":"Europe/Warsaw","modification_date":"2011-07-31"},{"geonameid":"3099343","name":"Gizałki","asciiname":"Gizalki","alternatenames":"","latitude":"52.04267","longitude":"17.76936","feature_class":"P","feature_code":"PPLA3","country_code":"PL","cc2":"","admin1_code":"86","admin2_code":"3020","admin3_code":"302004","admin4_code":"","population":"583","elevation":"","dem":"86","timezone":"Europe/Warsaw","modification_date":"2010-10-16"},{"geonameid":"3099351","name":"Gilowice","asciiname":"Gilowice","alternatenames":"","latitude":"49.99505","longitude":"19.09613","feature_class":"P","feature_code":"PPL","country_code":"PL","cc2":"","admin1_code":"83","admin2_code":"2410","admin3_code":"241003","admin4_code":"","population":"1214","elevation":"","dem":"243","timezone":"Europe/Warsaw","modification_date":"2010-09-09"},{"geonameid":"3099352","name":"Gilowice","asciiname":"Gilowice","alternatenames":"","latitude":"49.71277","longitude":"19.31045","feature_class":"P","feature_code":"PPL","country_code":"PL","cc2":"","admin1_code":"83","admin2_code":"2417","admin3_code":"241703","admin4_code":"","population":"4259","elevation":"","dem":"387","timezone":"Europe/Warsaw","modification_date":"2010-09-06"},{"geonameid":"3099371","name":"Gierałtowice","asciiname":"Gieraltowice","alternatenames":"","latitude":"50.22486","longitude":"18.73384","feature_class":"P","feature_code":"PPL","country_code":"PL","cc2":"","admin1_code":"83","admin2_code":"2405","admin3_code":"240503","admin4_code":"","population":"3752","elevation":"","dem":"242","timezone":"Europe/Warsaw","modification_date":"2010-09-06"},{"geonameid":"3099372","name":"Gierałtowice","asciiname":"Gieraltowice","alternatenames":"","latitude":"49.94426","longitude":"19.3907","feature_class":"P","feature_code":"PPL","country_code":"PL","cc2":"","admin1_code":"77","admin2_code":"1218","admin3_code":"121810","admin4_code":"","population":"1252","elevation":"","dem":"296","timezone":"Europe/Warsaw","modification_date":"2010-10-17"},{"geonameid":"3099378","name":"Cielmice","asciiname":"Cielmice","alternatenames":"Cielmice,Gielmice","latitude":"50.08826","longitude":"19.01896","feature_class":"P","feature_code":"PPL","country_code":"PL","cc2":"PL","admin1_code":"83","admin2_code":"2477","admin3_code":"247701","admin4_code":"","population":"1200","elevation":"","dem":"248","timezone":"Europe/Warsaw","modification_date":"2010-10-20"},{"geonameid":"3099388","name":"Giebułtów","asciiname":"Giebultow","alternatenames":"","latitude":"50.14556","longitude":"19.87856","feature_class":"P","feature_code":"PPL","country_code":"PL","cc2":"","admin1_code":"77","admin2_code":"1206","admin3_code":"120615","admin4_code":"","population":"1032","elevation":"","dem":"322","timezone":"Europe/Warsaw","modification_date":"2010-10-21"},{"geonameid":"3099391","name":"Gidle","asciiname":"Gidle","alternatenames":"","latitude":"50.96199","longitude":"19.47181","feature_class":"P","feature_code":"PPL","country_code":"PL","cc2":"","admin1_code":"74","admin2_code":"1012","admin3_code":"101203","admin4_code":"","population":"1540","elevation":"","dem":"214","timezone":"Europe/Warsaw","modification_date":"2010-09-06"},{"geonameid":"3099424","name":"Gdynia","asciiname":"Gdynia","alternatenames":"Civitas Gdinensis,Gdina,Gdingen,Gdinio,Gdiniô,Gdinja,Gdinya,Gdiņa,Gdyna,Gdyne,Gdynia,Gdynja,Gdynė,Gdyně,Gdyńa,Gdyňa,Gorad Gdynja,Gotenhafen,Gothenhafen,Kak-ten-ni-a,Kak-tên-nì-â,Nkntinia,QYD,gdinia,gdnya,gdynyh,ge ding ni ya,geudinia,ghdynya,gudinya,Γκντίνια,Гдиня,Гдиња,Гдыня,Горад Гдыня,Գդինյա,גדיניה,غدينيا,گدنیا,გდინია,グディニャ,格丁尼亚,그디니아","latitude":"54.51889","longitude":"18.53188","feature_class":"P","feature_code":"PPL","country_code":"PL","cc2":"","admin1_code":"82","admin2_code":"2262","admin3_code":"226201","admin4_code":"","population":"253730","elevation":"","dem":"14","timezone":"Europe/Warsaw","modification_date":"2010-09-13"},{"geonameid":"3099434","name":"Gdańsk","asciiname":"Gdansk","alternatenames":"Danceke,Dancigo,Dantsic,Danzica,Danzig,Dànzica,GDN,Gdan'sk,Gdanjsk,Gdans'k,Gdansk,Gdanska,Gdanskas,Gdańsk,Gdaņska,Gdaňsk,Gdunsk,Gduńsk,Gedanum,Gorad Gdan'sk,Gothiscandza,Gudan'sku,Gydanysg,Nkntansk,Qdansk,gadanska,gdansk,gdnsq,ge dan si ke,geudanseukeu,ghdansk,gudanisuku,katansk,kday sk,Γκντανσκ,Гданск,Гданськ,Гданьск,Гдањск,Горад Гданьск,Гъданьскъ,Գդանսկ,גדנסק,דאנציג,غدانسك,گدانسک,गदान्स्क,கதான்ஸ்க்,กดัญสก์,გდანსკი,グダニスク,格但斯克,그단스크","latitude":"54.35205","longitude":"18.64637","feature_class":"P","feature_code":"PPLA","country_code":"PL","cc2":"","admin1_code":"82","admin2_code":"2261","admin3_code":"226101","admin4_code":"","population":"461865","elevation":"","dem":"7","timezone":"Europe/Warsaw","modification_date":"2015-11-03"},{"geonameid":"3099445","name":"Gaworzyce","asciiname":"Gaworzyce","alternatenames":"Gaworzyce","latitude":"51.62773","longitude":"15.88198","feature_class":"P","feature_code":"PPL","country_code":"PL","cc2":"","admin1_code":"72","admin2_code":"0216","admin3_code":"021602","admin4_code":"","population":"1500","elevation":"","dem":"153","timezone":"Europe/Warsaw","modification_date":"2010-09-10"},{"geonameid":"3099452","name":"Gaszowice","asciiname":"Gaszowice","alternatenames":"","latitude":"50.10858","longitude":"18.43042","feature_class":"P","feature_code":"PPLA3","country_code":"PL","cc2":"","admin1_code":"83","admin2_code":"2412","admin3_code":"241202","admin4_code":"","population":"2861","elevation":"","dem":"257","timezone":"Europe/Warsaw","modification_date":"2010-09-20"},{"geonameid":"3099473","name":"Gąsawa","asciiname":"Gasawa","alternatenames":"Gasawa,Gąsawa","latitude":"52.76757","longitude":"17.75579","feature_class":"P","feature_code":"PPLA3","country_code":"PL","cc2":"","admin1_code":"73","admin2_code":"0419","admin3_code":"041902","admin4_code":"","population":"1400","elevation":"","dem":"86","timezone":"Europe/Warsaw","modification_date":"2010-09-16"},{"geonameid":"3099492","name":"Gardeja","asciiname":"Gardeja","alternatenames":"Gardeja,Garnsee,Гардея","latitude":"53.61125","longitude":"18.94687","feature_class":"P","feature_code":"PPL","country_code":"PL","cc2":"","admin1_code":"82","admin2_code":"2207","admin3_code":"220702","admin4_code":"","population":"2500","elevation":"","dem":"84","timezone":"Europe/Warsaw","modification_date":"2010-09-05"},{"geonameid":"3099494","name":"Gardawice","asciiname":"Gardawice","alternatenames":"","latitude":"50.11667","longitude":"18.8","feature_class":"P","feature_code":"PPLX","country_code":"PL","cc2":"","admin1_code":"83","admin2_code":"2408","admin3_code":"240803","admin4_code":"","population":"1859","elevation":"","dem":"261","timezone":"Europe/Warsaw","modification_date":"2015-09-05"},{"geonameid":"3099498","name":"Garcz","asciiname":"Garcz","alternatenames":"","latitude":"54.3476","longitude":"18.10169","feature_class":"P","feature_code":"PPL","country_code":"PL","cc2":"","admin1_code":"82","admin2_code":"2205","admin3_code":"220501","admin4_code":"","population":"1908","elevation":"","dem":"169","timezone":"Europe/Warsaw","modification_date":"2010-10-19"},{"geonameid":"3099529","name":"Gałków Mały","asciiname":"Galkow Maly","alternatenames":"","latitude":"51.72554","longitude":"19.71359","feature_class":"P","feature_code":"PPL","country_code":"PL","cc2":"","admin1_code":"74","admin2_code":"1006","admin3_code":"100607","admin4_code":"","population":"1455","elevation":"","dem":"218","timezone":"Europe/Warsaw","modification_date":"2010-10-15"},{"geonameid":"3099544","name":"Galewice","asciiname":"Galewice","alternatenames":"","latitude":"51.34471","longitude":"18.25756","feature_class":"P","feature_code":"PPLA3","country_code":"PL","cc2":"","admin1_code":"74","admin2_code":"1018","admin3_code":"101803","admin4_code":"","population":"1200","elevation":"","dem":"160","timezone":"Europe/Warsaw","modification_date":"2010-10-16"},{"geonameid":"3099619","name":"Gąbin","asciiname":"Gabin","alternatenames":"Gabin,Gombin,Gombina,Gąbin,gong bin,gwmbyn,Гомбин,Гомбін,גומבין,貢賓","latitude":"52.39849","longitude":"19.73509","feature_class":"P","feature_code":"PPLA3","country_code":"PL","cc2":"","admin1_code":"78","admin2_code":"1419","admin3_code":"141906","admin4_code":"","population":"4056","elevation":"","dem":"101","timezone":"Europe/Warsaw","modification_date":"2014-06-27"},{"geonameid":"3099629","name":"Frydrychowice","asciiname":"Frydrychowice","alternatenames":"","latitude":"49.90481","longitude":"19.41936","feature_class":"P","feature_code":"PPL","country_code":"PL","cc2":"","admin1_code":"77","admin2_code":"1218","admin3_code":"121810","admin4_code":"","population":"2799","elevation":"","dem":"259","timezone":"Europe/Warsaw","modification_date":"2010-10-17"},{"geonameid":"3099630","name":"Frydek","asciiname":"Frydek","alternatenames":"","latitude":"49.99626","longitude":"19.07278","feature_class":"P","feature_code":"PPL","country_code":"PL","cc2":"","admin1_code":"83","admin2_code":"2410","admin3_code":"241003","admin4_code":"","population":"1019","elevation":"","dem":"248","timezone":"Europe/Warsaw","modification_date":"2010-10-23"},{"geonameid":"3099634","name":"Frombork","asciiname":"Frombork","alternatenames":"Frauenburg,Frauenburgum,Frombork,Fromborka,fu long bao,Фромборк,弗龙堡","latitude":"54.35766","longitude":"19.68029","feature_class":"P","feature_code":"PPLA3","country_code":"PL","cc2":"PL","admin1_code":"85","admin2_code":"2802","admin3_code":"280203","admin4_code":"","population":"2529","elevation":"","dem":"6","timezone":"Europe/Warsaw","modification_date":"2010-10-21"},{"geonameid":"3099654","name":"Fordon","asciiname":"Fordon","alternatenames":"","latitude":"53.14821","longitude":"18.17036","feature_class":"P","feature_code":"PPL","country_code":"PL","cc2":"","admin1_code":"73","admin2_code":"0461","admin3_code":"046101","admin4_code":"","population":"70000","elevation":"","dem":"39","timezone":"Europe/Warsaw","modification_date":"2010-10-28"},{"geonameid":"3099679","name":"Filipowice","asciiname":"Filipowice","alternatenames":"","latitude":"50.15573","longitude":"19.56579","feature_class":"P","feature_code":"PPL","country_code":"PL","cc2":"","admin1_code":"77","admin2_code":"1206","admin3_code":"120606","admin4_code":"","population":"2090","elevation":"","dem":"319","timezone":"Europe/Warsaw","modification_date":"2010-10-17"},{"geonameid":"3099720","name":"Fabianki","asciiname":"Fabianki","alternatenames":"Fabianki,Fabjanki","latitude":"52.71929","longitude":"19.10943","feature_class":"P","feature_code":"PPLA3","country_code":"PL","cc2":"PL","admin1_code":"73","admin2_code":"0418","admin3_code":"041807","admin4_code":"","population":"660","elevation":"","dem":"85","timezone":"Europe/Warsaw","modification_date":"2010-09-16"},{"geonameid":"3099759","name":"Elbląg","asciiname":"Elblag","alternatenames":"Ehl'blong,El'bleng,El'blong,Elbing,Elbinga,Elbingas,Elbl'ong,Elblag,Elblong,Elblonga,Elbląg,Elwing,El’blëng,Gorad Ehl'bljong,Ilfingburg,ZBG,ai er bu long ge,alblng,alblngh,elbeullongkeu,eruburonku,xe lb lxng k,Горад Эльблёнг,Елблаг,Елбльонг,Ельблонг,Эльблонг,אלבלונג,البلنغ,البلنگ,เอลบลองก์,エルブロンク,埃爾布隆格,엘블롱크","latitude":"54.1522","longitude":"19.40884","feature_class":"P","feature_code":"PPLA2","country_code":"PL","cc2":"","admin1_code":"85","admin2_code":"2861","admin3_code":"286101","admin4_code":"","population":"127558","elevation":"","dem":"8","timezone":"Europe/Warsaw","modification_date":"2015-09-05"},{"geonameid":"3099778","name":"Dziećmorowice","asciiname":"Dziecmorowice","alternatenames":"","latitude":"50.76947","longitude":"16.35212","feature_class":"P","feature_code":"PPL","country_code":"PL","cc2":"","admin1_code":"72","admin2_code":"0221","admin3_code":"022108","admin4_code":"","population":"1162","elevation":"","dem":"425","timezone":"Europe/Warsaw","modification_date":"2010-10-20"},{"geonameid":"3099783","name":"Dziwnów","asciiname":"Dziwnow","alternatenames":"Dzivnova,Dzivnuv,Dzywnowo,Dzywnowò,Ost Dievenow,ji fu nu fu,Ђивнов,Дзивнув,Дзівнув,濟夫努夫","latitude":"54.02819","longitude":"14.76691","feature_class":"P","feature_code":"PPLA3","country_code":"PL","cc2":"PL","admin1_code":"87","admin2_code":"3207","admin3_code":"320701","admin4_code":"","population":"2904","elevation":"","dem":"2","timezone":"Europe/Warsaw","modification_date":"2010-09-20"},{"geonameid":"3099828","name":"Dzierżoniów","asciiname":"Dzierzoniow","alternatenames":"Dzerzhonjuv,Dzerzoniuvas,Dzerzonova,Dzeržoniuvas,Dzeržoņova,Dzherzhon'ov,Dzierzoniow,Dzierżoniów,Reichenbach,Reichenbach im Eulengebirge,Reichenbach in Schlesien,Rychbach,dzrzwnywb,jie er ruo niu fu,Ђержоњов,Джержоньов,Дзержонюв,דזרזוניוב,傑爾若紐夫","latitude":"50.7282","longitude":"16.65141","feature_class":"P","feature_code":"PPLA3","country_code":"PL","cc2":"","admin1_code":"72","admin2_code":"0202","admin3_code":"020202","admin4_code":"","population":"34168","elevation":"","dem":"278","timezone":"Europe/Warsaw","modification_date":"2015-08-03"},{"geonameid":"3099842","name":"Dzierzgoń","asciiname":"Dzierzgon","alternatenames":"Christburg,Dzerzgon,Dzezgona,Dzezhgon',Dzežgoņa,Dzierzgon,Dzierzgoń,Dzërzgóń,jie ri gong,Ђежгоњ,Дзежгонь,Дзежґонь,傑日貢","latitude":"53.92196","longitude":"19.34705","feature_class":"P","feature_code":"PPL","country_code":"PL","cc2":"","admin1_code":"82","admin2_code":"2216","admin3_code":"221601","admin4_code":"","population":"5518","elevation":"","dem":"14","timezone":"Europe/Warsaw","modification_date":"2010-09-25"},{"geonameid":"3099873","name":"Dziergowice","asciiname":"Dziergowice","alternatenames":"Dziergowice,Dziergowitz,Oderwalde","latitude":"50.24248","longitude":"18.28606","feature_class":"P","feature_code":"PPL","country_code":"PL","cc2":"PL","admin1_code":"79","admin2_code":"1603","admin3_code":"160302","admin4_code":"","population":"2556","elevation":"","dem":"185","timezone":"Europe/Warsaw","modification_date":"2010-10-20"},{"geonameid":"3099878","name":"Dziemiany","asciiname":"Dziemiany","alternatenames":"Dzemione,Dzemiónë,Dziemiany","latitude":"54.00636","longitude":"17.76755","feature_class":"P","feature_code":"PPL","country_code":"PL","cc2":"","admin1_code":"82","admin2_code":"2206","admin3_code":"220602","admin4_code":"","population":"1762","elevation":"","dem":"163","timezone":"Europe/Warsaw","modification_date":"2010-09-13"},{"geonameid":"3099887","name":"Dzięgielów","asciiname":"Dziegielow","alternatenames":"Dziegielow,Dzięgielów","latitude":"49.72259","longitude":"18.70491","feature_class":"P","feature_code":"PPL","country_code":"PL","cc2":"","admin1_code":"83","admin2_code":"2403","admin3_code":"240307","admin4_code":"","population":"1332","elevation":"","dem":"324","timezone":"Europe/Warsaw","modification_date":"2010-09-06"},{"geonameid":"3099923","name":"Działoszyn","asciiname":"Dzialoszyn","alternatenames":"Dzialoszyn,Działoszyn,Dzjaloshin,Dzjalosina,Dzjalošina,gu wo shen,Ђалошин,Дзялошин,דזיאלושין,賈沃申","latitude":"51.11699","longitude":"18.86524","feature_class":"P","feature_code":"PPL","country_code":"PL","cc2":"","admin1_code":"74","admin2_code":"1009","admin3_code":"100901","admin4_code":"","population":"6222","elevation":"","dem":"182","timezone":"Europe/Warsaw","modification_date":"2011-06-25"},{"geonameid":"3099934","name":"Dziadowa Kłoda","asciiname":"Dziadowa Kloda","alternatenames":"Dziadowa Kloda,Dziadowa Kłoda,Kunzendorf","latitude":"51.23543","longitude":"17.70919","feature_class":"P","feature_code":"PPL","country_code":"PL","cc2":"","admin1_code":"72","admin2_code":"0214","admin3_code":"021404","admin4_code":"","population":"1174","elevation":"","dem":"168","timezone":"Europe/Warsaw","modification_date":"2010-09-12"},{"geonameid":"3099966","name":"Dygowo","asciiname":"Dygowo","alternatenames":"Degow","latitude":"54.13031","longitude":"15.71993","feature_class":"P","feature_code":"PPL","country_code":"PL","cc2":"PL","admin1_code":"87","admin2_code":"3208","admin3_code":"320802","admin4_code":"","population":"1549","elevation":"","dem":"28","timezone":"Europe/Warsaw","modification_date":"2010-09-07"},{"geonameid":"3099992","name":"Duszniki-Zdrój","asciiname":"Duszniki-Zdroj","alternatenames":"Bad Reinerz,Dushniki-Zdroj,Dushniki-Zdruj,Dusnikizdroja,Duszniki,Duszniki Zdroj,Duszniki Zdrój,Duszniki-Zdruj,Duszńiki-Zdrůj,Dušņikizdroja,Reinerz,du shen ni ji-zi de lu yi,Душники-Здруй,Душњики-Здрој,杜什尼基-茲德魯伊","latitude":"50.40327","longitude":"16.39091","feature_class":"P","feature_code":"PPLA3","country_code":"PL","cc2":"PL","admin1_code":"72","admin2_code":"0208","admin3_code":"020801","admin4_code":"","population":"4888","elevation":"","dem":"529","timezone":"Europe/Warsaw","modification_date":"2011-07-31"},{"geonameid":"3099993","name":"Duszniki","asciiname":"Duszniki","alternatenames":"Comuna de Duszniki,Dushniki,Gmina Dushniki,Gmina Duszniki,Душники,Ґміна Душники","latitude":"52.44691","longitude":"16.40602","feature_class":"P","feature_code":"PPLA3","country_code":"PL","cc2":"","admin1_code":"86","admin2_code":"3024","admin3_code":"302402","admin4_code":"","population":"2100","elevation":"","dem":"90","timezone":"Europe/Warsaw","modification_date":"2011-07-31"},{"geonameid":"3100027","name":"Drzycim","asciiname":"Drzycim","alternatenames":"","latitude":"53.5052","longitude":"18.3094","feature_class":"P","feature_code":"PPL","country_code":"PL","cc2":"","admin1_code":"73","admin2_code":"0414","admin3_code":"041403","admin4_code":"","population":"1200","elevation":"","dem":"98","timezone":"Europe/Warsaw","modification_date":"2010-09-13"},{"geonameid":"3100086","name":"Drużbice","asciiname":"Druzbice","alternatenames":"","latitude":"51.46369","longitude":"19.39404","feature_class":"P","feature_code":"PPLA3","country_code":"PL","cc2":"","admin1_code":"74","admin2_code":"1001","admin3_code":"100103","admin4_code":"","population":"530","elevation":"","dem":"198","timezone":"Europe/Warsaw","modification_date":"2010-10-15"},{"geonameid":"3100116","name":"Drogomyśl","asciiname":"Drogomysl","alternatenames":"Drogomysl,Drogomyśl","latitude":"49.86964","longitude":"18.75727","feature_class":"P","feature_code":"PPL","country_code":"PL","cc2":"","admin1_code":"83","admin2_code":"2403","admin3_code":"240311","admin4_code":"","population":"2091","elevation":"","dem":"268","timezone":"Europe/Warsaw","modification_date":"2010-09-06"},{"geonameid":"3100124","name":"Drobin","asciiname":"Drobin","alternatenames":"Drobin,Drobina,de luo bin,drwbyn,Дробин,Дробін,דרובין,得羅賓","latitude":"52.73775","longitude":"19.98928","feature_class":"P","feature_code":"PPLA3","country_code":"PL","cc2":"","admin1_code":"78","admin2_code":"1419","admin3_code":"141905","admin4_code":"","population":"2938","elevation":"","dem":"129","timezone":"Europe/Warsaw","modification_date":"2010-09-18"},{"geonameid":"3100127","name":"Drezdenko","asciiname":"Drezdenko","alternatenames":"Derzen,Drebenko,Drezdenkas,Drezdenko,Driesen,Drizenko,Dërżéń,de lei ci deng ke,Дрезденко,Դրիզենկո,德雷兹登科","latitude":"52.83831","longitude":"15.83079","feature_class":"P","feature_code":"PPLA3","country_code":"PL","cc2":"","admin1_code":"76","admin2_code":"0806","admin3_code":"080602","admin4_code":"","population":"10541","elevation":"","dem":"30","timezone":"Europe/Warsaw","modification_date":"2011-07-31"},{"geonameid":"3100139","name":"Drawsko Pomorskie","asciiname":"Drawsko Pomorskie","alternatenames":"Dramburg,Dravs'ko-Pomors'ke,Dravsko Pomorske,Dravsko Pomorskje,Dravsko-Pomorske,Drawsko,Drawsko Pomorskie,Drowa,Drôwa,Gorad Drauska Pamorske,bo mo rui de qu de la fu si ke,Горад Драўска Паморске,Дравско Поморске,Дравско Поморскје,Дравско-Поморске,Дравсько-Поморське,波莫瑞地區德拉夫斯科","latitude":"53.53056","longitude":"15.80967","feature_class":"P","feature_code":"PPL","country_code":"PL","cc2":"","admin1_code":"87","admin2_code":"3203","admin3_code":"320302","admin4_code":"","population":"11275","elevation":"","dem":"116","timezone":"Europe/Warsaw","modification_date":"2010-09-07"},{"geonameid":"3100142","name":"Drawsko","asciiname":"Drawsko","alternatenames":"Dratzig,Drawsko,Drawsko Kreuz,Vratzig","latitude":"52.85421","longitude":"16.03125","feature_class":"P","feature_code":"PPL","country_code":"PL","cc2":"PL","admin1_code":"86","admin2_code":"3002","admin3_code":"300203","admin4_code":"","population":"1640","elevation":"","dem":"45","timezone":"Europe/Warsaw","modification_date":"2010-09-28"},{"geonameid":"3100148","name":"Drawno","asciiname":"Drawno","alternatenames":"Dravno,Drawno,Neuwedell,Nowi Wedel,de la fu nuo,Дравно,德拉夫諾","latitude":"53.21986","longitude":"15.75946","feature_class":"P","feature_code":"PPLA3","country_code":"PL","cc2":"PL","admin1_code":"87","admin2_code":"3202","admin3_code":"320203","admin4_code":"","population":"2423","elevation":"","dem":"82","timezone":"Europe/Warsaw","modification_date":"2011-07-31"},{"geonameid":"3100162","name":"Doruchów","asciiname":"Doruchow","alternatenames":"","latitude":"51.41719","longitude":"18.07697","feature_class":"P","feature_code":"PPLA3","country_code":"PL","cc2":"","admin1_code":"86","admin2_code":"3018","admin3_code":"301802","admin4_code":"","population":"2400","elevation":"","dem":"154","timezone":"Europe/Warsaw","modification_date":"2010-10-16"},{"geonameid":"3100171","name":"Dopiewo","asciiname":"Dopiewo","alternatenames":"","latitude":"52.35726","longitude":"16.67562","feature_class":"P","feature_code":"PPLA3","country_code":"PL","cc2":"","admin1_code":"86","admin2_code":"3021","admin3_code":"302105","admin4_code":"","population":"2848","elevation":"","dem":"84","timezone":"Europe/Warsaw","modification_date":"2011-07-31"},{"geonameid":"3100180","name":"Dominowo","asciiname":"Dominowo","alternatenames":"","latitude":"52.29158","longitude":"17.35754","feature_class":"P","feature_code":"PPLA3","country_code":"PL","cc2":"","admin1_code":"86","admin2_code":"3025","admin3_code":"302501","admin4_code":"","population":"547","elevation":"","dem":"100","timezone":"Europe/Warsaw","modification_date":"2010-10-16"},{"geonameid":"3100193","name":"Domaszowice","asciiname":"Domaszowice","alternatenames":"Domaszowice,Noldau","latitude":"51.0429","longitude":"17.88875","feature_class":"P","feature_code":"PPLA3","country_code":"PL","cc2":"PL","admin1_code":"79","admin2_code":"1606","admin3_code":"160601","admin4_code":"","population":"1100","elevation":"","dem":"165","timezone":"Europe/Warsaw","modification_date":"2010-09-25"},{"geonameid":"3100212","name":"Domaniewice","asciiname":"Domaniewice","alternatenames":"","latitude":"52.00623","longitude":"19.80294","feature_class":"P","feature_code":"PPLA3","country_code":"PL","cc2":"","admin1_code":"74","admin2_code":"1005","admin3_code":"100504","admin4_code":"","population":"906","elevation":"","dem":"127","timezone":"Europe/Warsaw","modification_date":"2010-10-15"},{"geonameid":"3100231","name":"Dolsk","asciiname":"Dolsk","alternatenames":"Dol's'k,Dol'sk,Dolsk,Dolska,Dolskas,Gorad Dol'sk,duo er si ke,Горад Дольск,Долск,Дольск,Дольськ,多爾斯克","latitude":"51.9818","longitude":"17.06273","feature_class":"P","feature_code":"PPL","country_code":"PL","cc2":"","admin1_code":"86","admin2_code":"3026","admin3_code":"302602","admin4_code":"","population":"1527","elevation":"","dem":"82","timezone":"Europe/Warsaw","modification_date":"2010-09-28"},{"geonameid":"3100247","name":"Dolice","asciiname":"Dolice","alternatenames":"Dolice,Dolitz,Dölitz","latitude":"53.19081","longitude":"15.20267","feature_class":"P","feature_code":"PPLA3","country_code":"PL","cc2":"PL","admin1_code":"87","admin2_code":"3214","admin3_code":"321404","admin4_code":"","population":"2028","elevation":"","dem":"37","timezone":"Europe/Warsaw","modification_date":"2010-09-22"},{"geonameid":"3100266","name":"Dobrzyń nad Wisłą","asciiname":"Dobrzyn nad Wisla","alternatenames":"Dobrzyn,Dobrzyn nad Wisla,Dobrzyń,Dobrzyń nad Wisłą,Dobzhin nad Vislom,Dobzhin'-nad-Visloju,Dobzhin'-nad-Vislon,Dobzina pie Vislas,Dobžiņa pie Vislas,wei si wa he pan duo bu ren,Добжин над Вислом,Добжинь-над-Вислон,Добжинь-над-Віслою,דובזין על נהר ויסלה,維斯瓦河畔多布任","latitude":"52.63814","longitude":"19.31875","feature_class":"P","feature_code":"PPLA3","country_code":"PL","cc2":"PL","admin1_code":"73","admin2_code":"0408","admin3_code":"040804","admin4_code":"","population":"2268","elevation":"","dem":"97","timezone":"Europe/Warsaw","modification_date":"2010-09-15"},{"geonameid":"3100280","name":"Dobrzyca","asciiname":"Dobrzyca","alternatenames":"Dobzhica,Добжица","latitude":"51.86663","longitude":"17.60336","feature_class":"P","feature_code":"PPL","country_code":"PL","cc2":"","admin1_code":"86","admin2_code":"3020","admin3_code":"302003","admin4_code":"","population":"3254","elevation":"","dem":"142","timezone":"Europe/Warsaw","modification_date":"2010-09-23"},{"geonameid":"3100283","name":"Dobrzeń Wielki","asciiname":"Dobrzen Wielki","alternatenames":"Dobern,Dobrze,Dobrzen Wielki,Dobrzeń Wielki,Döbern,Gross Dobern,Gross Döbern,Wielki Dobrzen,Wielki Dobrzeń","latitude":"50.76844","longitude":"17.84652","feature_class":"P","feature_code":"PPL","country_code":"PL","cc2":"PL","admin1_code":"79","admin2_code":"1609","admin3_code":"160903","admin4_code":"","population":"4500","elevation":"","dem":"148","timezone":"Europe/Warsaw","modification_date":"2010-09-12"},{"geonameid":"3100297","name":"Dobrzany","asciiname":"Dobrzany","alternatenames":"Dobzani,Dobzhani,Dobzhany,Dobžani,Jacobshagen,Jakobshagen,Jakubowo,Jakùbòwò,duo bu zha nei,Добжани,Добжаны,多布扎內","latitude":"53.35914","longitude":"15.42886","feature_class":"P","feature_code":"PPLA3","country_code":"PL","cc2":"PL","admin1_code":"87","admin2_code":"3214","admin3_code":"321403","admin4_code":"","population":"2360","elevation":"","dem":"78","timezone":"Europe/Warsaw","modification_date":"2010-09-22"},{"geonameid":"3100306","name":"Dobroszyce","asciiname":"Dobroszyce","alternatenames":"Dobroszyce,Douroszyce,Juliusburg","latitude":"51.26776","longitude":"17.34205","feature_class":"P","feature_code":"PPL","country_code":"PL","cc2":"PL","admin1_code":"72","admin2_code":"0214","admin3_code":"021403","admin4_code":"","population":"2376","elevation":"","dem":"162","timezone":"Europe/Warsaw","modification_date":"2015-09-01"},{"geonameid":"3100327","name":"Dobroń","asciiname":"Dobron","alternatenames":"","latitude":"51.63885","longitude":"19.24539","feature_class":"P","feature_code":"PPLA3","country_code":"PL","cc2":"","admin1_code":"74","admin2_code":"1008","admin3_code":"100804","admin4_code":"","population":"1210","elevation":"","dem":"182","timezone":"Europe/Warsaw","modification_date":"2010-10-15"},{"geonameid":"3100342","name":"Dobrodzień","asciiname":"Dobrodzien","alternatenames":"Dobrodzen',Dobrodzhen,Dobrodzien,Dobrodzień,Gogolina,Guttentag,duo bu luo jin,Доброджен,Добродзень,Доброђењ,多布羅津","latitude":"50.72874","longitude":"18.44501","feature_class":"P","feature_code":"PPLA3","country_code":"PL","cc2":"","admin1_code":"79","admin2_code":"1608","admin3_code":"160801","admin4_code":"","population":"4014","elevation":"","dem":"234","timezone":"Europe/Warsaw","modification_date":"2011-07-31"},{"geonameid":"3100355","name":"Dobre","asciiname":"Dobre","alternatenames":"","latitude":"52.68398","longitude":"18.57762","feature_class":"P","feature_code":"PPLA3","country_code":"PL","cc2":"","admin1_code":"73","admin2_code":"0411","admin3_code":"041103","admin4_code":"","population":"2500","elevation":"","dem":"88","timezone":"Europe/Warsaw","modification_date":"2010-09-15"},{"geonameid":"3100363","name":"Dobra","asciiname":"Dobra","alternatenames":"Daber,Dobra,Dobra Nowogardzka,Dobro,Dobrô,Gorad Dobra,duo bu la,Горад Добра,Добра,多布拉","latitude":"53.58625","longitude":"15.30977","feature_class":"P","feature_code":"PPLA3","country_code":"PL","cc2":"PL","admin1_code":"87","admin2_code":"3218","admin3_code":"321801","admin4_code":"","population":"2336","elevation":"","dem":"79","timezone":"Europe/Warsaw","modification_date":"2010-09-21"},{"geonameid":"3100364","name":"Dobra","asciiname":"Dobra","alternatenames":"Daber,Dobra,Szczecinska,Szczecińska","latitude":"53.48835","longitude":"14.38617","feature_class":"P","feature_code":"PPLA3","country_code":"PL","cc2":"PL","admin1_code":"87","admin2_code":"3211","admin3_code":"321101","admin4_code":"","population":"950","elevation":"","dem":"20","timezone":"Europe/Warsaw","modification_date":"2010-09-21"},