{"nextFile":"cities.3.json","rows":[{"geonameid":"3866667","name":"Agua de Oro","asciiname":"Agua de Oro","alternatenames":"","latitude":"-31.06661","longitude":"-64.30017","feature_class":"P","feature_code":"PPL","country_code":"AR","cc2":"","admin1_code":"05","admin2_code":"14021","admin3_code":"","admin4_code":"","population":"1553","elevation":"","dem":"791","timezone":"America/Argentina/Cordoba","modification_date":"2016-01-30"},{"geonameid":"3866935","name":"Adelia María","asciiname":"Adelia Maria","alternatenames":"","latitude":"-33.63152","longitude":"-64.02097","feature_class":"P","feature_code":"PPL","country_code":"AR","cc2":"","admin1_code":"05","admin2_code":"14098","admin3_code":"","admin4_code":"","population":"6434","elevation":"","dem":"266","timezone":"America/Argentina/Cordoba","modification_date":"2016-01-30"},{"geonameid":"3866959","name":"Achiras","asciiname":"Achiras","alternatenames":"","latitude":"-33.17538","longitude":"-64.99331","feature_class":"P","feature_code":"PPL","country_code":"AR","cc2":"","admin1_code":"05","admin2_code":"14098","admin3_code":"","admin4_code":"","population":"2173","elevation":"","dem":"832","timezone":"America/Argentina/Cordoba","modification_date":"2016-01-30"},{"geonameid":"3867009","name":"Abra Pampa","asciiname":"Abra Pampa","alternatenames":"Abra Pampa","latitude":"-22.72049","longitude":"-65.69697","feature_class":"P","feature_code":"PPLA2","country_code":"AR","cc2":"","admin1_code":"10","admin2_code":"38007","admin3_code":"","admin4_code":"","population":"9425","elevation":"","dem":"3487","timezone":"America/Argentina/Jujuy","modification_date":"2016-01-30"},{"geonameid":"6693230","name":"Villa Santa Rita","asciiname":"Villa Santa Rita","alternatenames":"","latitude":"-34.61082","longitude":"-58.481","feature_class":"P","feature_code":"PPLX","country_code":"AR","cc2":"","admin1_code":"07","admin2_code":"","admin3_code":"","admin4_code":"","population":"34000","elevation":"","dem":"25","timezone":"America/Argentina/Buenos_Aires","modification_date":"2010-11-28"},{"geonameid":"6942842","name":"Bella Italia","asciiname":"Bella Italia","alternatenames":"","latitude":"-31.27268","longitude":"-61.42396","feature_class":"P","feature_code":"PPL","country_code":"AR","cc2":"","admin1_code":"21","admin2_code":"82021","admin3_code":"","admin4_code":"","population":"1100","elevation":"0","dem":"77","timezone":"America/Argentina/Cordoba","modification_date":"2016-01-30"},{"geonameid":"7116865","name":"Cariló","asciiname":"Carilo","alternatenames":"Karilo,Карило","latitude":"-37.16524","longitude":"-56.89133","feature_class":"P","feature_code":"PPL","country_code":"AR","cc2":"","admin1_code":"01","admin2_code":"06644","admin3_code":"","admin4_code":"","population":"1553","elevation":"","dem":"6","timezone":"America/Argentina/Buenos_Aires","modification_date":"2016-01-30"},{"geonameid":"7116866","name":"Villa Mercedes","asciiname":"Villa Mercedes","alternatenames":"VME,Vila Mersedes,Vilja Mersedesas,biyameleusedeseu,fyla mrsyds  san lwys,mei sai de si zhen,vilia-mersedesi,wyya mrsds,wyzh mrsds,Виља Мерседес,ויזה מרסדס,فيلا مرسيدس، سان لويس,وییا مرسدس,ვილია-მერსედესი,ビジャ・メルセデス,梅塞德斯鎮,비야메르세데스","latitude":"-33.67571","longitude":"-65.45783","feature_class":"P","feature_code":"PPL","country_code":"AR","cc2":"","admin1_code":"19","admin2_code":"74035","admin3_code":"","admin4_code":"","population":"96781","elevation":"","dem":"516","timezone":"America/Argentina/San_Luis","modification_date":"2016-01-30"},{"geonameid":"7284819","name":"La Punta","asciiname":"La Punta","alternatenames":"","latitude":"-33.18368","longitude":"-66.3127","feature_class":"P","feature_code":"PPLL","country_code":"AR","cc2":"","admin1_code":"19","admin2_code":"74056","admin3_code":"","admin4_code":"","population":"15000","elevation":"700","dem":"814","timezone":"America/Argentina/San_Luis","modification_date":"2016-01-30"},{"geonameid":"7304381","name":"Villa Berna","asciiname":"Villa Berna","alternatenames":"","latitude":"-31.90321","longitude":"-64.75651","feature_class":"P","feature_code":"PPL","country_code":"AR","cc2":"","admin1_code":"05","admin2_code":"14007","admin3_code":"","admin4_code":"","population":"5000","elevation":"1500","dem":"1373","timezone":"America/Argentina/Cordoba","modification_date":"2016-01-30"},{"geonameid":"7304383","name":"Cuesta Blanca","asciiname":"Cuesta Blanca","alternatenames":"","latitude":"-31.48658","longitude":"-64.5715","feature_class":"P","feature_code":"PPLL","country_code":"AR","cc2":"","admin1_code":"05","admin2_code":"14091","admin3_code":"","admin4_code":"","population":"3200","elevation":"1500","dem":"756","timezone":"America/Argentina/Cordoba","modification_date":"2016-01-30"},{"geonameid":"7535637","name":"Avellaneda","asciiname":"Avellaneda","alternatenames":"Avel'janeda,Avelaneda,Aveljaneda,a wei ya nei da,abejaneda,abeyaneda,avelianeda,awyanda,Авельянеда,Авелянеда,Авељанеда,אבזאנדה,آویاندا,აველიანედა,アベジャネーダ,阿韦亚内达,아베야네다","latitude":"-34.66018","longitude":"-58.36744","feature_class":"P","feature_code":"PPLA2","country_code":"AR","cc2":"","admin1_code":"01","admin2_code":"06035","admin3_code":"","admin4_code":"","population":"0","elevation":"","dem":"13","timezone":"America/Argentina/Buenos_Aires","modification_date":"2015-04-22"},{"geonameid":"7647007","name":"San Carlos de Bariloche","asciiname":"San Carlos de Bariloche","alternatenames":"BRC,Bariloce,Bariloche,Bariloĉe,San Carlos de Bariloche,San Karlos de Bariloce,San Karlos de Bariloche,San Karlos de Bariločė,San-Karlos-de-Bariloche,barylwchh,barylwtshy,bʼrylwzh,sankaleulloseudebalilloche,sheng ka luo si-de ba li luo qie,Сан Карлос де Барилоче,Сан-Карлос-де-Барилоче,Сан-Карлос-де-Барілоче,Սան Կառլոս դե Բարիլոչե,בארילוצה,باريلوتشي,باریلوچه,باریلۆچی,სან-კარლოს-დე-ბარილოჩე,サン・カルロス・デ・バリローチェ,圣卡洛斯-德巴里洛切,산카를로스데바릴로체","latitude":"-41.14557","longitude":"-71.30822","feature_class":"P","feature_code":"PPLA3","country_code":"AR","cc2":"","admin1_code":"16","admin2_code":"62021","admin3_code":"3837856","admin4_code":"","population":"95394","elevation":"","dem":"839","timezone":"America/Argentina/Salta","modification_date":"2015-04-22"},{"geonameid":"8015350","name":"Santa Catalina - Dique Lujan","asciiname":"Santa Catalina - Dique Lujan","alternatenames":"","latitude":"-34.38375","longitude":"-58.70673","feature_class":"P","feature_code":"PPLS","country_code":"AR","cc2":"","admin1_code":"01","admin2_code":"06805","admin3_code":"","admin4_code":"","population":"1600","elevation":"10","dem":"-2","timezone":"America/Argentina/Buenos_Aires","modification_date":"2016-01-30"},{"geonameid":"8521759","name":"Río Turbio","asciiname":"Rio Turbio","alternatenames":"RYO,Rio Turbio,Río Turbio","latitude":"-51.53587","longitude":"-72.33673","feature_class":"P","feature_code":"PPL","country_code":"AR","cc2":"","admin1_code":"20","admin2_code":"78021","admin3_code":"","admin4_code":"","population":"6650","elevation":"","dem":"324","timezone":"America/Argentina/Rio_Gallegos","modification_date":"2016-01-30"},{"geonameid":"10172104","name":"Adrogué","asciiname":"Adrogue","alternatenames":"","latitude":"-34.80041","longitude":"-58.38384","feature_class":"P","feature_code":"PPL","country_code":"AR","cc2":"","admin1_code":"01","admin2_code":"06028","admin3_code":"","admin4_code":"","population":"28265","elevation":"24","dem":"28","timezone":"America/Argentina/Buenos_Aires","modification_date":"2015-04-22"},{"geonameid":"11102123","name":"Los Laureles","asciiname":"Los Laureles","alternatenames":"","latitude":"-29.36847","longitude":"-59.73634","feature_class":"P","feature_code":"PPL","country_code":"AR","cc2":"","admin1_code":"21","admin2_code":"82049","admin3_code":"","admin4_code":"","population":"1519","elevation":"","dem":"32","timezone":"America/Argentina/Buenos_Aires","modification_date":"2016-03-20"},{"geonameid":"11102223","name":"Gato Colorado","asciiname":"Gato Colorado","alternatenames":"","latitude":"-28.02219","longitude":"-61.18663","feature_class":"P","feature_code":"PPL","country_code":"AR","cc2":"","admin1_code":"21","admin2_code":"82077","admin3_code":"","admin4_code":"","population":"1412","elevation":"","dem":"57","timezone":"America/Argentina/Buenos_Aires","modification_date":"2016-03-20"},{"geonameid":"5880828","name":"Aūa","asciiname":"Aua","alternatenames":"","latitude":"-14.27611","longitude":"-170.66389","feature_class":"P","feature_code":"PPL","country_code":"AS","cc2":"","admin1_code":"010","admin2_code":"","admin3_code":"","admin4_code":"","population":"2124","elevation":"14","dem":"19","timezone":"Pacific/Pago_Pago","modification_date":"2010-10-12"},{"geonameid":"5880891","name":"Vaitogi","asciiname":"Vaitogi","alternatenames":"","latitude":"-14.35889","longitude":"-170.73472","feature_class":"P","feature_code":"PPL","country_code":"AS","cc2":"","admin1_code":"050","admin2_code":"","admin3_code":"","admin4_code":"","population":"1436","elevation":"16","dem":"-9999","timezone":"Pacific/Pago_Pago","modification_date":"2010-10-12"},{"geonameid":"5880944","name":"Vailoatai","asciiname":"Vailoatai","alternatenames":"","latitude":"-14.36111","longitude":"-170.78222","feature_class":"P","feature_code":"PPL","country_code":"AS","cc2":"","admin1_code":"050","admin2_code":"5881085","admin3_code":"","admin4_code":"","population":"1144","elevation":"7","dem":"16","timezone":"Pacific/Pago_Pago","modification_date":"2014-10-08"},{"geonameid":"5881150","name":"Taulaga","asciiname":"Taulaga","alternatenames":"","latitude":"-11.05528","longitude":"-171.08833","feature_class":"P","feature_code":"PPLA","country_code":"AS","cc2":"","admin1_code":"040","admin2_code":"","admin3_code":"","admin4_code":"","population":"37","elevation":"","dem":"8","timezone":"Pacific/Pago_Pago","modification_date":"2012-02-19"},{"geonameid":"5881165","name":"Ta`ū","asciiname":"Ta`u","alternatenames":"Opoun,Tau","latitude":"-14.23361","longitude":"-169.51444","feature_class":"P","feature_code":"PPLA","country_code":"AS","cc2":"","admin1_code":"020","admin2_code":"","admin3_code":"","admin4_code":"","population":"873","elevation":"6","dem":"12","timezone":"Pacific/Pago_Pago","modification_date":"2013-08-02"},{"geonameid":"5881192","name":"Tāfuna","asciiname":"Tafuna","alternatenames":"Tafuna,Тафуна","latitude":"-14.33583","longitude":"-170.72","feature_class":"P","feature_code":"PPL","country_code":"AS","cc2":"","admin1_code":"050","admin2_code":"","admin3_code":"","admin4_code":"","population":"11017","elevation":"12","dem":"13","timezone":"Pacific/Pago_Pago","modification_date":"2010-09-05"},{"geonameid":"5881224","name":"Faleniu","asciiname":"Faleniu","alternatenames":"","latitude":"-14.3325","longitude":"-170.74444","feature_class":"P","feature_code":"PPL","country_code":"AS","cc2":"","admin1_code":"050","admin2_code":"","admin3_code":"","admin4_code":"","population":"3200","elevation":"48","dem":"53","timezone":"Pacific/Pago_Pago","modification_date":"2010-10-12"},{"geonameid":"5881241","name":"Fagatogo","asciiname":"Fagatogo","alternatenames":"Fagatogo,Фагатого","latitude":"-14.2825","longitude":"-170.69","feature_class":"P","feature_code":"PPL","country_code":"AS","cc2":"","admin1_code":"010","admin2_code":"","admin3_code":"","admin4_code":"","population":"1868","elevation":"134","dem":"141","timezone":"Pacific/Pago_Pago","modification_date":"2010-10-12"},{"geonameid":"5881254","name":"Faleāsao","asciiname":"Faleasao","alternatenames":"","latitude":"-14.2222","longitude":"-169.51278","feature_class":"P","feature_code":"PPLA3","country_code":"AS","cc2":"","admin1_code":"020","admin2_code":"7267965","admin3_code":"","admin4_code":"","population":"0","elevation":"44","dem":"28","timezone":"Pacific/Pago_Pago","modification_date":"2012-02-02"},{"geonameid":"5881347","name":"Leone","asciiname":"Leone","alternatenames":"","latitude":"-14.34389","longitude":"-170.785","feature_class":"P","feature_code":"PPL","country_code":"AS","cc2":"","admin1_code":"050","admin2_code":"","admin3_code":"","admin4_code":"","population":"4050","elevation":"14","dem":"21","timezone":"Pacific/Pago_Pago","modification_date":"2010-10-12"},{"geonameid":"5881410","name":"Malaeimi","asciiname":"Malaeimi","alternatenames":"","latitude":"-14.32278","longitude":"-170.73389","feature_class":"P","feature_code":"PPL","country_code":"AS","cc2":"","admin1_code":"050","admin2_code":"","admin3_code":"","admin4_code":"","population":"1261","elevation":"39","dem":"41","timezone":"Pacific/Pago_Pago","modification_date":"2010-09-05"},{"geonameid":"5881442","name":"Mapusagafou","asciiname":"Mapusagafou","alternatenames":"","latitude":"-14.33056","longitude":"-170.75278","feature_class":"P","feature_code":"PPL","country_code":"AS","cc2":"","admin1_code":"050","admin2_code":"","admin3_code":"","admin4_code":"","population":"2052","elevation":"106","dem":"111","timezone":"Pacific/Pago_Pago","modification_date":"2010-10-12"},{"geonameid":"5881544","name":"Ofu","asciiname":"Ofu","alternatenames":"OFU","latitude":"-14.17528","longitude":"-169.6775","feature_class":"P","feature_code":"PPLA2","country_code":"AS","cc2":"","admin1_code":"020","admin2_code":"","admin3_code":"","admin4_code":"","population":"254","elevation":"4","dem":"17","timezone":"Pacific/Pago_Pago","modification_date":"2012-02-03"},{"geonameid":"5881576","name":"Pago Pago","asciiname":"Pago Pago","alternatenames":"Gorad Paga-Paga,PPG,Pago Pago,Pago-Pago,PagoPago,Pagopago,Pagó Pagó,Panko Panko,Paqo Paqo,baghw baghw,pa guo pa guo,pa ko pa ko,pagopago,pagw pagw,pako pako,pango pango,Πάγκο Πάγκο,Горад Пага-Пага,Паго Паго,Паго-Паго,Пагопаго,Պագո Պագո,פאגו פאגו,باغو باغو,پاگو پاگو,पांगो पांगो,பாகோ பாகோ,ปาโกปาโก,პაგო-პაგო,パゴパゴ,帕果帕果,파고파고","latitude":"-14.27806","longitude":"-170.7025","feature_class":"P","feature_code":"PPLC","country_code":"AS","cc2":"","admin1_code":"010","admin2_code":"","admin3_code":"","admin4_code":"","population":"11500","elevation":"2","dem":"144","timezone":"Pacific/Pago_Pago","modification_date":"2011-08-29"},{"geonameid":"2601384","name":"Neu-Guntramsdorf","asciiname":"Neu-Guntramsdorf","alternatenames":"","latitude":"48.0642","longitude":"16.31573","feature_class":"P","feature_code":"PPL","country_code":"AT","cc2":"","admin1_code":"03","admin2_code":"317","admin3_code":"31710","admin4_code":"","population":"9071","elevation":"","dem":"192","timezone":"Europe/Vienna","modification_date":"2013-07-28"},{"geonameid":"2606026","name":"Kleinarl","asciiname":"Kleinarl","alternatenames":"","latitude":"47.27725","longitude":"13.31955","feature_class":"P","feature_code":"PPLA3","country_code":"AT","cc2":"","admin1_code":"05","admin2_code":"504","admin3_code":"50414","admin4_code":"","population":"0","elevation":"","dem":"1001","timezone":"Europe/Vienna","modification_date":"2011-07-31"},{"geonameid":"2607522","name":"Edelstauden","asciiname":"Edelstauden","alternatenames":"Edelstauden","latitude":"46.98333","longitude":"15.61667","feature_class":"P","feature_code":"PPLA3","country_code":"AT","cc2":"","admin1_code":"06","admin2_code":"623","admin3_code":"62312","admin4_code":"","population":"0","elevation":"","dem":"404","timezone":"Europe/Vienna","modification_date":"2014-04-28"},{"geonameid":"2608246","name":"Neuhaus am Klausenbach","asciiname":"Neuhaus am Klausenbach","alternatenames":"Dobra,Neuhaus am Klausenbach,Nojkhaus-am-Klauzenbakh,Nojkhaus-na-Klauzenbakhe,Vas-Dobra,Vasdobra,ke lao sen ba he he pan nuo yi hao si,Нойхаус-ам-Клаузенбах,Нойхаус-на-Клаузенбахе,克劳森巴赫河畔诺伊豪斯","latitude":"46.86667","longitude":"16.03333","feature_class":"P","feature_code":"PPLA3","country_code":"AT","cc2":"","admin1_code":"01","admin2_code":"105","admin3_code":"10507","admin4_code":"","population":"961","elevation":"","dem":"312","timezone":"Europe/Vienna","modification_date":"2013-12-01"},{"geonameid":"2760380","name":"Millstatt","asciiname":"Millstatt","alternatenames":"Mil'shtatt,Millstatt,Millstatt am See,Мильштатт","latitude":"46.80417","longitude":"13.58056","feature_class":"P","feature_code":"PPLA3","country_code":"AT","cc2":"AT","admin1_code":"02","admin2_code":"206","admin3_code":"20620","admin4_code":"","population":"0","elevation":"","dem":"695","timezone":"Europe/Vienna","modification_date":"2011-07-31"},{"geonameid":"2760388","name":"Zwölfaxing","asciiname":"Zwolfaxing","alternatenames":"","latitude":"48.1099","longitude":"16.46267","feature_class":"P","feature_code":"PPLA3","country_code":"AT","cc2":"","admin1_code":"03","admin2_code":"324","admin3_code":"32424","admin4_code":"","population":"0","elevation":"","dem":"167","timezone":"Europe/Vienna","modification_date":"2011-07-31"},{"geonameid":"2760415","name":"Zwettl Stift","asciiname":"Zwettl Stift","alternatenames":"Stift Zwettl,Zwettl Stift","latitude":"48.61667","longitude":"15.2","feature_class":"P","feature_code":"PPL","country_code":"AT","cc2":"","admin1_code":"03","admin2_code":"325","admin3_code":"32530","admin4_code":"","population":"11718","elevation":"","dem":"514","timezone":"Europe/Vienna","modification_date":"2013-07-28"},{"geonameid":"2760420","name":"Zwettl an der Rodl","asciiname":"Zwettl an der Rodl","alternatenames":"Zwettl,Zwettl an der Rodl","latitude":"48.46552","longitude":"14.27133","feature_class":"P","feature_code":"PPLA3","country_code":"AT","cc2":"AT","admin1_code":"04","admin2_code":"416","admin3_code":"41627","admin4_code":"","population":"0","elevation":"","dem":"617","timezone":"Europe/Vienna","modification_date":"2011-12-20"},{"geonameid":"2760449","name":"Zurndorf","asciiname":"Zurndorf","alternatenames":"Curndorf,Zurany,Zurndorf,Zurány,Цурндорф","latitude":"47.98314","longitude":"17.00315","feature_class":"P","feature_code":"PPLA3","country_code":"AT","cc2":"","admin1_code":"01","admin2_code":"107","admin3_code":"10724","admin4_code":"","population":"0","elevation":"","dem":"137","timezone":"Europe/Vienna","modification_date":"2011-07-31"},{"geonameid":"2760485","name":"Zöblen","asciiname":"Zoblen","alternatenames":"Zoblen,Zöblen","latitude":"47.5","longitude":"10.48333","feature_class":"P","feature_code":"PPLA3","country_code":"AT","cc2":"","admin1_code":"07","admin2_code":"708","admin3_code":"70837","admin4_code":"","population":"0","elevation":"","dem":"1197","timezone":"Europe/Vienna","modification_date":"2011-07-31"},{"geonameid":"2760489","name":"Zöbern","asciiname":"Zobern","alternatenames":"","latitude":"47.5","longitude":"16.11667","feature_class":"P","feature_code":"PPLA3","country_code":"AT","cc2":"","admin1_code":"03","admin2_code":"318","admin3_code":"31848","admin4_code":"","population":"0","elevation":"","dem":"751","timezone":"Europe/Vienna","modification_date":"2011-07-31"},{"geonameid":"2760510","name":"Zistersdorf","asciiname":"Zistersdorf","alternatenames":"Cistejov,Cistersdorf,Zistersdorf,qi si te si duo fu,Čistejov,Цистерсдорф,齊斯特斯多夫","latitude":"48.53333","longitude":"16.75","feature_class":"P","feature_code":"PPLA3","country_code":"AT","cc2":"","admin1_code":"03","admin2_code":"308","admin3_code":"30863","admin4_code":"","population":"5661","elevation":"","dem":"215","timezone":"Europe/Vienna","modification_date":"2011-07-31"},{"geonameid":"2760523","name":"Zirl","asciiname":"Zirl","alternatenames":"Cirl,Zirl,Цирл","latitude":"47.28333","longitude":"11.23333","feature_class":"P","feature_code":"PPLA3","country_code":"AT","cc2":"","admin1_code":"07","admin2_code":"703","admin3_code":"70369","admin4_code":"","population":"6567","elevation":"","dem":"945","timezone":"Europe/Vienna","modification_date":"2011-07-31"},{"geonameid":"2760563","name":"Zillingtal","asciiname":"Zillingtal","alternatenames":"Celindrof,Cillingtal',Voelgyfalva,Völgyfalva,Zillingtal,Циллингталь","latitude":"47.81442","longitude":"16.40928","feature_class":"P","feature_code":"PPLA3","country_code":"AT","cc2":"","admin1_code":"01","admin2_code":"103","admin3_code":"10322","admin4_code":"","population":"0","elevation":"","dem":"214","timezone":"Europe/Vienna","modification_date":"2012-10-28"},{"geonameid":"2760564","name":"Zillingdorf","asciiname":"Zillingdorf","alternatenames":"Zillingdorf","latitude":"47.85","longitude":"16.33333","feature_class":"P","feature_code":"PPLA3","country_code":"AT","cc2":"","admin1_code":"03","admin2_code":"323","admin3_code":"32338","admin4_code":"","population":"0","elevation":"","dem":"238","timezone":"Europe/Vienna","modification_date":"2011-07-31"},{"geonameid":"2760575","name":"Ziersdorf","asciiname":"Ziersdorf","alternatenames":"Cirsdorf,Kiblic,qi si duo fu,Киблиц,Цирсдорф,齐斯多夫","latitude":"48.51667","longitude":"15.91667","feature_class":"P","feature_code":"PPLA3","country_code":"AT","cc2":"","admin1_code":"03","admin2_code":"310","admin3_code":"31053","admin4_code":"","population":"0","elevation":"","dem":"257","timezone":"Europe/Vienna","modification_date":"2011-07-31"},{"geonameid":"2760590","name":"Zeutschach","asciiname":"Zeutschach","alternatenames":"Zeutschach","latitude":"47.06667","longitude":"14.36667","feature_class":"P","feature_code":"PPLA3","country_code":"AT","cc2":"","admin1_code":"06","admin2_code":"614","admin3_code":"61435","admin4_code":"","population":"0","elevation":"","dem":"1038","timezone":"Europe/Vienna","modification_date":"2011-07-31"},{"geonameid":"2760592","name":"Zettling","asciiname":"Zettling","alternatenames":"Zettling","latitude":"46.95","longitude":"15.41667","feature_class":"P","feature_code":"PPLA3","country_code":"AT","cc2":"","admin1_code":"06","admin2_code":"606","admin3_code":"60657","admin4_code":"","population":"0","elevation":"","dem":"360","timezone":"Europe/Vienna","modification_date":"2011-07-31"},{"geonameid":"2760597","name":"Zerlach","asciiname":"Zerlach","alternatenames":"Zerlach","latitude":"46.93333","longitude":"15.65","feature_class":"P","feature_code":"PPLA3","country_code":"AT","cc2":"","admin1_code":"06","admin2_code":"623","admin3_code":"62374","admin4_code":"","population":"0","elevation":"","dem":"375","timezone":"Europe/Vienna","modification_date":"2014-04-28"},{"geonameid":"2760610","name":"Zeltweg","asciiname":"Zeltweg","alternatenames":"Cel'tveg,Celtveg,Zeltweg,ce er te wei ge,Целтвег,Цельтвег,策尔特韦格","latitude":"47.18333","longitude":"14.75","feature_class":"P","feature_code":"PPLA3","country_code":"AT","cc2":"","admin1_code":"06","admin2_code":"620","admin3_code":"62038","admin4_code":"","population":"7726","elevation":"","dem":"652","timezone":"Europe/Vienna","modification_date":"2014-04-28"},{"geonameid":"2760622","name":"Zellerndorf","asciiname":"Zellerndorf","alternatenames":"","latitude":"48.68333","longitude":"15.95","feature_class":"P","feature_code":"PPLA3","country_code":"AT","cc2":"","admin1_code":"03","admin2_code":"310","admin3_code":"31052","admin4_code":"","population":"0","elevation":"","dem":"243","timezone":"Europe/Vienna","modification_date":"2011-07-31"},{"geonameid":"2760627","name":"Zellberg","asciiname":"Zellberg","alternatenames":"Zellberg","latitude":"47.23333","longitude":"11.85","feature_class":"P","feature_code":"PPLA3","country_code":"AT","cc2":"","admin1_code":"07","admin2_code":"709","admin3_code":"70941","admin4_code":"","population":"0","elevation":"","dem":"1322","timezone":"Europe/Vienna","modification_date":"2011-07-31"},{"geonameid":"2760632","name":"Zell am Ziller","asciiname":"Zell am Ziller","alternatenames":"Cell'-am-Ciller,Cell'-na-Cillere,Zell,Zell am Ziller,Zell in Zillerthal,qi lei he gu cai er,Целль-ам-Циллер,Целль-ам-Ціллер,Целль-на-Циллере,齐勒河谷采尔","latitude":"47.23333","longitude":"11.88333","feature_class":"P","feature_code":"PPLA3","country_code":"AT","cc2":"AT","admin1_code":"07","admin2_code":"709","admin3_code":"70940","admin4_code":"","population":"0","elevation":"","dem":"578","timezone":"Europe/Vienna","modification_date":"2011-07-31"},{"geonameid":"2760634","name":"Zell am See","asciiname":"Zell am See","alternatenames":"Cel am Ze,Cel am Zee,Cell'-am-Ze,Cell'-am-Zee,Zaei am See,Zell am See,Zell in the Pinzgau,Zäi am See,bin hu cai er,chel-amje,tsyl am zyh,Цел ам Зе,Цел ам Зее,Целль-ам-Зе,Целль-ам-Зее,تسيل أم زيه,ツェル・アム・ゼー,滨湖采尔,첼암제","latitude":"47.32556","longitude":"12.79444","feature_class":"P","feature_code":"PPLA3","country_code":"AT","cc2":"","admin1_code":"05","admin2_code":"506","admin3_code":"50628","admin4_code":"","population":"10046","elevation":"","dem":"784","timezone":"Europe/Vienna","modification_date":"2011-07-31"},{"geonameid":"2760635","name":"Zell am Pettenfirst","asciiname":"Zell am Pettenfirst","alternatenames":"Zell am Pettenfirst","latitude":"48.06667","longitude":"13.58333","feature_class":"P","feature_code":"PPLA3","country_code":"AT","cc2":"","admin1_code":"04","admin2_code":"417","admin3_code":"41752","admin4_code":"","population":"0","elevation":"","dem":"529","timezone":"Europe/Vienna","modification_date":"2011-07-31"},{"geonameid":"2760636","name":"Zell am Moos","asciiname":"Zell am Moos","alternatenames":"Cell'-am-Mos,Cell'-na-Mose,Zell,Zell am Moos,zhao ze fu jin ce er,Целль-ам-Мос,Целль-на-Мосе,沼泽附近策尔","latitude":"47.9","longitude":"13.31667","feature_class":"P","feature_code":"PPLA3","country_code":"AT","cc2":"AT","admin1_code":"04","admin2_code":"417","admin3_code":"41751","admin4_code":"","population":"0","elevation":"","dem":"574","timezone":"Europe/Vienna","modification_date":"2011-07-31"},{"geonameid":"2760669","name":"Zeillern","asciiname":"Zeillern","alternatenames":"","latitude":"48.11667","longitude":"14.8","feature_class":"P","feature_code":"PPLA3","country_code":"AT","cc2":"","admin1_code":"03","admin2_code":"305","admin3_code":"30544","admin4_code":"","population":"0","elevation":"","dem":"372","timezone":"Europe/Vienna","modification_date":"2011-07-31"},{"geonameid":"2760704","name":"Zederhaus","asciiname":"Zederhaus","alternatenames":"","latitude":"47.15","longitude":"13.5","feature_class":"P","feature_code":"PPLA3","country_code":"AT","cc2":"","admin1_code":"05","admin2_code":"505","admin3_code":"50515","admin4_code":"","population":"0","elevation":"","dem":"1474","timezone":"Europe/Vienna","modification_date":"2011-07-31"},{"geonameid":"2760749","name":"Zams","asciiname":"Zams","alternatenames":"Cams,cha mu si,Цамс,察姆斯","latitude":"47.15844","longitude":"10.5897","feature_class":"P","feature_code":"PPLA3","country_code":"AT","cc2":"","admin1_code":"07","admin2_code":"706","admin3_code":"70630","admin4_code":"","population":"0","elevation":"","dem":"770","timezone":"Europe/Vienna","modification_date":"2011-07-31"},{"geonameid":"2760762","name":"Zagersdorf","asciiname":"Zagersdorf","alternatenames":"Cogrstof,Cogrštof,Zagersdorf,Zarany,Zárány,Загерсдорф","latitude":"47.76471","longitude":"16.51382","feature_class":"P","feature_code":"PPLA3","country_code":"AT","cc2":"","admin1_code":"01","admin2_code":"103","admin3_code":"10323","admin4_code":"","population":"0","elevation":"","dem":"179","timezone":"Europe/Vienna","modification_date":"2012-10-28"},{"geonameid":"2760770","name":"Ybbsitz","asciiname":"Ybbsitz","alternatenames":"Ibzic,yi bu xi ci,Ибзиц,یببسٹز,伊布西茨","latitude":"47.93333","longitude":"14.88333","feature_class":"P","feature_code":"PPLA3","country_code":"AT","cc2":"","admin1_code":"03","admin2_code":"305","admin3_code":"30543","admin4_code":"","population":"0","elevation":"","dem":"857","timezone":"Europe/Vienna","modification_date":"2011-07-31"},{"geonameid":"2760772","name":"Ybbs an der Donau","asciiname":"Ybbs an der Donau","alternatenames":"Ibbs,Ibosa do Danubio,Ibs-an-der-Donau,Ibs-na-Dunae,Ipozonalco,Ips,Jivice na Dunavu,Ybbs,Ybbs an der Donau,duo nao he pan yi bu si,ybbs an dr dwnw,Íbosa do Danúbio,Îps,Īpozōnalco,İps,Ибс-ан-дер-Донау,Ибс-на-Дунае,یببس ان در دونو,多瑙河畔伊布斯","latitude":"48.16667","longitude":"15.08333","feature_class":"P","feature_code":"PPLA3","country_code":"AT","cc2":"","admin1_code":"03","admin2_code":"315","admin3_code":"31549","admin4_code":"","population":"5676","elevation":"","dem":"218","timezone":"Europe/Vienna","modification_date":"2011-07-31"},{"geonameid":"2760797","name":"Würmla","asciiname":"Wurmla","alternatenames":"","latitude":"48.25497","longitude":"15.86031","feature_class":"P","feature_code":"PPLA3","country_code":"AT","cc2":"","admin1_code":"03","admin2_code":"321","admin3_code":"32139","admin4_code":"","population":"0","elevation":"","dem":"229","timezone":"Europe/Vienna","modification_date":"2011-07-31"},{"geonameid":"2760806","name":"Würflach","asciiname":"Wurflach","alternatenames":"","latitude":"47.77648","longitude":"16.05463","feature_class":"P","feature_code":"PPLA3","country_code":"AT","cc2":"","admin1_code":"03","admin2_code":"318","admin3_code":"31847","admin4_code":"","population":"0","elevation":"","dem":"401","timezone":"Europe/Vienna","modification_date":"2011-07-31"},{"geonameid":"2760814","name":"Wundschuh","asciiname":"Wundschuh","alternatenames":"Wundschuh","latitude":"46.92639","longitude":"15.45111","feature_class":"P","feature_code":"PPLA3","country_code":"AT","cc2":"","admin1_code":"06","admin2_code":"606","admin3_code":"60656","admin4_code":"","population":"0","elevation":"","dem":"317","timezone":"Europe/Vienna","modification_date":"2011-07-31"},{"geonameid":"2760824","name":"Wullersdorf","asciiname":"Wullersdorf","alternatenames":"","latitude":"48.62792","longitude":"16.10089","feature_class":"P","feature_code":"PPLA3","country_code":"AT","cc2":"","admin1_code":"03","admin2_code":"310","admin3_code":"31051","admin4_code":"","population":"0","elevation":"","dem":"230","timezone":"Europe/Vienna","modification_date":"2013-07-30"},{"geonameid":"2760825","name":"Wulkaprodersdorf","asciiname":"Wulkaprodersdorf","alternatenames":"Vul'kaprodersdorf,Vulkapordany,Vulkapordány,Vulkaprodrstof,Vulkaprodrštof,Wulkaprodersdorf,Вулькапродерсдорф","latitude":"47.79753","longitude":"16.50447","feature_class":"P","feature_code":"PPLA3","country_code":"AT","cc2":"","admin1_code":"01","admin2_code":"103","admin3_code":"10319","admin4_code":"","population":"0","elevation":"","dem":"167","timezone":"Europe/Vienna","modification_date":"2012-10-28"},{"geonameid":"2760839","name":"Wörth an der Lafnitz","asciiname":"Woerth an der Lafnitz","alternatenames":"Worth,Worth an der Lafnitz,Wörth,Wörth an der Lafnitz","latitude":"47.2","longitude":"16.06667","feature_class":"P","feature_code":"PPLA3","country_code":"AT","cc2":"AT","admin1_code":"06","admin2_code":"622","admin3_code":"62263","admin4_code":"","population":"0","elevation":"","dem":"356","timezone":"Europe/Vienna","modification_date":"2014-04-28"},{"geonameid":"2760846","name":"Wörterberg","asciiname":"Worterberg","alternatenames":"","latitude":"47.21667","longitude":"16.1","feature_class":"P","feature_code":"PPLA3","country_code":"AT","cc2":"","admin1_code":"01","admin2_code":"104","admin3_code":"10419","admin4_code":"","population":"0","elevation":"","dem":"390","timezone":"Europe/Vienna","modification_date":"2011-07-31"},{"geonameid":"2760847","name":"Wörschach","asciiname":"Worschach","alternatenames":"Worschach,Wörschach","latitude":"47.55","longitude":"14.15","feature_class":"P","feature_code":"PPLA3","country_code":"AT","cc2":"","admin1_code":"06","admin2_code":"612","admin3_code":"61252","admin4_code":"","population":"0","elevation":"","dem":"644","timezone":"Europe/Vienna","modification_date":"2011-07-31"},{"geonameid":"2760854","name":"Wörgl","asciiname":"Worgl","alternatenames":"QXZ,V'orgul,Vergl,Vergl',Vernkl,Vjorgl',Woergl,Worgl,Wörgl,vergli,vu~eruguru,wo ge er,Βεργκλ,Вергл,Вергль,Вьоргъл,Вёргль,ვერგლი,ヴェルグル,沃格爾","latitude":"47.48906","longitude":"12.06174","feature_class":"P","feature_code":"PPLA3","country_code":"AT","cc2":"","admin1_code":"07","admin2_code":"705","admin3_code":"70531","admin4_code":"","population":"11265","elevation":"","dem":"506","timezone":"Europe/Vienna","modification_date":"2015-11-07"},{"geonameid":"2760855","name":"Wördern","asciiname":"Wordern","alternatenames":"","latitude":"48.334","longitude":"16.21016","feature_class":"P","feature_code":"PPL","country_code":"AT","cc2":"","admin1_code":"03","admin2_code":"321","admin3_code":"32142","admin4_code":"","population":"6886","elevation":"","dem":"171","timezone":"Europe/Vienna","modification_date":"2013-07-28"},{"geonameid":"2760887","name":"Wolkersdorf im Weinviertel","asciiname":"Wolkersdorf im Weinviertel","alternatenames":"Vol'kersdorf-im-Vajnfirtel',Wolkersdorf,Wolkersdorf im Weinviertel,wei yin de qu wo er ke er si duo fu,Волькерсдорф-им-Вайнфиртель,ವೊಲ್ಕರ್ಸ್ಡೊರ್ಫ್‌,韦因地区沃尔克尔斯多夫","latitude":"48.38333","longitude":"16.51667","feature_class":"P","feature_code":"PPL","country_code":"AT","cc2":"","admin1_code":"03","admin2_code":"316","admin3_code":"31655","admin4_code":"","population":"6416","elevation":"","dem":"173","timezone":"Europe/Vienna","modification_date":"2013-07-28"},{"geonameid":"2760894","name":"Wolfurt","asciiname":"Wolfurt","alternatenames":"Kirchdorf,Vol'furt,Volfurt,Wolfurt,wlfwrt,wo er fu te,Волфурт,Вольфурт,ولفورت,沃尔富特","latitude":"47.46667","longitude":"9.75","feature_class":"P","feature_code":"PPLA3","country_code":"AT","cc2":"","admin1_code":"08","admin2_code":"802","admin3_code":"80240","admin4_code":"","population":"8110","elevation":"","dem":"413","timezone":"Europe/Vienna","modification_date":"2011-07-31"},{"geonameid":"2760895","name":"Wolfsthal","asciiname":"Wolfsthal","alternatenames":"Vol'fstal',wo er fu shi ta er,Вольфсталь,וולפסטאל,沃尔夫施塔尔","latitude":"48.13333","longitude":"17","feature_class":"P","feature_code":"PPLA3","country_code":"AT","cc2":"","admin1_code":"03","admin2_code":"307","admin3_code":"30728","admin4_code":"","population":"0","elevation":"","dem":"159","timezone":"Europe/Vienna","modification_date":"2011-07-31"},{"geonameid":"2760902","name":"Wolfsgraben","asciiname":"Wolfsgraben","alternatenames":"Vol'fsgraben,wo er fu si ge la ben,Вольфсграбен,沃尔夫斯格拉本","latitude":"48.1587","longitude":"16.12098","feature_class":"P","feature_code":"PPLA3","country_code":"AT","cc2":"","admin1_code":"03","admin2_code":"324","admin3_code":"32423","admin4_code":"","population":"0","elevation":"","dem":"323","timezone":"Europe/Vienna","modification_date":"2011-07-31"},{"geonameid":"2760903","name":"Wolfsegg am Hausruck","asciiname":"Wolfsegg am Hausruck","alternatenames":"Wolfsegg,Wolfsegg am Hausruck","latitude":"48.10669","longitude":"13.67274","feature_class":"P","feature_code":"PPLA3","country_code":"AT","cc2":"AT","admin1_code":"04","admin2_code":"417","admin3_code":"41750","admin4_code":"","population":"0","elevation":"","dem":"633","timezone":"Europe/Vienna","modification_date":"2011-07-31"},{"geonameid":"2760906","name":"Wolfsberg im Schwarzautal","asciiname":"Wolfsberg im Schwarzautal","alternatenames":"Wolfsberg,Wolfsberg im Schwarzautal","latitude":"46.84389","longitude":"15.65889","feature_class":"P","feature_code":"PPLA3","country_code":"AT","cc2":"AT","admin1_code":"06","admin2_code":"610","admin3_code":"61048","admin4_code":"","population":"0","elevation":"","dem":"289","timezone":"Europe/Vienna","modification_date":"2011-07-31"},{"geonameid":"2760910","name":"Wolfsberg","asciiname":"Wolfsberg","alternatenames":"Wolfsberg","latitude":"46.84056","longitude":"14.84417","feature_class":"P","feature_code":"PPLA3","country_code":"AT","cc2":"","admin1_code":"02","admin2_code":"209","admin3_code":"20923","admin4_code":"","population":"25610","elevation":"","dem":"461","timezone":"Europe/Vienna","modification_date":"2011-07-31"},{"geonameid":"2760915","name":"Wolfsbach","asciiname":"Wolfsbach","alternatenames":"","latitude":"48.06667","longitude":"14.66667","feature_class":"P","feature_code":"PPLA3","country_code":"AT","cc2":"","admin1_code":"03","admin2_code":"305","admin3_code":"30542","admin4_code":"","population":"0","elevation":"","dem":"337","timezone":"Europe/Vienna","modification_date":"2011-07-31"},{"geonameid":"2760920","name":"Wolfpassing","asciiname":"Wolfpassing","alternatenames":"","latitude":"48.06667","longitude":"15.05","feature_class":"P","feature_code":"PPLA3","country_code":"AT","cc2":"","admin1_code":"03","admin2_code":"320","admin3_code":"32018","admin4_code":"","population":"0","elevation":"","dem":"302","timezone":"Europe/Vienna","modification_date":"2011-07-31"},{"geonameid":"2760943","name":"Wolfau","asciiname":"Wolfau","alternatenames":"","latitude":"47.25","longitude":"16.1","feature_class":"P","feature_code":"PPLA3","country_code":"AT","cc2":"","admin1_code":"01","admin2_code":"109","admin3_code":"10928","admin4_code":"","population":"0","elevation":"","dem":"370","timezone":"Europe/Vienna","modification_date":"2011-07-31"},{"geonameid":"2761037","name":"Winklern bei Oberwölz","asciiname":"Winklern bei Oberwolz","alternatenames":"Winklern,Winklern bei Oberwolz,Winklern bei Oberwölz","latitude":"47.2","longitude":"14.23333","feature_class":"P","feature_code":"PPLA3","country_code":"AT","cc2":"AT","admin1_code":"06","admin2_code":"614","admin3_code":"61434","admin4_code":"","population":"0","elevation":"","dem":"977","timezone":"Europe/Vienna","modification_date":"2011-07-31"},{"geonameid":"2761039","name":"Winklern","asciiname":"Winklern","alternatenames":"Vinklern,wen ke lei en,Винклерн,温克勒恩","latitude":"46.87361","longitude":"12.87472","feature_class":"P","feature_code":"PPLA3","country_code":"AT","cc2":"","admin1_code":"02","admin2_code":"206","admin3_code":"20640","admin4_code":"","population":"0","elevation":"","dem":"977","timezone":"Europe/Vienna","modification_date":"2011-07-31"},{"geonameid":"2761049","name":"Winklarn","asciiname":"Winklarn","alternatenames":"","latitude":"48.08333","longitude":"14.83333","feature_class":"P","feature_code":"PPLA3","country_code":"AT","cc2":"","admin1_code":"03","admin2_code":"305","admin3_code":"30541","admin4_code":"","population":"0","elevation":"","dem":"318","timezone":"Europe/Vienna","modification_date":"2011-07-31"},{"geonameid":"2761105","name":"Windigsteig","asciiname":"Windigsteig","alternatenames":"","latitude":"48.76667","longitude":"15.28333","feature_class":"P","feature_code":"PPLA3","country_code":"AT","cc2":"","admin1_code":"03","admin2_code":"322","admin3_code":"32223","admin4_code":"","population":"0","elevation":"","dem":"485","timezone":"Europe/Vienna","modification_date":"2011-07-31"},{"geonameid":"2761123","name":"Winden am See","asciiname":"Winden am See","alternatenames":"Binta,Sasony,Sásony,Vinden-am-Zee,Winden,Winden am See,Винден-ам-Зее","latitude":"47.95","longitude":"16.75","feature_class":"P","feature_code":"PPLA3","country_code":"AT","cc2":"AT","admin1_code":"01","admin2_code":"107","admin3_code":"10723","admin4_code":"","population":"0","elevation":"","dem":"131","timezone":"Europe/Vienna","modification_date":"2012-10-28"},{"geonameid":"2761147","name":"Wimpassing an der Leitha","asciiname":"Wimpassing an der Leitha","alternatenames":"Vimpac,Vimpas,Vimpassing-na-Lajte,Vimpác,Wimpassing,Wimpassing an der Leitha,Вимпассинг-на-Лайте","latitude":"47.91667","longitude":"16.43333","feature_class":"P","feature_code":"PPLA3","country_code":"AT","cc2":"AT","admin1_code":"01","admin2_code":"103","admin3_code":"10318","admin4_code":"","population":"0","elevation":"","dem":"207","timezone":"Europe/Vienna","modification_date":"2012-10-28"},{"geonameid":"2761149","name":"Wimpassing im Schwarzatale","asciiname":"Wimpassing im Schwarzatale","alternatenames":"","latitude":"47.70295","longitude":"16.03334","feature_class":"P","feature_code":"PPLA3","country_code":"AT","cc2":"","admin1_code":"03","admin2_code":"318","admin3_code":"31846","admin4_code":"","population":"0","elevation":"","dem":"394","timezone":"Europe/Vienna","modification_date":"2011-07-31"},{"geonameid":"2761178","name":"Willendorf am Steinfelde","asciiname":"Willendorf am Steinfelde","alternatenames":"","latitude":"47.78929","longitude":"16.05686","feature_class":"P","feature_code":"PPLA3","country_code":"AT","cc2":"","admin1_code":"03","admin2_code":"318","admin3_code":"31845","admin4_code":"","population":"0","elevation":"","dem":"391","timezone":"Europe/Vienna","modification_date":"2012-01-07"},{"geonameid":"2761186","name":"Wilhelmsburg","asciiname":"Wilhelmsburg","alternatenames":"","latitude":"48.10571","longitude":"15.60539","feature_class":"P","feature_code":"PPLA3","country_code":"AT","cc2":"","admin1_code":"03","admin2_code":"319","admin3_code":"31947","admin4_code":"","population":"6718","elevation":"","dem":"320","timezone":"Europe/Vienna","modification_date":"2011-07-31"},{"geonameid":"2761194","name":"Wilfersdorf","asciiname":"Wilfersdorf","alternatenames":"","latitude":"48.58333","longitude":"16.63333","feature_class":"P","feature_code":"PPLA3","country_code":"AT","cc2":"","admin1_code":"03","admin2_code":"316","admin3_code":"31654","admin4_code":"","population":"0","elevation":"","dem":"206","timezone":"Europe/Vienna","modification_date":"2011-07-31"},{"geonameid":"2761208","name":"Wildon","asciiname":"Wildon","alternatenames":"Vil'don,Wildon,wei er dong,Вильдон,维尔东","latitude":"46.88333","longitude":"15.51667","feature_class":"P","feature_code":"PPLA3","country_code":"AT","cc2":"","admin1_code":"06","admin2_code":"610","admin3_code":"61047","admin4_code":"","population":"0","elevation":"","dem":"320","timezone":"Europe/Vienna","modification_date":"2011-07-31"},{"geonameid":"2761229","name":"Wildermieming","asciiname":"Wildermieming","alternatenames":"","latitude":"47.31667","longitude":"11.01667","feature_class":"P","feature_code":"PPLA3","country_code":"AT","cc2":"","admin1_code":"07","admin2_code":"703","admin3_code":"70368","admin4_code":"","population":"0","elevation":"","dem":"858","timezone":"Europe/Vienna","modification_date":"2011-07-31"},{"geonameid":"2761261","name":"Wildalpen","asciiname":"Wildalpen","alternatenames":"Vil'dal'pen,Wildalpen,wei er da er peng,Вильдальпен,维尔达尔彭","latitude":"47.65","longitude":"14.98333","feature_class":"P","feature_code":"PPLA3","country_code":"AT","cc2":"","admin1_code":"06","admin2_code":"612","admin3_code":"61251","admin4_code":"","population":"0","elevation":"","dem":"818","timezone":"Europe/Vienna","modification_date":"2011-07-31"},{"geonameid":"2761272","name":"Wiesmath","asciiname":"Wiesmath","alternatenames":"","latitude":"47.61667","longitude":"16.28333","feature_class":"P","feature_code":"PPLA3","country_code":"AT","cc2":"","admin1_code":"03","admin2_code":"323","admin3_code":"32335","admin4_code":"","population":"0","elevation":"","dem":"670","timezone":"Europe/Vienna","modification_date":"2011-07-31"},{"geonameid":"2761278","name":"Wiesing","asciiname":"Wiesing","alternatenames":"","latitude":"47.40486","longitude":"11.79708","feature_class":"P","feature_code":"PPLA3","country_code":"AT","cc2":"","admin1_code":"07","admin2_code":"709","admin3_code":"70939","admin4_code":"","population":"0","elevation":"","dem":"566","timezone":"Europe/Vienna","modification_date":"2011-07-31"},{"geonameid":"2761281","name":"Wiesfleck","asciiname":"Wiesfleck","alternatenames":"","latitude":"47.38333","longitude":"16.13333","feature_class":"P","feature_code":"PPLA3","country_code":"AT","cc2":"","admin1_code":"01","admin2_code":"109","admin3_code":"10927","admin4_code":"","population":"0","elevation":"","dem":"429","timezone":"Europe/Vienna","modification_date":"2011-07-31"},{"geonameid":"2761306","name":"Wiesen","asciiname":"Wiesen","alternatenames":"Bizmet,Retfalu,Rétfalu","latitude":"47.73776","longitude":"16.33798","feature_class":"P","feature_code":"PPLA3","country_code":"AT","cc2":"","admin1_code":"01","admin2_code":"106","admin3_code":"10615","admin4_code":"","population":"0","elevation":"","dem":"314","timezone":"Europe/Vienna","modification_date":"2015-12-29"},{"geonameid":"2761314","name":"Wieselburg","asciiname":"Wieselburg","alternatenames":"Omatoyac,Viselburgo,Vizel'burg,Wieselburg,wei se er bao,Ōmātōyāc,Визельбург,维瑟尔堡","latitude":"48.13333","longitude":"15.13333","feature_class":"P","feature_code":"PPLA3","country_code":"AT","cc2":"","admin1_code":"03","admin2_code":"320","admin3_code":"32016","admin4_code":"","population":"0","elevation":"","dem":"258","timezone":"Europe/Vienna","modification_date":"2011-07-31"},{"geonameid":"2761326","name":"Wies","asciiname":"Wies","alternatenames":"Vis,wei si,Вис,维斯","latitude":"46.72028","longitude":"15.27194","feature_class":"P","feature_code":"PPLA3","country_code":"AT","cc2":"","admin1_code":"06","admin2_code":"603","admin3_code":"60343","admin4_code":"","population":"0","elevation":"","dem":"334","timezone":"Europe/Vienna","modification_date":"2011-07-31"},{"geonameid":"2761353","name":"Wiener Neustadt","asciiname":"Wiener Neustadt","alternatenames":"Becko Novo Mjesto,Becsujhely,Becsujvaros,Bečko Novo Mjesto,Bécsújhely,Bécsújváros,Dunajsko Novo mesto,Nemet-Ujhely,Nova civitas Vindobonensis,Német-Újhely,Videnske Nove Mesto,Viedenske Nove Mesto,Viedenské Nové Mesto,Viner Noistat,Viner Nojshhat,Viner Nojshtat,Viner-Nojshtadt,Viner-Nojstadt,Vyner Noistatas,Vyner Noištatas,Vídeňské Nové Město,Weana Neistod,Wiener Neustadt,Wr. Neustadt,bineonoisyutateu,fynr nwyshtat,wei ye na xin cheng,wynr nwyshtat,wynr nwystt,Βίνερ Νόιστατ,Винер Нойщат,Винер Нојштат,Винер-Нойштадт,Вінер-Нойштадт,וינר נוישטט,فينر نويشتات,وینر نویشتات,وینر نیوشٹڈ,ვინერ-ნოიშტადტი,ウィーナー・ノイシュタット,維也納新城,비너노이슈타트","latitude":"47.8","longitude":"16.25","feature_class":"P","feature_code":"PPLA3","country_code":"AT","cc2":"","admin1_code":"03","admin2_code":"304","admin3_code":"30401","admin4_code":"","population":"38481","elevation":"","dem":"269","timezone":"Europe/Vienna","modification_date":"2012-11-01"},{"geonameid":"2761354","name":"Wiener Neudorf","asciiname":"Wiener Neudorf","alternatenames":"Vienos Noidorfas,Viner-Nojdorf,wei ye na xin cun,Винер-Нойдорф,維也納新村","latitude":"48.08278","longitude":"16.31384","feature_class":"P","feature_code":"PPLA3","country_code":"AT","cc2":"","admin1_code":"03","admin2_code":"317","admin3_code":"31725","admin4_code":"","population":"8530","elevation":"","dem":"202","timezone":"Europe/Vienna","modification_date":"2011-07-31"},{"geonameid":"2761369","name":"Vienna","asciiname":"Vienna","alternatenames":"Bec,Bech,Becs,Beç,Beč,Bienne,Bécs,Dunaj,VIE,Vena,Viden,Viden',Vieden,Viedeň,Viena,Vienna,Vienne,Vieno,Viin,Vin,Vinarborg,Vindobona,Viyana,Vídeň,Vín,Vínarborg,Wenen,Wieden,Wiedeń,Wien,bin,fyyna,weiynna,Βιέννη,Беч,Вена,Виена,Відень,فيينا,เวียนนา,ቪየና,빈","latitude":"48.20849","longitude":"16.37208","feature_class":"P","feature_code":"PPLC","country_code":"AT","cc2":"","admin1_code":"09","admin2_code":"900","admin3_code":"901","admin4_code":"","population":"1691468","elevation":"171","dem":"193","timezone":"Europe/Vienna","modification_date":"2015-07-29"},{"geonameid":"2761419","name":"Weyer","asciiname":"Weyer","alternatenames":"Weyer,Weyer Markt,Weyer an der Enns","latitude":"47.85717","longitude":"14.66409","feature_class":"P","feature_code":"PPLA3","country_code":"AT","cc2":"AT","admin1_code":"04","admin2_code":"415","admin3_code":"41522","admin4_code":"","population":"0","elevation":"","dem":"404","timezone":"Europe/Vienna","modification_date":"2012-05-04"},{"geonameid":"2761436","name":"Wetzelsdorf","asciiname":"Wetzelsdorf","alternatenames":"Wetzelsdorf","latitude":"47.05293","longitude":"15.39923","feature_class":"P","feature_code":"PPLX","country_code":"AT","cc2":"","admin1_code":"06","admin2_code":"601","admin3_code":"60101","admin4_code":"","population":"14314","elevation":"","dem":"362","timezone":"Europe/Vienna","modification_date":"2013-07-28"},{"geonameid":"2761442","name":"Wettmannstätten","asciiname":"Wettmannstatten","alternatenames":"Vettmannshtetten,Vettmannstetten,Wettmannstatten,Wettmannstätten,wei te man si te te en,Веттманнстеттен,Веттманнштеттен,韦特曼斯特特恩","latitude":"46.83056","longitude":"15.38722","feature_class":"P","feature_code":"PPLA3","country_code":"AT","cc2":"","admin1_code":"06","admin2_code":"603","admin3_code":"60341","admin4_code":"","population":"0","elevation":"","dem":"301","timezone":"Europe/Vienna","modification_date":"2011-07-31"},{"geonameid":"2761457","name":"Westendorf","asciiname":"Westendorf","alternatenames":"Vestendorf,Westendorf,wei shi teng duo fu,Вестендорф,韦施滕多夫","latitude":"47.43208","longitude":"12.21406","feature_class":"P","feature_code":"PPLA3","country_code":"AT","cc2":"","admin1_code":"07","admin2_code":"704","admin3_code":"70420","admin4_code":"","population":"3620","elevation":"","dem":"782","timezone":"Europe/Vienna","modification_date":"2014-07-25"},{"geonameid":"2761473","name":"Wernersdorf","asciiname":"Wernersdorf","alternatenames":"","latitude":"46.71667","longitude":"15.2","feature_class":"P","feature_code":"PPLA3","country_code":"AT","cc2":"","admin1_code":"06","admin2_code":"603","admin3_code":"60340","admin4_code":"","population":"0","elevation":"","dem":"425","timezone":"Europe/Vienna","modification_date":"2011-07-31"},{"geonameid":"2761474","name":"Werndorf","asciiname":"Werndorf","alternatenames":"Werndorf","latitude":"46.92417","longitude":"15.49083","feature_class":"P","feature_code":"PPLA3","country_code":"AT","cc2":"","admin1_code":"06","admin2_code":"606","admin3_code":"60655","admin4_code":"","population":"0","elevation":"","dem":"309","timezone":"Europe/Vienna","modification_date":"2011-07-31"},{"geonameid":"2761475","name":"Wernberg","asciiname":"Wernberg","alternatenames":"","latitude":"46.61667","longitude":"13.93333","feature_class":"P","feature_code":"PPLA3","country_code":"AT","cc2":"","admin1_code":"02","admin2_code":"207","admin3_code":"20727","admin4_code":"","population":"5070","elevation":"","dem":"530","timezone":"Europe/Vienna","modification_date":"2011-07-31"},{"geonameid":"2761476","name":"Werfenweng","asciiname":"Werfenweng","alternatenames":"Verfenveng,Weng,Werfenweng,Werfnweng,wei er fen weng,Верфенвенг,韦尔芬翁","latitude":"47.46667","longitude":"13.25","feature_class":"P","feature_code":"PPLA3","country_code":"AT","cc2":"AT","admin1_code":"05","admin2_code":"504","admin3_code":"50425","admin4_code":"","population":"0","elevation":"","dem":"1098","timezone":"Europe/Vienna","modification_date":"2011-07-31"},{"geonameid":"2761479","name":"Werfen","asciiname":"Werfen","alternatenames":"Verfen,Werfen,Werfm,wei er fen,Верфен,維爾芬","latitude":"47.46667","longitude":"13.18333","feature_class":"P","feature_code":"PPLA3","country_code":"AT","cc2":"","admin1_code":"05","admin2_code":"504","admin3_code":"50424","admin4_code":"","population":"3059","elevation":"","dem":"733","timezone":"Europe/Vienna","modification_date":"2011-07-31"},{"geonameid":"2761482","name":"Weppersdorf","asciiname":"Weppersdorf","alternatenames":"Veperd,Veppersdorf,Veprstof,Veprštof,Verpstof,Verpštof,Wepperschduaf,wei po er si duo fu,Вепперсдорф,韦珀尔斯多夫","latitude":"47.57954","longitude":"16.42679","feature_class":"P","feature_code":"PPLA3","country_code":"AT","cc2":"","admin1_code":"01","admin2_code":"108","admin3_code":"10823","admin4_code":"","population":"0","elevation":"","dem":"300","timezone":"Europe/Vienna","modification_date":"2012-10-29"},{"geonameid":"2761488","name":"Wenns","asciiname":"Wenns","alternatenames":"","latitude":"47.16667","longitude":"10.73333","feature_class":"P","feature_code":"PPLA3","country_code":"AT","cc2":"","admin1_code":"07","admin2_code":"702","admin3_code":"70224","admin4_code":"","population":"0","elevation":"","dem":"956","timezone":"Europe/Vienna","modification_date":"2011-07-31"},{"geonameid":"2761524","name":"Wels","asciiname":"Wels","alternatenames":"Ovilava,Vel's,Wels,wls,Вельс,ולס","latitude":"48.16667","longitude":"14.03333","feature_class":"P","feature_code":"PPLA2","country_code":"AT","cc2":"","admin1_code":"04","admin2_code":"403","admin3_code":"40301","admin4_code":"","population":"57946","elevation":"","dem":"317","timezone":"Europe/Vienna","modification_date":"2013-02-07"},{"geonameid":"2761531","name":"Weiz","asciiname":"Weiz","alternatenames":"Vajc,Weiz,fayts,wei ci,Вайц,Вајц,فايتس,魏茨","latitude":"47.21667","longitude":"15.61667","feature_class":"P","feature_code":"PPLA3","country_code":"AT","cc2":"","admin1_code":"06","admin2_code":"617","admin3_code":"61755","admin4_code":"","population":"9128","elevation":"","dem":"506","timezone":"Europe/Vienna","modification_date":"2015-07-29"},{"geonameid":"2761538","name":"Weitra","asciiname":"Weitra","alternatenames":"Vajtra,Weitra,wei te la,Вайтра,魏特拉","latitude":"48.7","longitude":"14.88333","feature_class":"P","feature_code":"PPLA3","country_code":"AT","cc2":"","admin1_code":"03","admin2_code":"309","admin3_code":"30942","admin4_code":"","population":"0","elevation":"","dem":"569","timezone":"Europe/Vienna","modification_date":"2011-07-31"},{"geonameid":"2761543","name":"Weitersfeld","asciiname":"Weitersfeld","alternatenames":"","latitude":"48.76667","longitude":"15.8","feature_class":"P","feature_code":"PPLA3","country_code":"AT","cc2":"","admin1_code":"03","admin2_code":"311","admin3_code":"31129","admin4_code":"","population":"0","elevation":"","dem":"431","timezone":"Europe/Vienna","modification_date":"2011-07-31"},{"geonameid":"2761551","name":"Weitendorf","asciiname":"Weitendorf","alternatenames":"","latitude":"46.89611","longitude":"15.46694","feature_class":"P","feature_code":"PPLA3","country_code":"AT","cc2":"","admin1_code":"06","admin2_code":"610","admin3_code":"61046","admin4_code":"","population":"0","elevation":"","dem":"306","timezone":"Europe/Vienna","modification_date":"2011-07-31"},{"geonameid":"2761557","name":"Weiten","asciiname":"Weiten","alternatenames":"","latitude":"48.28333","longitude":"15.25","feature_class":"P","feature_code":"PPLA3","country_code":"AT","cc2":"","admin1_code":"03","admin2_code":"315","admin3_code":"31546","admin4_code":"","population":"0","elevation":"","dem":"506","timezone":"Europe/Vienna","modification_date":"2011-07-31"},{"geonameid":"2761558","name":"Weistrach","asciiname":"Weistrach","alternatenames":"","latitude":"48.05","longitude":"14.58333","feature_class":"P","feature_code":"PPLA3","country_code":"AT","cc2":"","admin1_code":"03","admin2_code":"305","admin3_code":"30539","admin4_code":"","population":"0","elevation":"","dem":"356","timezone":"Europe/Vienna","modification_date":"2011-07-31"},{"geonameid":"2761571","name":"Weißkirchen in Steiermark","asciiname":"Weisskirchen in Steiermark","alternatenames":"Vajskirkhen,Vajskirkhen-in-Shtajermark,Weisskirchen,Weisskirchen in Steiermark,Weißkirchen,Weißkirchen in Steiermark,shi tai er ma ke de qu wei si ji xing,Вайскирхен,Вайскирхен-ин-Штайермарк,施泰尔马克地区魏斯基兴","latitude":"47.15","longitude":"14.73333","feature_class":"P","feature_code":"PPLA3","country_code":"AT","cc2":"AT","admin1_code":"06","admin2_code":"620","admin3_code":"62037","admin4_code":"","population":"0","elevation":"","dem":"690","timezone":"Europe/Vienna","modification_date":"2014-04-28"},{"geonameid":"2761614","name":"Weißenbach bei Liezen","asciiname":"Weissenbach bei Liezen","alternatenames":"Weissenbach,Weissenbach bei Liezen,Weißenbach bei Liezen","latitude":"47.56667","longitude":"14.21667","feature_class":"P","feature_code":"PPLA3","country_code":"AT","cc2":"AT","admin1_code":"06","admin2_code":"612","admin3_code":"61249","admin4_code":"","population":"0","elevation":"","dem":"635","timezone":"Europe/Vienna","modification_date":"2011-07-31"},{"geonameid":"2761615","name":"Weissenbach an der Triesting","asciiname":"Weissenbach an der Triesting","alternatenames":"Vajsenbakh-an-der-Tristing,Weissenbach,Weissenbach an der Triesting,Weißenbach an der Triesting,te li shi ting he pan wei sen ba he,Вайсенбах-ан-дер-Тристинг,特里施廷河畔魏森巴赫","latitude":"47.98211","longitude":"16.03935","feature_class":"P","feature_code":"PPLA3","country_code":"AT","cc2":"AT","admin1_code":"03","admin2_code":"306","admin3_code":"30645","admin4_code":"","population":"0","elevation":"","dem":"357","timezone":"Europe/Vienna","modification_date":"2011-07-31"},{"geonameid":"2761669","name":"Weinzierl bei Krems","asciiname":"Weinzierl bei Krems","alternatenames":"Weinzierl,Weinzierl bei Krems","latitude":"48.4","longitude":"15.6","feature_class":"P","feature_code":"PPLX","country_code":"AT","cc2":"","admin1_code":"03","admin2_code":"313","admin3_code":"31327","admin4_code":"","population":"24092","elevation":"","dem":"207","timezone":"Europe/Vienna","modification_date":"2013-07-28"},{"geonameid":"2761670","name":"Weinzierl am Walde","asciiname":"Weinzierl am Walde","alternatenames":"Vajncirl'-am-Val'de,Vajncirl'-na-Val'de,Weinzierl,Weinzierl am Walde,lin pan wei yin qi er,Вайнцирль-ам-Вальде,Вайнцирль-на-Вальде,林畔韦因齐尔","latitude":"48.41667","longitude":"15.43333","feature_class":"P","feature_code":"PPLA3","country_code":"AT","cc2":"AT","admin1_code":"03","admin2_code":"313","admin3_code":"31350","admin4_code":"","population":"0","elevation":"","dem":"572","timezone":"Europe/Vienna","modification_date":"2011-07-31"},{"geonameid":"2761689","name":"Weingraben","asciiname":"Weingraben","alternatenames":"Bajngrob,Borosd,Vajngraben,Weingraben,Вайнграбен","latitude":"47.51393","longitude":"16.36375","feature_class":"P","feature_code":"PPLA3","country_code":"AT","cc2":"","admin1_code":"01","admin2_code":"108","admin3_code":"10827","admin4_code":"","population":"0","elevation":"","dem":"409","timezone":"Europe/Vienna","modification_date":"2012-10-29"},{"geonameid":"2761697","name":"Weinburg am Saßbach","asciiname":"Weinburg am Sassbach","alternatenames":"Weinburg,Weinburg am Sassbach,Weinburg am Saßbach","latitude":"46.75361","longitude":"15.72111","feature_class":"P","feature_code":"PPLA3","country_code":"AT","cc2":"AT","admin1_code":"06","admin2_code":"623","admin3_code":"62373","admin4_code":"","population":"0","elevation":"","dem":"254","timezone":"Europe/Vienna","modification_date":"2014-04-28"},{"geonameid":"2761698","name":"Weinburg","asciiname":"Weinburg","alternatenames":"","latitude":"48.11351","longitude":"15.53295","feature_class":"P","feature_code":"PPLA3","country_code":"AT","cc2":"","admin1_code":"03","admin2_code":"319","admin3_code":"31945","admin4_code":"","population":"0","elevation":"","dem":"306","timezone":"Europe/Vienna","modification_date":"2011-07-31"},{"geonameid":"2761712","name":"Weiler","asciiname":"Weiler","alternatenames":"","latitude":"47.29972","longitude":"9.65","feature_class":"P","feature_code":"PPLA3","country_code":"AT","cc2":"","admin1_code":"08","admin2_code":"804","admin3_code":"80423","admin4_code":"","population":"0","elevation":"","dem":"468","timezone":"Europe/Vienna","modification_date":"2011-07-31"},{"geonameid":"2761720","name":"Weikersdorf am Steinfelde","asciiname":"Weikersdorf am Steinfelde","alternatenames":"Weikersdorf","latitude":"47.80612","longitude":"16.14389","feature_class":"P","feature_code":"PPLA3","country_code":"AT","cc2":"AT","admin1_code":"03","admin2_code":"323","admin3_code":"32334","admin4_code":"","population":"0","elevation":"","dem":"303","timezone":"Europe/Vienna","modification_date":"2011-07-31"},{"geonameid":"2761723","name":"Weikendorf","asciiname":"Weikendorf","alternatenames":"","latitude":"48.34438","longitude":"16.76651","feature_class":"P","feature_code":"PPLA3","country_code":"AT","cc2":"","admin1_code":"03","admin2_code":"308","admin3_code":"30860","admin4_code":"","population":"0","elevation":"","dem":"150","timezone":"Europe/Vienna","modification_date":"2011-07-31"},{"geonameid":"2761754","name":"Weiden bei Rechnitz","asciiname":"Weiden bei Rechnitz","alternatenames":"Bandol,Bandoly,Bándoly,Vajden-Rekhnic,Weiden,Weiden bei Rechnitz,Вайден-Рехниц","latitude":"47.3","longitude":"16.35","feature_class":"P","feature_code":"PPLA3","country_code":"AT","cc2":"AT","admin1_code":"01","admin2_code":"109","admin3_code":"10926","admin4_code":"","population":"0","elevation":"","dem":"337","timezone":"Europe/Vienna","modification_date":"2011-07-31"},{"geonameid":"2761758","name":"Weiden am See","asciiname":"Weiden am See","alternatenames":"Vajden-am-Zee,Vedeny,Védeny,Weiden,Вайден-ам-Зее","latitude":"47.92532","longitude":"16.86899","feature_class":"P","feature_code":"PPLA3","country_code":"AT","cc2":"AT","admin1_code":"01","admin2_code":"107","admin3_code":"10722","admin4_code":"","population":"0","elevation":"","dem":"126","timezone":"Europe/Vienna","modification_date":"2012-10-28"},{"geonameid":"2761772","name":"Weichselbaum","asciiname":"Weichselbaum","alternatenames":"","latitude":"46.9425","longitude":"16.1875","feature_class":"P","feature_code":"PPLA3","country_code":"AT","cc2":"","admin1_code":"01","admin2_code":"105","admin3_code":"10510","admin4_code":"","population":"0","elevation":"","dem":"237","timezone":"Europe/Vienna","modification_date":"2011-07-31"},{"geonameid":"2761796","name":"Weer","asciiname":"Weer","alternatenames":"Weer","latitude":"47.3","longitude":"11.63333","feature_class":"P","feature_code":"PPLA3","country_code":"AT","cc2":"","admin1_code":"07","admin2_code":"709","admin3_code":"70937","admin4_code":"","population":"0","elevation":"","dem":"555","timezone":"Europe/Vienna","modification_date":"2011-07-31"},{"geonameid":"2761834","name":"Wattens","asciiname":"Wattens","alternatenames":"Vatens,Vattens,Wattens,wa teng si,Ватенс,Ваттенс,瓦滕斯","latitude":"47.28333","longitude":"11.6","feature_class":"P","feature_code":"PPLA3","country_code":"AT","cc2":"","admin1_code":"07","admin2_code":"703","admin3_code":"70367","admin4_code":"","population":"7517","elevation":"","dem":"782","timezone":"Europe/Vienna","modification_date":"2011-07-31"},{"geonameid":"2761835","name":"Wattenberg","asciiname":"Wattenberg","alternatenames":"","latitude":"47.28333","longitude":"11.6","feature_class":"P","feature_code":"PPLA3","country_code":"AT","cc2":"","admin1_code":"07","admin2_code":"703","admin3_code":"70366","admin4_code":"","population":"0","elevation":"","dem":"782","timezone":"Europe/Vienna","modification_date":"2011-07-31"},{"geonameid":"2761865","name":"Wartmannstetten","asciiname":"Wartmannstetten","alternatenames":"","latitude":"47.69359","longitude":"16.07506","feature_class":"P","feature_code":"PPLA3","country_code":"AT","cc2":"","admin1_code":"03","admin2_code":"318","admin3_code":"31844","admin4_code":"","population":"0","elevation":"","dem":"403","timezone":"Europe/Vienna","modification_date":"2011-07-31"},{"geonameid":"2761869","name":"Warth","asciiname":"Warth","alternatenames":"","latitude":"47.65","longitude":"16.11667","feature_class":"P","feature_code":"PPLA3","country_code":"AT","cc2":"","admin1_code":"03","admin2_code":"318","admin3_code":"31843","admin4_code":"","population":"0","elevation":"","dem":"466","timezone":"Europe/Vienna","modification_date":"2011-07-31"},{"geonameid":"2761870","name":"Warth","asciiname":"Warth","alternatenames":"Warth","latitude":"47.25","longitude":"10.18333","feature_class":"P","feature_code":"PPLA3","country_code":"AT","cc2":"","admin1_code":"08","admin2_code":"802","admin3_code":"80239","admin4_code":"","population":"0","elevation":"","dem":"1332","timezone":"Europe/Vienna","modification_date":"2011-07-31"},{"geonameid":"2761880","name":"Wartberg","asciiname":"Wartberg","alternatenames":"St. Barbara,Wartberg,Wartberg im Murztal,Wartberg im Mürztal","latitude":"47.52717","longitude":"15.48095","feature_class":"P","feature_code":"PPL","country_code":"AT","cc2":"","admin1_code":"06","admin2_code":"621","admin3_code":"62137","admin4_code":"","population":"2051","elevation":"584","dem":"575","timezone":"Europe/Vienna","modification_date":"2016-03-25"},{"geonameid":"2761907","name":"Wängle","asciiname":"Wangle","alternatenames":"","latitude":"47.48658","longitude":"10.68995","feature_class":"P","feature_code":"PPLA3","country_code":"AT","cc2":"","admin1_code":"07","admin2_code":"708","admin3_code":"70835","admin4_code":"","population":"0","elevation":"","dem":"884","timezone":"Europe/Vienna","modification_date":"2012-07-31"},{"geonameid":"2761914","name":"Wang","asciiname":"Wang","alternatenames":"","latitude":"48.04538","longitude":"15.02672","feature_class":"P","feature_code":"PPLA3","country_code":"AT","cc2":"","admin1_code":"03","admin2_code":"320","admin3_code":"32015","admin4_code":"","population":"0","elevation":"","dem":"321","timezone":"Europe/Vienna","modification_date":"2011-07-31"},{"geonameid":"2761944","name":"Walpersbach","asciiname":"Walpersbach","alternatenames":"","latitude":"47.71667","longitude":"16.23333","feature_class":"P","feature_code":"PPLA3","country_code":"AT","cc2":"","admin1_code":"03","admin2_code":"323","admin3_code":"32333","admin4_code":"","population":"0","elevation":"","dem":"375","timezone":"Europe/Vienna","modification_date":"2011-07-31"},{"geonameid":"2761964","name":"Wallern im Burgenland","asciiname":"Wallern im Burgenland","alternatenames":"Valla,Vallern (Burgenland),Wallern,Wallern im Burgenland,Валлерн (Бургенланд)","latitude":"47.72847","longitude":"16.93706","feature_class":"P","feature_code":"PPLA3","country_code":"AT","cc2":"AT","admin1_code":"01","admin2_code":"107","admin3_code":"10721","admin4_code":"","population":"0","elevation":"","dem":"118","timezone":"Europe/Vienna","modification_date":"2011-07-31"},{"geonameid":"2761976","name":"Waldzell","asciiname":"Waldzell","alternatenames":"Val'dcell',wa er de ce er,Вальдцелль,瓦尔德策尔","latitude":"48.13562","longitude":"13.42701","feature_class":"P","feature_code":"PPL","country_code":"AT","cc2":"","admin1_code":"04","admin2_code":"412","admin3_code":"41234","admin4_code":"","population":"2095","elevation":"522","dem":"511","timezone":"Europe/Vienna","modification_date":"2014-09-01"},{"geonameid":"2761989","name":"Waldneukirchen","asciiname":"Waldneukirchen","alternatenames":"Waldneukirchen","latitude":"47.99854","longitude":"14.25879","feature_class":"P","feature_code":"PPLA3","country_code":"AT","cc2":"","admin1_code":"04","admin2_code":"415","admin3_code":"41518","admin4_code":"","population":"0","elevation":"","dem":"431","timezone":"Europe/Vienna","modification_date":"2011-07-31"},{"geonameid":"2761995","name":"Waldkirchen an der Thaya","asciiname":"Waldkirchen an der Thaya","alternatenames":"Waldkirchen,Waldkirchen an der Thaya","latitude":"48.93333","longitude":"15.35","feature_class":"P","feature_code":"PPLA3","country_code":"AT","cc2":"AT","admin1_code":"03","admin2_code":"322","admin3_code":"32222","admin4_code":"","population":"0","elevation":"","dem":"487","timezone":"Europe/Vienna","modification_date":"2011-07-31"},{"geonameid":"2761999","name":"Walding","asciiname":"Walding","alternatenames":"Val'ding,Walding,Вальдинг","latitude":"48.35209","longitude":"14.1576","feature_class":"P","feature_code":"PPLA3","country_code":"AT","cc2":"","admin1_code":"04","admin2_code":"416","admin3_code":"41626","admin4_code":"","population":"0","elevation":"","dem":"277","timezone":"Europe/Vienna","modification_date":"2011-12-20"},{"geonameid":"2762000","name":"Wald im Pinzgau","asciiname":"Wald im Pinzgau","alternatenames":"Val'd,Val'd-im-Pincgau,Wald,Wald im Pinzgau,ping ci gao gu de wa er de,Вальд,Вальд-им-Пинцгау,Вальд-ім-Пінцгау,平茨高谷地瓦尔德","latitude":"47.25","longitude":"12.23333","feature_class":"P","feature_code":"PPLA3","country_code":"AT","cc2":"AT","admin1_code":"05","admin2_code":"506","admin3_code":"50626","admin4_code":"","population":"0","elevation":"","dem":"1033","timezone":"Europe/Vienna","modification_date":"2011-07-31"},{"geonameid":"2762013","name":"Waldhausen","asciiname":"Waldhausen","alternatenames":"","latitude":"48.51667","longitude":"15.25","feature_class":"P","feature_code":"PPLA3","country_code":"AT","cc2":"","admin1_code":"03","admin2_code":"325","admin3_code":"32529","admin4_code":"","population":"0","elevation":"","dem":"679","timezone":"Europe/Vienna","modification_date":"2011-07-31"},{"geonameid":"2762021","name":"Waldenstein","asciiname":"Waldenstein","alternatenames":"","latitude":"48.71667","longitude":"15.01667","feature_class":"P","feature_code":"PPLA3","country_code":"AT","cc2":"","admin1_code":"03","admin2_code":"309","admin3_code":"30940","admin4_code":"","population":"0","elevation":"","dem":"588","timezone":"Europe/Vienna","modification_date":"2011-07-31"},{"geonameid":"2762024","name":"Waldegg","asciiname":"Waldegg","alternatenames":"","latitude":"47.86852","longitude":"16.05154","feature_class":"P","feature_code":"PPLA3","country_code":"AT","cc2":"","admin1_code":"03","admin2_code":"323","admin3_code":"32332","admin4_code":"","population":"0","elevation":"","dem":"373","timezone":"Europe/Vienna","modification_date":"2011-07-31"},{"geonameid":"2762039","name":"Wald am Schoberpaß","asciiname":"Wald am Schoberpass","alternatenames":"Wald,Wald am Schoberpass,Wald am Schoberpaß","latitude":"47.45","longitude":"14.66667","feature_class":"P","feature_code":"PPLA3","country_code":"AT","cc2":"AT","admin1_code":"06","admin2_code":"611","admin3_code":"61119","admin4_code":"","population":"0","elevation":"","dem":"861","timezone":"Europe/Vienna","modification_date":"2011-07-31"},{"geonameid":"2762045","name":"Walchsee","asciiname":"Walchsee","alternatenames":"Val'khze,Val'kse,wa er xi sai,Вальксе,Вальхзе,瓦尔希塞","latitude":"47.65163","longitude":"12.31868","feature_class":"P","feature_code":"PPLA3","country_code":"AT","cc2":"","admin1_code":"07","admin2_code":"705","admin3_code":"70529","admin4_code":"","population":"0","elevation":"","dem":"663","timezone":"Europe/Vienna","modification_date":"2011-07-31"},{"geonameid":"2762070","name":"Waidring","asciiname":"Waidring","alternatenames":"","latitude":"47.58333","longitude":"12.56667","feature_class":"P","feature_code":"PPLA3","country_code":"AT","cc2":"","admin1_code":"07","admin2_code":"704","admin3_code":"70419","admin4_code":"","population":"0","elevation":"","dem":"796","timezone":"Europe/Vienna","modification_date":"2011-07-31"},{"geonameid":"2762071","name":"Waidmannsfeld","asciiname":"Waidmannsfeld","alternatenames":"","latitude":"47.87042","longitude":"15.98116","feature_class":"P","feature_code":"PPLA3","country_code":"AT","cc2":"","admin1_code":"03","admin2_code":"323","admin3_code":"32331","admin4_code":"","population":"0","elevation":"","dem":"475","timezone":"Europe/Vienna","modification_date":"2011-07-31"},{"geonameid":"2762077","name":"Waidhofen an der Ybbs","asciiname":"Waidhofen an der Ybbs","alternatenames":"Stadt Waidhofen an der Ybbs,Vajdkhofen na Ibsu,Vajdkhofen-na- Ibbse,Vajdkhofen-na-Ibse,Waidhofen,Waidhofen-Ybbs,baiteuhopen-andeeoibseu,vaidhopen-an-der-ibsi,waydhwfn an dr ybs,yi bu si he pan wei de huo fen,Вайдхофен-на- Иббсе,Вайдхофен-на-Ибсе,Вајдхофен на Ибсу,ויידהופן אן דר איבס,وایدهوفن آن در یبس,ვაიდჰოფენ-ან-დერ-იბსი,ヴァイトホーフェン・アン・デア・イプス,伊布斯河畔魏德霍芬,바이트호펜안데어입스","latitude":"47.96004","longitude":"14.77361","feature_class":"P","feature_code":"PPLA3","country_code":"AT","cc2":"","admin1_code":"03","admin2_code":"303","admin3_code":"30301","admin4_code":"","population":"11774","elevation":"","dem":"360","timezone":"Europe/Vienna","modification_date":"2011-07-31"},{"geonameid":"2762079","name":"Waidhofen an der Thaya","asciiname":"Waidhofen an der Thaya","alternatenames":"Vajdkhofen an der Taja,Vajdkhofen na Taji,Vajdkhofen-an-der-Tajja,Waidhofen,Waidhofen an der Thaya,ta ya he pan wei de huo fen,Вайдхофен ан дер Тая,Вайдхофен-ан-дер-Тайя,Вајдхофен на Таји,塔亞河畔魏德霍芬","latitude":"48.81667","longitude":"15.28333","feature_class":"P","feature_code":"PPLA3","country_code":"AT","cc2":"","admin1_code":"03","admin2_code":"322","admin3_code":"32220","admin4_code":"","population":"5838","elevation":"","dem":"493","timezone":"Europe/Vienna","modification_date":"2011-07-31"},{"geonameid":"2762102","name":"Wagrain","asciiname":"Wagrain","alternatenames":"Vagrajn,Wagrain,Wagrin,Wougroa,wa ge lai en,Ваграйн,瓦格赖恩","latitude":"47.33528","longitude":"13.29889","feature_class":"P","feature_code":"PPLA3","country_code":"AT","cc2":"AT","admin1_code":"05","admin2_code":"504","admin3_code":"50423","admin4_code":"","population":"0","elevation":"","dem":"849","timezone":"Europe/Vienna","modification_date":"2011-07-31"},{"geonameid":"2762109","name":"Wagna","asciiname":"Wagna","alternatenames":"Vagna,wa ge na,Вагна,瓦格纳","latitude":"46.75","longitude":"15.55","feature_class":"P","feature_code":"PPLA3","country_code":"AT","cc2":"","admin1_code":"06","admin2_code":"610","admin3_code":"61045","admin4_code":"","population":"0","elevation":"","dem":"309","timezone":"Europe/Vienna","modification_date":"2011-07-31"},{"geonameid":"2762150","name":"Vösendorf","asciiname":"Vosendorf","alternatenames":"Fjozendorf,fu sen duo fu,Фёзендорф,弗森多夫","latitude":"48.12107","longitude":"16.34036","feature_class":"P","feature_code":"PPLA3","country_code":"AT","cc2":"","admin1_code":"03","admin2_code":"317","admin3_code":"31723","admin4_code":"","population":"0","elevation":"","dem":"192","timezone":"Europe/Vienna","modification_date":"2011-07-31"},{"geonameid":"2762157","name":"Murau","asciiname":"Murau","alternatenames":"Murau,Murau Vorstadt,Vorstadt Murau,mu lao,Мурау,穆劳","latitude":"47.11056","longitude":"14.16944","feature_class":"P","feature_code":"PPLA3","country_code":"AT","cc2":"","admin1_code":"06","admin2_code":"614","admin3_code":"61411","admin4_code":"","population":"2124","elevation":"","dem":"841","timezone":"Europe/Vienna","modification_date":"2013-12-01"},{"geonameid":"2762207","name":"Vordernberg","asciiname":"Vordernberg","alternatenames":"Fordernberg,Vordernberg,Vordernberg-Markt,fu er deng bei ge,Фордернберг,福尔登贝格","latitude":"47.46667","longitude":"15","feature_class":"P","feature_code":"PPLA3","country_code":"AT","cc2":"AT","admin1_code":"06","admin2_code":"611","admin3_code":"61118","admin4_code":"","population":"0","elevation":"","dem":"1111","timezone":"Europe/Vienna","modification_date":"2011-07-31"},{"geonameid":"2762223","name":"Vorderhornbach","asciiname":"Vorderhornbach","alternatenames":"Vorderhornbach","latitude":"47.36667","longitude":"10.53333","feature_class":"P","feature_code":"PPLA3","country_code":"AT","cc2":"","admin1_code":"07","admin2_code":"708","admin3_code":"70834","admin4_code":"","population":"0","elevation":"","dem":"1007","timezone":"Europe/Vienna","modification_date":"2011-07-31"},{"geonameid":"2762290","name":"Vorchdorf","asciiname":"Vorchdorf","alternatenames":"Forkhdorf,Vorchdorf,fu er xi duo fu,Форхдорф,福爾希多夫","latitude":"48.00388","longitude":"13.92122","feature_class":"P","feature_code":"PPL","country_code":"AT","cc2":"","admin1_code":"04","admin2_code":"407","admin3_code":"40720","admin4_code":"","population":"7455","elevation":"","dem":"410","timezone":"Europe/Vienna","modification_date":"2011-06-26"},{"geonameid":"2762299","name":"Vorau","asciiname":"Vorau","alternatenames":"Forau,fu lao,Форау,福劳","latitude":"47.4","longitude":"15.88333","feature_class":"P","feature_code":"PPLA3","country_code":"AT","cc2":"","admin1_code":"06","admin2_code":"622","admin3_code":"62259","admin4_code":"","population":"0","elevation":"","dem":"677","timezone":"Europe/Vienna","modification_date":"2014-04-28"},{"geonameid":"2762303","name":"Vomp","asciiname":"Vomp","alternatenames":"Fomp,Vomp,fu mu pu,Фомп,福姆普","latitude":"47.33333","longitude":"11.68333","feature_class":"P","feature_code":"PPL","country_code":"AT","cc2":"","admin1_code":"07","admin2_code":"709","admin3_code":"70936","admin4_code":"","population":"4628","elevation":"","dem":"542","timezone":"Europe/Vienna","modification_date":"2014-05-03"},{"geonameid":"2762304","name":"Völs","asciiname":"Vols","alternatenames":"","latitude":"47.25","longitude":"11.33333","feature_class":"P","feature_code":"PPLA3","country_code":"AT","cc2":"","admin1_code":"07","admin2_code":"703","admin3_code":"70364","admin4_code":"","population":"6573","elevation":"","dem":"605","timezone":"Europe/Vienna","modification_date":"2011-07-31"},{"geonameid":"2762315","name":"Völkermarkt","asciiname":"Voelkermarkt","alternatenames":"Felkermarkt,Fjol'kermarkt,Velikovec,Voelkermarkt,fu er ke ma ke te,fwlkrmarkt,Фелкермаркт,Фёлькермаркт,فولکرمارکت,弗爾克馬克特","latitude":"46.66222","longitude":"14.63444","feature_class":"P","feature_code":"PPLA3","country_code":"AT","cc2":"","admin1_code":"02","admin2_code":"208","admin3_code":"20817","admin4_code":"","population":"11373","elevation":"","dem":"463","timezone":"Europe/Vienna","modification_date":"2011-07-31"},{"geonameid":"2762320","name":"Volders","asciiname":"Volders","alternatenames":"Fol'ders,fu er de er si,Фольдерс,福尔德尔斯","latitude":"47.28333","longitude":"11.56667","feature_class":"P","feature_code":"PPLA3","country_code":"AT","cc2":"","admin1_code":"07","admin2_code":"703","admin3_code":"70365","admin4_code":"","population":"0","elevation":"","dem":"583","timezone":"Europe/Vienna","modification_date":"2016-03-16"},{"geonameid":"2762327","name":"Voitsberg","asciiname":"Voitsberg","alternatenames":"Fojtsberg,Voitsberg,wo ci bo ge,Фойтсберг,Фојтсберг,沃茨伯格","latitude":"47.03333","longitude":"15.15","feature_class":"P","feature_code":"PPLA3","country_code":"AT","cc2":"","admin1_code":"06","admin2_code":"616","admin3_code":"61625","admin4_code":"","population":"9980","elevation":"","dem":"560","timezone":"Europe/Vienna","modification_date":"2011-07-31"},{"geonameid":"2762341","name":"Vöcklamarkt","asciiname":"Vocklamarkt","alternatenames":"Fjoklamarkt,Vocklamarkt,Vocklamarkt-am Haushamerfeld,Vöcklamarkt,Vöcklamarkt-am Haushamerfeld,fu ke la ma ke te,Фёкламаркт,弗克拉马克特","latitude":"48.0025","longitude":"13.48383","feature_class":"P","feature_code":"PPLA3","country_code":"AT","cc2":"","admin1_code":"04","admin2_code":"417","admin3_code":"41747","admin4_code":"","population":"4869","elevation":"","dem":"488","timezone":"Europe/Vienna","modification_date":"2011-07-31"},{"geonameid":"2762343","name":"Vöcklabruck","asciiname":"Vocklabruck","alternatenames":"Feklabruk,Fjoklabruk,Fjoklabrukk,Féklabruk,Vocklabruck,Vöcklabruck,fu ke la bu lu ke,fwklabrwk,Феклабрук,Фёклабрук,Фёклабрукк,فوکلابروک,ფეკლაბრუკი,弗克拉布魯克","latitude":"48.01667","longitude":"13.65","feature_class":"P","feature_code":"PPLA3","country_code":"AT","cc2":"","admin1_code":"04","admin2_code":"417","admin3_code":"41746","admin4_code":"","population":"11887","elevation":"","dem":"498","timezone":"Europe/Vienna","modification_date":"2011-07-31"},{"geonameid":"2762348","name":"Vitis","asciiname":"Vitis","alternatenames":"","latitude":"48.75964","longitude":"15.18259","feature_class":"P","feature_code":"PPLA3","country_code":"AT","cc2":"","admin1_code":"03","admin2_code":"322","admin3_code":"32219","admin4_code":"","population":"0","elevation":"","dem":"520","timezone":"Europe/Vienna","modification_date":"2011-07-31"},{"geonameid":"2762352","name":"Virgen","asciiname":"Virgen","alternatenames":"Firgen,Virgen,fei er gen,frjn,Фирген,Фірген,فرجن,菲尔根","latitude":"47","longitude":"12.45","feature_class":"P","feature_code":"PPLA3","country_code":"AT","cc2":"","admin1_code":"07","admin2_code":"707","admin3_code":"70734","admin4_code":"","population":"0","elevation":"","dem":"1120","timezone":"Europe/Vienna","modification_date":"2011-07-31"},{"geonameid":"2762358","name":"Vils","asciiname":"Vils","alternatenames":"Vils","latitude":"47.55","longitude":"10.63333","feature_class":"P","feature_code":"PPLA3","country_code":"AT","cc2":"","admin1_code":"07","admin2_code":"708","admin3_code":"70833","admin4_code":"","population":"0","elevation":"","dem":"816","timezone":"Europe/Vienna","modification_date":"2011-07-31"},{"geonameid":"2762372","name":"Villach","asciiname":"Villach","alternatenames":"Beljak,Filachas,Filakh,Fillach,Fillaha,Fillakh,Gorad Filakh,QVL,Santicum,Vilac,Villach,Villaco,fei la he,fil lakh,firahha,fylakh,pilakhi,pillaheu,pylʼk,wylakh,Φίλλαχ,Горад Філах,Филах,Филлах,Філлах,פילאך,فیلاخ,ویلاخ,ฟิลลาค,ფილახი,フィラッハ,菲拉赫,필라흐","latitude":"46.61028","longitude":"13.85583","feature_class":"P","feature_code":"PPLA2","country_code":"AT","cc2":"","admin1_code":"02","admin2_code":"202","admin3_code":"20201","admin4_code":"","population":"58882","elevation":"","dem":"494","timezone":"Europe/Vienna","modification_date":"2015-06-20"},{"geonameid":"2762376","name":"Viktorsberg","asciiname":"Viktorsberg","alternatenames":"","latitude":"47.29972","longitude":"9.66667","feature_class":"P","feature_code":"PPLA3","country_code":"AT","cc2":"","admin1_code":"08","admin2_code":"804","admin3_code":"80422","admin4_code":"","population":"0","elevation":"","dem":"692","timezone":"Europe/Vienna","modification_date":"2011-07-31"},{"geonameid":"2762392","name":"Viehhofen","asciiname":"Viehhofen","alternatenames":"","latitude":"47.36667","longitude":"12.73333","feature_class":"P","feature_code":"PPLA3","country_code":"AT","cc2":"","admin1_code":"05","admin2_code":"506","admin3_code":"50625","admin4_code":"","population":"0","elevation":"","dem":"855","timezone":"Europe/Vienna","modification_date":"2011-07-31"},{"geonameid":"2762453","name":"Velden am Wörthersee","asciiname":"Velden am Woerthersee","alternatenames":"Vel'den,Velden,Velden am Woerthersee,Velden am Wörthersee,Вельден","latitude":"46.61301","longitude":"14.0413","feature_class":"P","feature_code":"PPL","country_code":"AT","cc2":"","admin1_code":"02","admin2_code":"207","admin3_code":"20725","admin4_code":"","population":"8817","elevation":"","dem":"448","timezone":"Europe/Vienna","modification_date":"2014-05-01"},{"geonameid":"2762458","name":"Veitsch","asciiname":"Veitsch","alternatenames":"Fajch,fa yi qi,wytsch,Файч,ویتسچ,法伊奇","latitude":"47.57815","longitude":"15.4945","feature_class":"P","feature_code":"PPLA3","country_code":"AT","cc2":"","admin1_code":"06","admin2_code":"621","admin3_code":"62136","admin4_code":"","population":"0","elevation":"","dem":"666","timezone":"Europe/Vienna","modification_date":"2014-04-28"},{"geonameid":"2762493","name":"Uttendorf","asciiname":"Uttendorf","alternatenames":"","latitude":"47.28333","longitude":"12.56667","feature_class":"P","feature_code":"PPLA3","country_code":"AT","cc2":"","admin1_code":"05","admin2_code":"506","admin3_code":"50624","admin4_code":"","population":"0","elevation":"","dem":"780","timezone":"Europe/Vienna","modification_date":"2011-07-31"},{"geonameid":"2762572","name":"Unterwart","asciiname":"Unterwart","alternatenames":"Alsoor,Alsóor,Untervart,Unterwart,Унтерварт","latitude":"47.25","longitude":"16.23333","feature_class":"P","feature_code":"PPLA3","country_code":"AT","cc2":"","admin1_code":"01","admin2_code":"109","admin3_code":"10925","admin4_code":"","population":"0","elevation":"","dem":"338","timezone":"Europe/Vienna","modification_date":"2011-07-31"},{"geonameid":"2762619","name":"Untertauern","asciiname":"Untertauern","alternatenames":"","latitude":"47.3","longitude":"13.5","feature_class":"P","feature_code":"PPLA3","country_code":"AT","cc2":"","admin1_code":"05","admin2_code":"504","admin3_code":"50422","admin4_code":"","population":"0","elevation":"","dem":"1166","timezone":"Europe/Vienna","modification_date":"2011-07-31"},{"geonameid":"2762632","name":"Unterstinkenbrunn","asciiname":"Unterstinkenbrunn","alternatenames":"","latitude":"48.66667","longitude":"16.33333","feature_class":"P","feature_code":"PPLA3","country_code":"AT","cc2":"","admin1_code":"03","admin2_code":"316","admin3_code":"31652","admin4_code":"","population":"0","elevation":"","dem":"202","timezone":"Europe/Vienna","modification_date":"2011-07-31"},{"geonameid":"2762647","name":"Untersiebenbrunn","asciiname":"Untersiebenbrunn","alternatenames":"","latitude":"48.25","longitude":"16.73333","feature_class":"P","feature_code":"PPLA3","country_code":"AT","cc2":"","admin1_code":"03","admin2_code":"308","admin3_code":"30858","admin4_code":"","population":"0","elevation":"","dem":"146","timezone":"Europe/Vienna","modification_date":"2011-07-31"},{"geonameid":"2762678","name":"Rohrbach an der Gölsen","asciiname":"Rohrbach an der Goelsen","alternatenames":"Unterrohrbach","latitude":"48.04699","longitude":"15.74169","feature_class":"P","feature_code":"PPLA3","country_code":"AT","cc2":"","admin1_code":"03","admin2_code":"314","admin3_code":"31410","admin4_code":"","population":"0","elevation":"","dem":"400","timezone":"Europe/Vienna","modification_date":"2011-07-31"},{"geonameid":"2762714","name":"Unterpremstätten","asciiname":"Unterpremstatten","alternatenames":"Premstatten,Premstätten,Unterpremstatten,Unterpremstetten,Unterpremstätten,Унтерпремстеттен","latitude":"46.96472","longitude":"15.40417","feature_class":"P","feature_code":"PPLA3","country_code":"AT","cc2":"AT","admin1_code":"06","admin2_code":"606","admin3_code":"60652","admin4_code":"","population":"0","elevation":"","dem":"336","timezone":"Europe/Vienna","modification_date":"2011-07-31"},{"geonameid":"2762732","name":"Unterperfuss","asciiname":"Unterperfuss","alternatenames":"","latitude":"47.26667","longitude":"11.25","feature_class":"P","feature_code":"PPLA3","country_code":"AT","cc2":"","admin1_code":"07","admin2_code":"703","admin3_code":"70361","admin4_code":"","population":"0","elevation":"","dem":"595","timezone":"Europe/Vienna","modification_date":"2011-07-31"},{"geonameid":"2762827","name":"Unterlamm","asciiname":"Unterlamm","alternatenames":"","latitude":"46.97694","longitude":"16.06389","feature_class":"P","feature_code":"PPLA3","country_code":"AT","cc2":"","admin1_code":"06","admin2_code":"623","admin3_code":"62372","admin4_code":"","population":"0","elevation":"","dem":"312","timezone":"Europe/Vienna","modification_date":"2014-04-28"},{"geonameid":"2762843","name":"Unterkohlstätten","asciiname":"Unterkohlstatten","alternatenames":"","latitude":"47.38333","longitude":"16.31667","feature_class":"P","feature_code":"PPLA3","country_code":"AT","cc2":"","admin1_code":"01","admin2_code":"109","admin3_code":"10924","admin4_code":"","population":"0","elevation":"","dem":"476","timezone":"Europe/Vienna","modification_date":"2011-07-31"},{"geonameid":"2762908","name":"Grünburg","asciiname":"Gruenburg","alternatenames":"Grjunburg,ge lin bao,Грюнбург,格林堡","latitude":"47.97234","longitude":"14.26472","feature_class":"P","feature_code":"PPL","country_code":"AT","cc2":"","admin1_code":"04","admin2_code":"409","admin3_code":"40902","admin4_code":"","population":"3824","elevation":"365","dem":"359","timezone":"Europe/Vienna","modification_date":"2011-06-26"},{"geonameid":"2762952","name":"Unterfrauenhaid","asciiname":"Unterfrauenhaid","alternatenames":"Lok,Lók,Svetica","latitude":"47.57116","longitude":"16.49885","feature_class":"P","feature_code":"PPLA3","country_code":"AT","cc2":"","admin1_code":"01","admin2_code":"108","admin3_code":"10825","admin4_code":"","population":"0","elevation":"","dem":"286","timezone":"Europe/Vienna","modification_date":"2012-11-11"},{"geonameid":"2762953","name":"Unterfladnitz","asciiname":"Unterfladnitz","alternatenames":"Unterfladnitz","latitude":"47.18333","longitude":"15.66667","feature_class":"P","feature_code":"PPLA3","country_code":"AT","cc2":"","admin1_code":"06","admin2_code":"617","admin3_code":"61753","admin4_code":"","population":"0","elevation":"","dem":"408","timezone":"Europe/Vienna","modification_date":"2011-07-31"},{"geonameid":"2763099","name":"Unterbergla","asciiname":"Unterbergla","alternatenames":"","latitude":"46.8","longitude":"15.31667","feature_class":"P","feature_code":"PPLA3","country_code":"AT","cc2":"","admin1_code":"06","admin2_code":"603","admin3_code":"60339","admin4_code":"","population":"1342","elevation":"","dem":"350","timezone":"Europe/Vienna","modification_date":"2013-12-01"},{"geonameid":"2763118","name":"Unterauersbach","asciiname":"Unterauersbach","alternatenames":"Unterauersbach","latitude":"46.86556","longitude":"15.77028","feature_class":"P","feature_code":"PPLA3","country_code":"AT","cc2":"","admin1_code":"06","admin2_code":"623","admin3_code":"62371","admin4_code":"","population":"0","elevation":"","dem":"322","timezone":"Europe/Vienna","modification_date":"2014-04-28"},{"geonameid":"2763150","name":"Unken","asciiname":"Unken","alternatenames":"","latitude":"47.65","longitude":"12.71667","feature_class":"P","feature_code":"PPLA3","country_code":"AT","cc2":"","admin1_code":"05","admin2_code":"506","admin3_code":"50623","admin4_code":"","population":"0","elevation":"","dem":"741","timezone":"Europe/Vienna","modification_date":"2011-07-31"},{"geonameid":"2763154","name":"Ungerdorf","asciiname":"Ungerdorf","alternatenames":"","latitude":"47.08333","longitude":"15.66667","feature_class":"P","feature_code":"PPLA3","country_code":"AT","cc2":"","admin1_code":"06","admin2_code":"617","admin3_code":"61752","admin4_code":"","population":"0","elevation":"","dem":"454","timezone":"Europe/Vienna","modification_date":"2011-07-31"},{"geonameid":"2763160","name":"Ungenach","asciiname":"Ungenach","alternatenames":"Ungenach","latitude":"48.05","longitude":"13.61667","feature_class":"P","feature_code":"PPLA3","country_code":"AT","cc2":"","admin1_code":"04","admin2_code":"417","admin3_code":"41744","admin4_code":"","population":"0","elevation":"","dem":"509","timezone":"Europe/Vienna","modification_date":"2011-07-31"},{"geonameid":"2763164","name":"Umhausen","asciiname":"Umhausen","alternatenames":"Umgauzen,Umhausen,Umkhauzen,wu mu hao sen,Умгаузен,Умхаузен,امہاؤسن,乌姆豪森","latitude":"47.13333","longitude":"10.93333","feature_class":"P","feature_code":"PPLA3","country_code":"AT","cc2":"","admin1_code":"07","admin2_code":"702","admin3_code":"70223","admin4_code":"","population":"0","elevation":"","dem":"1070","timezone":"Europe/Vienna","modification_date":"2011-07-31"},{"geonameid":"2763176","name":"Ulrichsberg","asciiname":"Ulrichsberg","alternatenames":"Ul'rikhsberg,Ul'riksberg,wu er li xi si bei ge,Ульриксберг,Ульрихсберг,乌尔里希斯贝格","latitude":"48.67498","longitude":"13.91049","feature_class":"P","feature_code":"PPL","country_code":"AT","cc2":"","admin1_code":"04","admin2_code":"413","admin3_code":"41342","admin4_code":"","population":"2997","elevation":"","dem":"630","timezone":"Europe/Vienna","modification_date":"2011-07-14"},{"geonameid":"2763199","name":"Uderns","asciiname":"Uderns","alternatenames":"Uderns","latitude":"47.31667","longitude":"11.86667","feature_class":"P","feature_code":"PPLA3","country_code":"AT","cc2":"","admin1_code":"07","admin2_code":"709","admin3_code":"70935","admin4_code":"","population":"0","elevation":"","dem":"541","timezone":"Europe/Vienna","modification_date":"2011-07-31"},{"geonameid":"2763201","name":"Übersbach","asciiname":"UEbersbach","alternatenames":"Ubersbach,Uebersbach,Übersbach","latitude":"47.01667","longitude":"16.05","feature_class":"P","feature_code":"PPLA3","country_code":"AT","cc2":"AT","admin1_code":"06","admin2_code":"622","admin3_code":"62258","admin4_code":"","population":"0","elevation":"","dem":"254","timezone":"Europe/Vienna","modification_date":"2014-04-28"},{"geonameid":"2763202","name":"Übersaxen","asciiname":"Ubersaxen","alternatenames":"Ubersaxen,Uebersaxen,Übersaxen","latitude":"47.25284","longitude":"9.6708","feature_class":"P","feature_code":"PPLA3","country_code":"AT","cc2":"AT","admin1_code":"08","admin2_code":"804","admin3_code":"80421","admin4_code":"","population":"0","elevation":"","dem":"897","timezone":"Europe/Vienna","modification_date":"2011-07-31"},{"geonameid":"2763209","name":"Übelbach","asciiname":"Ubelbach","alternatenames":"Ibel'bakh,Ubelbach,Ubelbach Markt,Uebelbach,abylbach,yu bo er ba he,Übelbach,Übelbach Markt,Ибельбах,ابیلباچ,于伯尔巴赫","latitude":"47.22534","longitude":"15.23615","feature_class":"P","feature_code":"PPLA3","country_code":"AT","cc2":"AT","admin1_code":"06","admin2_code":"606","admin3_code":"60651","admin4_code":"","population":"0","elevation":"","dem":"570","timezone":"Europe/Vienna","modification_date":"2011-07-31"},{"geonameid":"2763215","name":"Tweng","asciiname":"Tweng","alternatenames":"","latitude":"47.18333","longitude":"13.6","feature_class":"P","feature_code":"PPLA3","country_code":"AT","cc2":"","admin1_code":"05","admin2_code":"505","admin3_code":"50512","admin4_code":"","population":"0","elevation":"","dem":"1435","timezone":"Europe/Vienna","modification_date":"2011-07-31"},{"geonameid":"2763235","name":"Türnitz","asciiname":"Turnitz","alternatenames":"Ternitz,Tjurnic,di er ni ci,twrnytz,Тюрниц,تورنیتز,蒂尔尼茨","latitude":"47.93095","longitude":"15.49295","feature_class":"P","feature_code":"PPLA3","country_code":"AT","cc2":"AT","admin1_code":"03","admin2_code":"314","admin3_code":"31414","admin4_code":"","population":"0","elevation":"","dem":"457","timezone":"Europe/Vienna","modification_date":"2011-07-31"},{"geonameid":"2763242","name":"Turnau","asciiname":"Turnau","alternatenames":"","latitude":"47.55","longitude":"15.33333","feature_class":"P","feature_code":"PPLA3","country_code":"AT","cc2":"","admin1_code":"06","admin2_code":"621","admin3_code":"62135","admin4_code":"","population":"0","elevation":"","dem":"758","timezone":"Europe/Vienna","modification_date":"2014-04-28"},{"geonameid":"2763266","name":"Tulln","asciiname":"Tulln","alternatenames":"","latitude":"48.32829","longitude":"16.05858","feature_class":"P","feature_code":"PPL","country_code":"AT","cc2":"","admin1_code":"03","admin2_code":"321","admin3_code":"32135","admin4_code":"","population":"14201","elevation":"","dem":"175","timezone":"Europe/Vienna","modification_date":"2013-07-28"},{"geonameid":"2763267","name":"Tulfes","asciiname":"Tulfes","alternatenames":"","latitude":"47.25","longitude":"11.53333","feature_class":"P","feature_code":"PPLA3","country_code":"AT","cc2":"","admin1_code":"07","admin2_code":"703","admin3_code":"70360","admin4_code":"","population":"0","elevation":"","dem":"1202","timezone":"Europe/Vienna","modification_date":"2011-07-31"},{"geonameid":"2763270","name":"Tulbing","asciiname":"Tulbing","alternatenames":"","latitude":"48.29336","longitude":"16.12226","feature_class":"P","feature_code":"PPLA3","country_code":"AT","cc2":"","admin1_code":"03","admin2_code":"321","admin3_code":"32134","admin4_code":"","population":"0","elevation":"","dem":"183","timezone":"Europe/Vienna","modification_date":"2011-07-31"},{"geonameid":"2763300","name":"Tschanigraben","asciiname":"Tschanigraben","alternatenames":"","latitude":"47.01667","longitude":"16.3","feature_class":"P","feature_code":"PPLA3","country_code":"AT","cc2":"","admin1_code":"01","admin2_code":"104","admin3_code":"10423","admin4_code":"","population":"0","elevation":"","dem":"296","timezone":"Europe/Vienna","modification_date":"2011-07-31"},{"geonameid":"2763302","name":"Tschagguns","asciiname":"Tschagguns","alternatenames":"Chagguns,Tschagguns,cha gong si,Чаггунс,查贡斯","latitude":"47.08333","longitude":"9.9","feature_class":"P","feature_code":"PPLA3","country_code":"AT","cc2":"","admin1_code":"08","admin2_code":"801","admin3_code":"80128","admin4_code":"","population":"0","elevation":"","dem":"667","timezone":"Europe/Vienna","modification_date":"2011-07-31"},{"geonameid":"2763308","name":"Trumau","asciiname":"Trumau","alternatenames":"","latitude":"47.99348","longitude":"16.34268","feature_class":"P","feature_code":"PPLA3","country_code":"AT","cc2":"","admin1_code":"03","admin2_code":"306","admin3_code":"30641","admin4_code":"","population":"0","elevation":"","dem":"201","timezone":"Europe/Vienna","modification_date":"2011-07-31"},{"geonameid":"2763313","name":"Trössing","asciiname":"Troessing","alternatenames":"Trossing,Trössing","latitude":"46.81667","longitude":"15.81667","feature_class":"P","feature_code":"PPLA3","country_code":"AT","cc2":"","admin1_code":"06","admin2_code":"623","admin3_code":"62370","admin4_code":"","population":"0","elevation":"","dem":"268","timezone":"Europe/Vienna","modification_date":"2014-04-28"},{"geonameid":"2763332","name":"Trofaiach","asciiname":"Trofaiach","alternatenames":"Trofaiach,Trofajakh,te luo fa yi ya he,Трофайах,特罗法伊亚赫","latitude":"47.42524","longitude":"15.00681","feature_class":"P","feature_code":"PPLA3","country_code":"AT","cc2":"","admin1_code":"06","admin2_code":"611","admin3_code":"61120","admin4_code":"","population":"8313","elevation":"","dem":"660","timezone":"Europe/Vienna","modification_date":"2014-05-25"},{"geonameid":"2763343","name":"Tristach","asciiname":"Tristach","alternatenames":"Trishtakh,Tristach,Tristakh,te li shi ta he,Тристах,Триштах,特里施塔赫","latitude":"46.81611","longitude":"12.78972","feature_class":"P","feature_code":"PPLA3","country_code":"AT","cc2":"","admin1_code":"07","admin2_code":"707","admin3_code":"70732","admin4_code":"","population":"0","elevation":"","dem":"668","timezone":"Europe/Vienna","modification_date":"2011-07-31"},{"geonameid":"2763348","name":"Trins","asciiname":"Trins","alternatenames":"Trins,te lin si,Тринс,特林斯","latitude":"47.08333","longitude":"11.41667","feature_class":"P","feature_code":"PPLA3","country_code":"AT","cc2":"","admin1_code":"07","admin2_code":"703","admin3_code":"70359","admin4_code":"","population":"0","elevation":"","dem":"1229","timezone":"Europe/Vienna","modification_date":"2011-07-31"},{"geonameid":"2763360","name":"Triebendorf","asciiname":"Triebendorf","alternatenames":"Triebendorf","latitude":"47.11667","longitude":"14.23333","feature_class":"P","feature_code":"PPLA3","country_code":"AT","cc2":"","admin1_code":"06","admin2_code":"614","admin3_code":"61433","admin4_code":"","population":"0","elevation":"","dem":"878","timezone":"Europe/Vienna","modification_date":"2011-07-31"},{"geonameid":"2763362","name":"Trieben","asciiname":"Trieben","alternatenames":"Triben,Trieben,te li ben,Трибен,特里本","latitude":"47.48333","longitude":"14.48333","feature_class":"P","feature_code":"PPLA3","country_code":"AT","cc2":"","admin1_code":"06","admin2_code":"612","admin3_code":"61247","admin4_code":"","population":"0","elevation":"","dem":"746","timezone":"Europe/Vienna","modification_date":"2011-07-31"},{"geonameid":"2763382","name":"Treglwang","asciiname":"Treglwang","alternatenames":"Treglwang","latitude":"47.46667","longitude":"14.58333","feature_class":"P","feature_code":"PPLA3","country_code":"AT","cc2":"","admin1_code":"06","admin2_code":"612","admin3_code":"61246","admin4_code":"","population":"0","elevation":"","dem":"1029","timezone":"Europe/Vienna","modification_date":"2011-07-31"},{"geonameid":"2763395","name":"Trebesing","asciiname":"Trebesing","alternatenames":"","latitude":"46.88639","longitude":"13.51028","feature_class":"P","feature_code":"PPLA3","country_code":"AT","cc2":"","admin1_code":"02","admin2_code":"206","admin3_code":"20638","admin4_code":"","population":"0","elevation":"","dem":"790","timezone":"Europe/Vienna","modification_date":"2011-07-31"},{"geonameid":"2763400","name":"Trautmannsdorf in Oststeiermark","asciiname":"Trautmannsdorf in Oststeiermark","alternatenames":"Trautmannsdorf,Trautmannsdorf in Oststeiermark","latitude":"46.86667","longitude":"15.88333","feature_class":"P","feature_code":"PPLA3","country_code":"AT","cc2":"AT","admin1_code":"06","admin2_code":"623","admin3_code":"62369","admin4_code":"","population":"0","elevation":"","dem":"327","timezone":"Europe/Vienna","modification_date":"2014-04-28"},{"geonameid":"2763401","name":"Trautmannsdorf an der Leitha","asciiname":"Trautmannsdorf an der Leitha","alternatenames":"Trautmannsdorf,Trautmannsdorf an der Leitha,Trautmansdorf-an-der-Lajta,Траутмансдорф-ан-дер-Лайта","latitude":"48.01667","longitude":"16.63333","feature_class":"P","feature_code":"PPLA3","country_code":"AT","cc2":"AT","admin1_code":"03","admin2_code":"307","admin3_code":"30726","admin4_code":"","population":"0","elevation":"","dem":"167","timezone":"Europe/Vienna","modification_date":"2011-07-31"},{"geonameid":"2763406","name":"Trausdorf an der Wulka","asciiname":"Trausdorf an der Wulka","alternatenames":"Darazsfalu,Darázsfalu,Trausdorf,Trausdorf an der Wulka,Trausdorf-an-der-Vul'ka,Траусдорф-ан-дер-Вулька","latitude":"47.8135","longitude":"16.5576","feature_class":"P","feature_code":"PPLA3","country_code":"AT","cc2":"","admin1_code":"01","admin2_code":"103","admin3_code":"10317","admin4_code":"","population":"0","elevation":"","dem":"153","timezone":"Europe/Vienna","modification_date":"2011-07-31"},