{"nextFile":"cities.53.json","rows":[{"geonameid":"2990367","name":"Niherne","asciiname":"Niherne","alternatenames":"Niern,Niherne,nie er en,Ниерн,Ніерн,涅尔恩","latitude":"46.82768","longitude":"1.56384","feature_class":"P","feature_code":"PPL","country_code":"FR","cc2":"","admin1_code":"24","admin2_code":"36","admin3_code":"362","admin4_code":"36142","population":"1628","elevation":"","dem":"131","timezone":"Europe/Paris","modification_date":"2016-02-18"},{"geonameid":"2990369","name":"Niévroz","asciiname":"Nievroz","alternatenames":"N'evro,Nevro,Nievro,ni ai fu luo,nyyfrw,Ньевро,Ньєвро,Նիևրո,نييفرو,尼埃夫罗","latitude":"45.83333","longitude":"5.06667","feature_class":"P","feature_code":"PPL","country_code":"FR","cc2":"","admin1_code":"84","admin2_code":"01","admin3_code":"012","admin4_code":"01276","population":"1476","elevation":"","dem":"183","timezone":"Europe/Paris","modification_date":"2016-02-18"},{"geonameid":"2990377","name":"Nieul-sur-Mer","asciiname":"Nieul-sur-Mer","alternatenames":"N'el'-sjur-Mer,N'jol'-sjur-Mer,Nieul,Nieul-sur-Mer,bin hai nie yu,Ньёль-сюр-Мер,Ньєль-сюр-Мер,滨海涅于","latitude":"46.20583","longitude":"-1.16449","feature_class":"P","feature_code":"PPL","country_code":"FR","cc2":"","admin1_code":"75","admin2_code":"17","admin3_code":"173","admin4_code":"17264","population":"6058","elevation":"","dem":"11","timezone":"Europe/Paris","modification_date":"2016-02-18"},{"geonameid":"2990381","name":"Nieul-lès-Saintes","asciiname":"Nieul-les-Saintes","alternatenames":"Nieul,Nieul-les-Saintes,Nieul-les-Xantes,Nieul-lès-Saintes","latitude":"45.76021","longitude":"-0.73137","feature_class":"P","feature_code":"PPL","country_code":"FR","cc2":"","admin1_code":"75","admin2_code":"17","admin3_code":"174","admin4_code":"17262","population":"1056","elevation":"","dem":"40","timezone":"Europe/Paris","modification_date":"2016-02-18"},{"geonameid":"2990382","name":"Nieul-le-Dolent","asciiname":"Nieul-le-Dolent","alternatenames":"Nieul,Nieul-le-Dolent","latitude":"46.57379","longitude":"-1.50808","feature_class":"P","feature_code":"PPL","country_code":"FR","cc2":"","admin1_code":"52","admin2_code":"85","admin3_code":"853","admin4_code":"85161","population":"1981","elevation":"","dem":"70","timezone":"Europe/Paris","modification_date":"2016-02-18"},{"geonameid":"2990384","name":"Nieul","asciiname":"Nieul","alternatenames":"N'el',Nuelh,Nuèlh,ni yue lei,Ньель,Ньєль,尼约勒","latitude":"45.92668","longitude":"1.17494","feature_class":"P","feature_code":"PPL","country_code":"FR","cc2":"","admin1_code":"75","admin2_code":"87","admin3_code":"872","admin4_code":"87107","population":"1385","elevation":"","dem":"305","timezone":"Europe/Paris","modification_date":"2016-02-18"},{"geonameid":"2990392","name":"Nieppe","asciiname":"Nieppe","alternatenames":"N'epp,Niepkerke,Nieppe,nie pu,Ньепп,Ньєпп,涅普","latitude":"50.70425","longitude":"2.83506","feature_class":"P","feature_code":"PPL","country_code":"FR","cc2":"","admin1_code":"32","admin2_code":"59","admin3_code":"594","admin4_code":"59431","population":"7638","elevation":"","dem":"19","timezone":"Europe/Paris","modification_date":"2016-02-18"},{"geonameid":"2990408","name":"Niederschaeffolsheim","asciiname":"Niederschaeffolsheim","alternatenames":"Nieder Scheffelscheim,Niederschaeffolsheim,Niederschaffolsheim,Niederschäffolsheim","latitude":"48.77196","longitude":"7.73874","feature_class":"P","feature_code":"PPL","country_code":"FR","cc2":"","admin1_code":"44","admin2_code":"67","admin3_code":"672","admin4_code":"67331","population":"1341","elevation":"","dem":"184","timezone":"Europe/Paris","modification_date":"2016-02-18"},{"geonameid":"2990410","name":"Niedernai","asciiname":"Niedernai","alternatenames":"Nidernahn,Niderne,Niederehnheim,Niedernai,Nídernahn,nie dai er nai,nydrnay,Нидерне,Нідерне,نيدرناي,نیدرنای,涅代尔奈","latitude":"48.45134","longitude":"7.51487","feature_class":"P","feature_code":"PPL","country_code":"FR","cc2":"","admin1_code":"44","admin2_code":"67","admin3_code":"675","admin4_code":"67329","population":"1313","elevation":"","dem":"161","timezone":"Europe/Paris","modification_date":"2016-02-18"},{"geonameid":"2990416","name":"Niederhausbergen","asciiname":"Niederhausbergen","alternatenames":"","latitude":"48.624","longitude":"7.7021","feature_class":"P","feature_code":"PPL","country_code":"FR","cc2":"","admin1_code":"44","admin2_code":"67","admin3_code":"676","admin4_code":"67326","population":"1454","elevation":"","dem":"149","timezone":"Europe/Paris","modification_date":"2016-02-18"},{"geonameid":"2990417","name":"Niederhaslach","asciiname":"Niederhaslach","alternatenames":"Ingerhosle,Nideraslak,Niederhaslach,nie de la si la ke,nydyrhaslatsh,Íngerhosle,Нидераслак,Нідераслак,نيديرهاسلاتش,涅德拉斯拉克","latitude":"48.54264","longitude":"7.34282","feature_class":"P","feature_code":"PPL","country_code":"FR","cc2":"","admin1_code":"44","admin2_code":"67","admin3_code":"673","admin4_code":"67325","population":"1248","elevation":"","dem":"250","timezone":"Europe/Paris","modification_date":"2016-02-18"},{"geonameid":"2990420","name":"Niederbronn-les-Bains","asciiname":"Niederbronn-les-Bains","alternatenames":"Bad Niederbronn,Niderbronn-le-Ben,Niderbrunn,Niederbronn,Niederbronn-les-Bains,Níderbrunn,nideruburon=re=ban,nie dai er bu long lai ban,nydrbrwn-l-bn,nydyrbrwn lyh bayns,Нидербронн-ле-Бен,Нідербронн-ле-Бен,نيديربرون ليه باينس,نیدربرون-ل-بن,ニーデルブロン＝レ＝バン,涅代尔布龙莱班","latitude":"48.95165","longitude":"7.64271","feature_class":"P","feature_code":"PPL","country_code":"FR","cc2":"","admin1_code":"44","admin2_code":"67","admin3_code":"672","admin4_code":"67324","population":"4609","elevation":"","dem":"189","timezone":"Europe/Paris","modification_date":"2016-02-18"},{"geonameid":"2990425","name":"Niderviller","asciiname":"Niderviller","alternatenames":"Niderviller","latitude":"48.71294","longitude":"7.10627","feature_class":"P","feature_code":"PPL","country_code":"FR","cc2":"","admin1_code":"44","admin2_code":"57","admin3_code":"575","admin4_code":"57505","population":"1119","elevation":"","dem":"263","timezone":"Europe/Paris","modification_date":"2016-02-21"},{"geonameid":"2990440","name":"Nice","asciiname":"Nice","alternatenames":"Gorad Nica,NCE,Nica,Nicaea,Nicc,Nicca,Niccae,Nice,Nicea,Nico,Nikaia,Nis,Nisa,Nissa,Nissa Maritima,Nissa Marìtima,Nitza,Niza,Nizza,Niça,Nìsa,ni si,nis,nisa,niseu,nisu,nitsa,nys,Νίκαια,Горад Ніца,Ница,Ниццæ,Ницца,Ніцца,Նիս,ניס,نيس,نیس,नीस,নিস,ਨੀਸ,நீஸ்,నీస్,นิส,ნიცა,ニース,尼斯,니스","latitude":"43.70313","longitude":"7.26608","feature_class":"P","feature_code":"PPLA2","country_code":"FR","cc2":"","admin1_code":"93","admin2_code":"06","admin3_code":"062","admin4_code":"06088","population":"338620","elevation":"25","dem":"18","timezone":"Europe/Paris","modification_date":"2016-02-18"},{"geonameid":"2990460","name":"Neydens","asciiname":"Neydens","alternatenames":"","latitude":"46.12162","longitude":"6.10436","feature_class":"P","feature_code":"PPL","country_code":"FR","cc2":"","admin1_code":"84","admin2_code":"74","admin3_code":"743","admin4_code":"74201","population":"1220","elevation":"","dem":"558","timezone":"Europe/Paris","modification_date":"2016-02-18"},{"geonameid":"2990463","name":"Nexon","asciiname":"Nexon","alternatenames":"Nexon","latitude":"45.67962","longitude":"1.18555","feature_class":"P","feature_code":"PPL","country_code":"FR","cc2":"","admin1_code":"75","admin2_code":"87","admin3_code":"872","admin4_code":"87106","population":"2400","elevation":"","dem":"351","timezone":"Europe/Paris","modification_date":"2016-02-18"},{"geonameid":"2990466","name":"Nevoy","asciiname":"Nevoy","alternatenames":"Nevey,Nevoy,Nevua,na wa,Невуа,纳瓦","latitude":"47.71591","longitude":"2.57791","feature_class":"P","feature_code":"PPL","country_code":"FR","cc2":"","admin1_code":"24","admin2_code":"45","admin3_code":"451","admin4_code":"45227","population":"1100","elevation":"","dem":"140","timezone":"Europe/Paris","modification_date":"2016-02-18"},{"geonameid":"2990468","name":"Néville","asciiname":"Neville","alternatenames":"Neville,Néville","latitude":"49.82472","longitude":"0.70862","feature_class":"P","feature_code":"PPL","country_code":"FR","cc2":"","admin1_code":"28","admin2_code":"76","admin3_code":"761","admin4_code":"76467","population":"1137","elevation":"","dem":"71","timezone":"Europe/Paris","modification_date":"2016-02-18"},{"geonameid":"2990469","name":"Névian","asciiname":"Nevian","alternatenames":"Nevian,Névian","latitude":"43.21238","longitude":"2.90286","feature_class":"P","feature_code":"PPL","country_code":"FR","cc2":"","admin1_code":"76","admin2_code":"11","admin3_code":"113","admin4_code":"11264","population":"1160","elevation":"","dem":"29","timezone":"Europe/Paris","modification_date":"2016-02-18"},{"geonameid":"2990471","name":"Névez","asciiname":"Nevez","alternatenames":"Neve,Nevez,Névez,nei wei,nevu~e,Неве,ネヴェ,内韦","latitude":"47.81924","longitude":"-3.79225","feature_class":"P","feature_code":"PPL","country_code":"FR","cc2":"","admin1_code":"53","admin2_code":"29","admin3_code":"294","admin4_code":"29153","population":"2560","elevation":"","dem":"42","timezone":"Europe/Paris","modification_date":"2016-02-18"},{"geonameid":"2990474","name":"Nevers","asciiname":"Nevers","alternatenames":"NVS,Never,Neveras,Nevers,Niverns,Nivernum,Nivèrns,ne wei er,neubeleu,nuvu~eru,nwrs,Νεβέρ,Невер,نورس,เนอแวร์,ヌヴェール,讷韦尔,느베르","latitude":"46.98956","longitude":"3.159","feature_class":"P","feature_code":"PPLA2","country_code":"FR","cc2":"","admin1_code":"27","admin2_code":"58","admin3_code":"583","admin4_code":"58194","population":"43988","elevation":"","dem":"192","timezone":"Europe/Paris","modification_date":"2016-02-18"},{"geonameid":"2990477","name":"Neuwiller-lès-Saverne","asciiname":"Neuwiller-les-Saverne","alternatenames":"Neiwiller,Neuweiler bei Zabern,Neuwiller,Neviller-le-Savern,na wei lai lai sa wei er en,nwylr-l-sawrn,nywwylyr lyh safyrn,Невиллер-ле-Саверн,Невіллер-ле-Саверн,نویلر-ل-ساورن,نيوويلير ليه سافيرن,纳维莱莱萨韦尔恩","latitude":"48.82506","longitude":"7.40513","feature_class":"P","feature_code":"PPL","country_code":"FR","cc2":"","admin1_code":"44","admin2_code":"67","admin3_code":"674","admin4_code":"67322","population":"1134","elevation":"","dem":"218","timezone":"Europe/Paris","modification_date":"2016-02-18"},{"geonameid":"2990479","name":"Neuvy-sur-Loire","asciiname":"Neuvy-sur-Loire","alternatenames":"Neuvy,Neuvy-sur-Loire","latitude":"47.52323","longitude":"2.88333","feature_class":"P","feature_code":"PPL","country_code":"FR","cc2":"","admin1_code":"27","admin2_code":"58","admin3_code":"584","admin4_code":"58193","population":"1371","elevation":"","dem":"139","timezone":"Europe/Paris","modification_date":"2016-02-18"},{"geonameid":"2990480","name":"Neuvy-sur-Barangeon","asciiname":"Neuvy-sur-Barangeon","alternatenames":"Neuvy,Neuvy-sur-Barangeon","latitude":"47.31495","longitude":"2.25343","feature_class":"P","feature_code":"PPL","country_code":"FR","cc2":"","admin1_code":"24","admin2_code":"18","admin3_code":"183","admin4_code":"18165","population":"1211","elevation":"","dem":"144","timezone":"Europe/Paris","modification_date":"2016-02-18"},{"geonameid":"2990481","name":"Neuvy-Sautour","asciiname":"Neuvy-Sautour","alternatenames":"Neuvy,Neuvy-Sautour","latitude":"48.0419","longitude":"3.79472","feature_class":"P","feature_code":"PPL","country_code":"FR","cc2":"","admin1_code":"27","admin2_code":"89","admin3_code":"892","admin4_code":"89276","population":"1064","elevation":"","dem":"165","timezone":"Europe/Paris","modification_date":"2016-02-18"},{"geonameid":"2990482","name":"Neuvy-Saint-Sépulchre","asciiname":"Neuvy-Saint-Sepulchre","alternatenames":"Neuvy,Neuvy-Saint-Sepulchre,Neuvy-Saint-Sepulcre,Neuvy-Saint-Sépulchre,Neuvy-Saint-Sépulcre,Neuvy-sur-Bouzanne,Nevi-Sen-Sepjul'shr,Njovi-Sen-Sepjul'kr,ne wei sheng sai pi er ke er,nwwy-sn-spwlqr,Неві-Сен-Сепюльшр,Нёви-Сен-Сепюлькр,נווי-סן-ספולקר,讷维圣塞皮尔克尔","latitude":"46.59781","longitude":"1.80601","feature_class":"P","feature_code":"PPL","country_code":"FR","cc2":"","admin1_code":"24","admin2_code":"36","admin3_code":"363","admin4_code":"36141","population":"1625","elevation":"","dem":"192","timezone":"Europe/Paris","modification_date":"2016-02-18"},{"geonameid":"2990483","name":"Neuvy-Pailloux","asciiname":"Neuvy-Pailloux","alternatenames":"Neuvy,Neuvy-Pailloux,Nevi-Paju,Njovi-Paju,ne wei pei lu,Неві-Паю,Нёви-Пайу,讷维佩卢","latitude":"46.88486","longitude":"1.86152","feature_class":"P","feature_code":"PPL","country_code":"FR","cc2":"","admin1_code":"24","admin2_code":"36","admin3_code":"364","admin4_code":"36140","population":"1287","elevation":"","dem":"150","timezone":"Europe/Paris","modification_date":"2016-02-18"},{"geonameid":"2990484","name":"Neuvy-le-Roi","asciiname":"Neuvy-le-Roi","alternatenames":"Neuvy,Neuvy-la-Loi,Neuvy-le-Roi","latitude":"47.60386","longitude":"0.59472","feature_class":"P","feature_code":"PPL","country_code":"FR","cc2":"","admin1_code":"24","admin2_code":"37","admin3_code":"372","admin4_code":"37170","population":"1190","elevation":"","dem":"118","timezone":"Europe/Paris","modification_date":"2016-02-18"},{"geonameid":"2990498","name":"Neuvy","asciiname":"Neuvy","alternatenames":"Neuvy","latitude":"46.56037","longitude":"3.2899","feature_class":"P","feature_code":"PPL","country_code":"FR","cc2":"","admin1_code":"84","admin2_code":"03","admin3_code":"032","admin4_code":"03200","population":"1851","elevation":"","dem":"244","timezone":"Europe/Paris","modification_date":"2016-02-18"},{"geonameid":"2990515","name":"Neuville-sur-Sarthe","asciiname":"Neuville-sur-Sarthe","alternatenames":"Neuville,Neuville-sur-Sarthe","latitude":"48.07615","longitude":"0.19264","feature_class":"P","feature_code":"PPL","country_code":"FR","cc2":"","admin1_code":"52","admin2_code":"72","admin3_code":"723","admin4_code":"72217","population":"2286","elevation":"","dem":"51","timezone":"Europe/Paris","modification_date":"2016-02-18"},{"geonameid":"2990516","name":"Neuville-sur-Saône","asciiname":"Neuville-sur-Saone","alternatenames":"Marat-sur-Saone,Marat-sur-Saône,Neuville,Neuville-sur-Saone,Neuville-sur-Saône,Nevil'-sjur-Son,Невіль-сюр-Сон","latitude":"45.87704","longitude":"4.8492","feature_class":"P","feature_code":"PPL","country_code":"FR","cc2":"","admin1_code":"84","admin2_code":"69","admin3_code":"691","admin4_code":"69143","population":"7453","elevation":"","dem":"208","timezone":"Europe/Paris","modification_date":"2016-02-18"},{"geonameid":"2990518","name":"Neuville-sur-Oise","asciiname":"Neuville-sur-Oise","alternatenames":"Neuville,Neuville-sur-Oise,Nevil'-sjur-Uaz,Njovil'-sjur-Uaz,wa ci he pan na wei er,Невиль-сюр-Уаз,Невіль-сюр-Уаз,Нёвиль-сюр-Уаз,瓦兹河畔纳维尔","latitude":"49.01667","longitude":"2.06667","feature_class":"P","feature_code":"PPL","country_code":"FR","cc2":"","admin1_code":"11","admin2_code":"95","admin3_code":"953","admin4_code":"95450","population":"1489","elevation":"","dem":"48","timezone":"Europe/Paris","modification_date":"2016-02-18"},{"geonameid":"2990520","name":"Neuville-sur-Escaut","asciiname":"Neuville-sur-Escaut","alternatenames":"Neuville,Neuville-sur-l'Escaut,Nevil'-sjur-Esko,ai si ke he pan ne wei er,Невиль-сюр-Еско,Невіль-сюр-Еско,埃斯科河畔讷维尔","latitude":"50.3","longitude":"3.35","feature_class":"P","feature_code":"PPL","country_code":"FR","cc2":"","admin1_code":"32","admin2_code":"59","admin3_code":"596","admin4_code":"59429","population":"2733","elevation":"","dem":"36","timezone":"Europe/Paris","modification_date":"2016-02-18"},{"geonameid":"2990522","name":"Neuville-sur-Ain","asciiname":"Neuville-sur-Ain","alternatenames":"Neuville,Neuville-sur-Ain","latitude":"46.08074","longitude":"5.37764","feature_class":"P","feature_code":"PPL","country_code":"FR","cc2":"","admin1_code":"84","admin2_code":"01","admin3_code":"012","admin4_code":"01273","population":"1369","elevation":"","dem":"250","timezone":"Europe/Paris","modification_date":"2016-02-18"},{"geonameid":"2990526","name":"Neuville-Saint-Vaast","asciiname":"Neuville-Saint-Vaast","alternatenames":"Neuville,Neuville-Saint-Vaast,Neuville-l'Egalite,Neuville-l'Egalité,Nevil'-Sen-Vaast,ne wei er sheng wa si te,nwfyl san fas,Невиль-Сен-Вааст,Невіль-Сен-Вааст,نوفيل سان فاس,讷维尔圣瓦斯特","latitude":"50.35756","longitude":"2.76261","feature_class":"P","feature_code":"PPL","country_code":"FR","cc2":"","admin1_code":"32","admin2_code":"62","admin3_code":"621","admin4_code":"62609","population":"1444","elevation":"","dem":"109","timezone":"Europe/Paris","modification_date":"2016-02-18"},{"geonameid":"2990527","name":"Neuville-Saint-Rémy","asciiname":"Neuville-Saint-Remy","alternatenames":"Neuville,Neuville-Saint-Remy,Neuville-Saint-Rémy,Neuvilly,Nevil'-Sen-Remi,Njovil'-Sen-Remi,ne wei er sheng lei mi,Невиль-Сен-Реми,Невіль-Сен-Ремі,Нёвиль-Сен-Реми,讷维尔圣雷米","latitude":"50.18618","longitude":"3.22404","feature_class":"P","feature_code":"PPL","country_code":"FR","cc2":"","admin1_code":"32","admin2_code":"59","admin3_code":"592","admin4_code":"59428","population":"3667","elevation":"","dem":"46","timezone":"Europe/Paris","modification_date":"2016-02-18"},{"geonameid":"2990539","name":"Neuville-les-Dames","asciiname":"Neuville-les-Dames","alternatenames":"Neuville,Neuville-les-Dames,Neuville-sur-Renon","latitude":"46.16228","longitude":"5.00399","feature_class":"P","feature_code":"PPL","country_code":"FR","cc2":"","admin1_code":"84","admin2_code":"01","admin3_code":"012","admin4_code":"01272","population":"1365","elevation":"","dem":"241","timezone":"Europe/Paris","modification_date":"2016-02-18"},{"geonameid":"2990543","name":"Neuville-en-Ferrain","asciiname":"Neuville-en-Ferrain","alternatenames":"Ferrain,Neuville,Neuville en Farram,Neuville-en-Ferrain,Nevil'-an-Ferren,Njovil'-an-Ferren,ne wei er ang fei lan,Невиль-ан-Феррен,Невіль-ан-Феррен,Нёвиль-ан-Феррен,讷维尔昂费兰","latitude":"50.74839","longitude":"3.15676","feature_class":"P","feature_code":"PPL","country_code":"FR","cc2":"","admin1_code":"32","admin2_code":"59","admin3_code":"595","admin4_code":"59426","population":"9428","elevation":"","dem":"41","timezone":"Europe/Paris","modification_date":"2016-02-18"},{"geonameid":"2990546","name":"Neuville-de-Poitou","asciiname":"Neuville-de-Poitou","alternatenames":"Neuville,Nevil'-de-Puatu,na wei lei de pu wa tu,Невіль-де-Пуату,纳维勒德普瓦图","latitude":"46.68333","longitude":"0.25","feature_class":"P","feature_code":"PPL","country_code":"FR","cc2":"","admin1_code":"75","admin2_code":"86","admin3_code":"863","admin4_code":"86177","population":"4338","elevation":"","dem":"115","timezone":"Europe/Paris","modification_date":"2016-02-18"},{"geonameid":"2990550","name":"Neuville-aux-Bois","asciiname":"Neuville-aux-Bois","alternatenames":"Neuville,Neuville-aux-Bois","latitude":"48.06813","longitude":"2.05372","feature_class":"P","feature_code":"PPL","country_code":"FR","cc2":"","admin1_code":"24","admin2_code":"45","admin3_code":"452","admin4_code":"45224","population":"4140","elevation":"","dem":"127","timezone":"Europe/Paris","modification_date":"2016-02-18"},{"geonameid":"2990574","name":"Neuvic-Entier","asciiname":"Neuvic-Entier","alternatenames":"Neuvic,Neuvic-Entier","latitude":"45.72206","longitude":"1.61303","feature_class":"P","feature_code":"PPL","country_code":"FR","cc2":"","admin1_code":"75","admin2_code":"87","admin3_code":"872","admin4_code":"87105","population":"1059","elevation":"","dem":"416","timezone":"Europe/Paris","modification_date":"2016-02-18"},{"geonameid":"2990575","name":"Neuvic","asciiname":"Neuvic","alternatenames":"Neuvic,Neuvic d'Ussel,Neuvic d’Ussel","latitude":"45.38333","longitude":"2.28333","feature_class":"P","feature_code":"PPL","country_code":"FR","cc2":"","admin1_code":"75","admin2_code":"19","admin3_code":"193","admin4_code":"19148","population":"2325","elevation":"","dem":"643","timezone":"Europe/Paris","modification_date":"2016-02-18"},{"geonameid":"2990576","name":"Neuvic","asciiname":"Neuvic","alternatenames":"Neuvic,Neuvic-sur-l'Isle,Neuvic-sur-l’Isle","latitude":"45.10033","longitude":"0.46901","feature_class":"P","feature_code":"PPL","country_code":"FR","cc2":"","admin1_code":"75","admin2_code":"24","admin3_code":"243","admin4_code":"24309","population":"3535","elevation":"","dem":"71","timezone":"Europe/Paris","modification_date":"2016-02-18"},{"geonameid":"2990580","name":"Neuves-Maisons","asciiname":"Neuves-Maisons","alternatenames":"Neuves-Maisons","latitude":"48.62029","longitude":"6.10698","feature_class":"P","feature_code":"PPL","country_code":"FR","cc2":"","admin1_code":"44","admin2_code":"54","admin3_code":"543","admin4_code":"54397","population":"6971","elevation":"","dem":"236","timezone":"Europe/Paris","modification_date":"2016-02-21"},{"geonameid":"2990587","name":"Neuvéglise","asciiname":"Neuveglise","alternatenames":"Neuveglise,Neuvéglise","latitude":"44.92787","longitude":"2.98343","feature_class":"P","feature_code":"PPL","country_code":"FR","cc2":"","admin1_code":"84","admin2_code":"15","admin3_code":"153","admin4_code":"15142","population":"1037","elevation":"","dem":"932","timezone":"Europe/Paris","modification_date":"2016-02-18"},{"geonameid":"2990590","name":"Neuvecelle","asciiname":"Neuvecelle","alternatenames":"","latitude":"46.39502","longitude":"6.61257","feature_class":"P","feature_code":"PPL","country_code":"FR","cc2":"","admin1_code":"84","admin2_code":"74","admin3_code":"744","admin4_code":"74200","population":"2456","elevation":"","dem":"490","timezone":"Europe/Paris","modification_date":"2016-02-18"},{"geonameid":"2990596","name":"Neussargues-Moissac","asciiname":"Neussargues-Moissac","alternatenames":"Neussargues,Neussargues-Moissac","latitude":"45.1326","longitude":"2.97985","feature_class":"P","feature_code":"PPL","country_code":"FR","cc2":"","admin1_code":"84","admin2_code":"15","admin3_code":"153","admin4_code":"15141","population":"1049","elevation":"","dem":"811","timezone":"Europe/Paris","modification_date":"2016-02-18"},{"geonameid":"2990603","name":"Neung-sur-Beuvron","asciiname":"Neung-sur-Beuvron","alternatenames":"Nen-sjur-Bevron,Neung,Neung-sur-Beuvron,bo fu luo ne he pan na en,Нен-сюр-Беврон,伯夫罗讷河畔纳恩","latitude":"47.53486","longitude":"1.80514","feature_class":"P","feature_code":"PPL","country_code":"FR","cc2":"","admin1_code":"24","admin2_code":"41","admin3_code":"413","admin4_code":"41159","population":"1152","elevation":"","dem":"99","timezone":"Europe/Paris","modification_date":"2016-02-18"},{"geonameid":"2990606","name":"Neulliac","asciiname":"Neulliac","alternatenames":"Neulieg,Neulliac","latitude":"48.12836","longitude":"-2.98289","feature_class":"P","feature_code":"PPL","country_code":"FR","cc2":"","admin1_code":"53","admin2_code":"56","admin3_code":"562","admin4_code":"56146","population":"1575","elevation":"","dem":"118","timezone":"Europe/Paris","modification_date":"2016-02-18"},{"geonameid":"2990608","name":"Neulise","asciiname":"Neulise","alternatenames":"Neulise,Neulize","latitude":"45.90279","longitude":"4.18094","feature_class":"P","feature_code":"PPL","country_code":"FR","cc2":"","admin1_code":"84","admin2_code":"42","admin3_code":"422","admin4_code":"42156","population":"1177","elevation":"","dem":"555","timezone":"Europe/Paris","modification_date":"2016-02-18"},{"geonameid":"2990611","name":"Neuilly-sur-Seine","asciiname":"Neuilly-sur-Seine","alternatenames":"Kamuna Njoi-sjur-Sen,N'oj sjur Sen,Neigi-syr-Sen,Neiji pie Senas,Neijī pie Sēnas,Neji na Seni,Neji-sjur-Sen,Neuilly,Neuilly sur Seine,Neuilly-sur-Seine,Njoji-sjur-Sen,Noeyi-suer-Sen,Noviliacum ad Sequanam,Nöyi-sür-Sen,QNL,noeiswileusen,nuii=shuru=senu,nwy-swr-sn,nwyy-swr-syn,nyy-syr-sn,sai na he pan na yi,sai na he pan ne yi,Νεϊγί-συρ-Σεν,Камуна Нёі-сюр-Сен,Нейи-сюр-Сен,Нейї-сюр-Сен,Неји на Сени,Ньой сюр Сен,Нёйи-сюр-Сен,ניי-סיר-סן,نويي-سور-سين,نوی-سور-سن,ヌイイ＝シュル＝セーヌ,塞纳河畔纳伊,塞纳河畔讷伊,뇌이쉬르센","latitude":"48.8846","longitude":"2.26965","feature_class":"P","feature_code":"PPL","country_code":"FR","cc2":"","admin1_code":"11","admin2_code":"92","admin3_code":"922","admin4_code":"92051","population":"61300","elevation":"","dem":"40","timezone":"Europe/Paris","modification_date":"2016-02-18"},{"geonameid":"2990612","name":"Neuilly-sur-Marne","asciiname":"Neuilly-sur-Marne","alternatenames":"Nei-sjur-Marn,Neji sir Marn,Neji-sjur-Marn,Neuilly,Neuilly-sur-Marne,Njoji-sjur-Marn,ma en he pan ne yi,nuii=shuru=marunu,nwy swr mrn,nywyly swr marny,Неи-сюр-Марн,Нейи-сюр-Марн,Неї-сюр-Марн,Неји сир Марн,Нёйи-сюр-Марн,نوی سور مرن,نيويلي سور مارني,ヌイイ＝シュル＝マルヌ,马恩河畔讷伊","latitude":"48.85373","longitude":"2.54903","feature_class":"P","feature_code":"PPL","country_code":"FR","cc2":"","admin1_code":"11","admin2_code":"93","admin3_code":"932","admin4_code":"93050","population":"34465","elevation":"","dem":"38","timezone":"Europe/Paris","modification_date":"2016-02-18"},{"geonameid":"2990614","name":"Neuilly-sous-Clermont","asciiname":"Neuilly-sous-Clermont","alternatenames":"Nei-su-Klermon,Neuilly,Neuilly-sous-Clermont,ne yi su ke lai meng,Неї-су-Клермон,讷伊苏克莱蒙","latitude":"49.34437","longitude":"2.4103","feature_class":"P","feature_code":"PPL","country_code":"FR","cc2":"","admin1_code":"32","admin2_code":"60","admin3_code":"602","admin4_code":"60451","population":"1765","elevation":"","dem":"70","timezone":"Europe/Paris","modification_date":"2016-02-18"},{"geonameid":"2990615","name":"Neuilly-Saint-Front","asciiname":"Neuilly-Saint-Front","alternatenames":"Neuilly,Neuilly-Saint-Front,Neuilly-sur-Ourcq","latitude":"49.17012","longitude":"3.26393","feature_class":"P","feature_code":"PPL","country_code":"FR","cc2":"","admin1_code":"32","admin2_code":"02","admin3_code":"021","admin4_code":"02543","population":"2103","elevation":"","dem":"114","timezone":"Europe/Paris","modification_date":"2016-02-18"},{"geonameid":"2990616","name":"Neuilly-Plaisance","asciiname":"Neuilly-Plaisance","alternatenames":"Nei-Plezans,Neji Plezans,ne yi-pu lai sang si,nuii=purezansu,Неи-Плезанс,Неї-Плезанс,Неји Плезанс,ヌイイ＝プレザンス,讷伊-普莱桑斯","latitude":"48.86342","longitude":"2.506","feature_class":"P","feature_code":"PPL","country_code":"FR","cc2":"","admin1_code":"11","admin2_code":"93","admin3_code":"932","admin4_code":"93049","population":"18725","elevation":"","dem":"59","timezone":"Europe/Paris","modification_date":"2016-02-18"},{"geonameid":"2990620","name":"Neuilly-lès-Dijon","asciiname":"Neuilly-les-Dijon","alternatenames":"Neuilly,Neuilly-les-Dijon,Neuilly-lès-Dijon","latitude":"47.27943","longitude":"5.10645","feature_class":"P","feature_code":"PPL","country_code":"FR","cc2":"","admin1_code":"27","admin2_code":"21","admin3_code":"212","admin4_code":"21452","population":"2204","elevation":"","dem":"217","timezone":"Europe/Paris","modification_date":"2016-02-18"},{"geonameid":"2990621","name":"Neuilly-le-Réal","asciiname":"Neuilly-le-Real","alternatenames":"Neuilly,Neuilly-le-Real,Neuilly-le-Réal,Neuilly-sur-Sanne","latitude":"46.46466","longitude":"3.43161","feature_class":"P","feature_code":"PPL","country_code":"FR","cc2":"","admin1_code":"84","admin2_code":"03","admin3_code":"032","admin4_code":"03197","population":"1329","elevation":"","dem":"247","timezone":"Europe/Paris","modification_date":"2016-02-18"},{"geonameid":"2990628","name":"Neuilly-en-Thelle","asciiname":"Neuilly-en-Thelle","alternatenames":"Neuilly,Neuilly-en-Thelle","latitude":"49.22445","longitude":"2.28525","feature_class":"P","feature_code":"PPL","country_code":"FR","cc2":"","admin1_code":"32","admin2_code":"60","admin3_code":"604","admin4_code":"60450","population":"3194","elevation":"","dem":"124","timezone":"Europe/Paris","modification_date":"2016-02-18"},{"geonameid":"2990637","name":"Neuillé-Pont-Pierre","asciiname":"Neuille-Pont-Pierre","alternatenames":"Neuille,Neuille-Pont-Pierre,Neuillé,Neuillé-Pont-Pierre","latitude":"47.5484","longitude":"0.54962","feature_class":"P","feature_code":"PPL","country_code":"FR","cc2":"","admin1_code":"24","admin2_code":"37","admin3_code":"372","admin4_code":"37167","population":"1838","elevation":"","dem":"118","timezone":"Europe/Paris","modification_date":"2016-02-18"},{"geonameid":"2990651","name":"Neufmoutiers-en-Brie","asciiname":"Neufmoutiers-en-Brie","alternatenames":"Nefmut'e-an-Bri,Neufmoutiers,Neufmoutiers-en-Brie,Нефмутье-ан-Бри,Нефмутьє-ан-Брі","latitude":"48.76882","longitude":"2.83156","feature_class":"P","feature_code":"PPL","country_code":"FR","cc2":"","admin1_code":"11","admin2_code":"77","admin3_code":"773","admin4_code":"77336","population":"1033","elevation":"","dem":"117","timezone":"Europe/Paris","modification_date":"2016-02-18"},{"geonameid":"2990662","name":"Neufmanil","asciiname":"Neufmanil","alternatenames":"Nefmanij,Neufmanil,Njomanil',ne fu ma ni lei,Нефманій,Нёманиль,讷夫马尼勒","latitude":"49.81096","longitude":"4.79673","feature_class":"P","feature_code":"PPL","country_code":"FR","cc2":"","admin1_code":"44","admin2_code":"08","admin3_code":"081","admin4_code":"08316","population":"1202","elevation":"","dem":"178","timezone":"Europe/Paris","modification_date":"2016-02-18"},{"geonameid":"2990667","name":"Neufgrange","asciiname":"Neufgrange","alternatenames":"Neufgrange","latitude":"49.07602","longitude":"7.05806","feature_class":"P","feature_code":"PPL","country_code":"FR","cc2":"","admin1_code":"44","admin2_code":"57","admin3_code":"576","admin4_code":"57499","population":"1328","elevation":"","dem":"225","timezone":"Europe/Paris","modification_date":"2016-02-21"},{"geonameid":"2990676","name":"Neufchef","asciiname":"Neufchef","alternatenames":"Nefshef,Neufchef,Neunhauser,Neunhaüser,na fu xie,nfshf,Нефшеф,نفشف,纳夫谢","latitude":"49.31514","longitude":"6.02341","feature_class":"P","feature_code":"PPL","country_code":"FR","cc2":"","admin1_code":"44","admin2_code":"57","admin3_code":"578","admin4_code":"57498","population":"2557","elevation":"","dem":"313","timezone":"Europe/Paris","modification_date":"2016-02-21"},{"geonameid":"2990678","name":"Neufchâtel-Hardelot","asciiname":"Neufchatel-Hardelot","alternatenames":"Nefshatel'-Ardelo,Neufchatel,Neufchatel-Hardelot,Neufchâtel,Neufchâtel-Hardelot,ne sha tai lei a er dai luo,nywftshatyl hardylwt,Нефшатель-Ардело,نيوفتشاتيل هارديلوت,讷沙泰勒阿尔代洛","latitude":"50.62018","longitude":"1.64223","feature_class":"P","feature_code":"PPL","country_code":"FR","cc2":"","admin1_code":"32","admin2_code":"62","admin3_code":"623","admin4_code":"62604","population":"3693","elevation":"","dem":"49","timezone":"Europe/Paris","modification_date":"2016-02-18"},{"geonameid":"2990680","name":"Neufchâtel-en-Bray","asciiname":"Neufchatel-en-Bray","alternatenames":"Gorad Njoshatehl'-an-Breh,Nefshatel'-an-Bre,Neufchatel,Neufchatel-en-Bray,Neufchâtel,Neufchâtel-en-Bray,Njoshatel'-an-Bre,Горад Нёшатэль-ан-Брэ,Нефшатель-ан-Бре,Нёшатель-ан-Бре","latitude":"49.73315","longitude":"1.43956","feature_class":"P","feature_code":"PPL","country_code":"FR","cc2":"","admin1_code":"28","admin2_code":"76","admin3_code":"761","admin4_code":"76462","population":"5416","elevation":"","dem":"88","timezone":"Europe/Paris","modification_date":"2016-02-18"},{"geonameid":"2990682","name":"Neufchâteau","asciiname":"Neufchateau","alternatenames":"","latitude":"48.35","longitude":"5.7","feature_class":"P","feature_code":"PPLA3","country_code":"FR","cc2":"","admin1_code":"44","admin2_code":"88","admin3_code":"882","admin4_code":"88321","population":"8047","elevation":"","dem":"279","timezone":"Europe/Paris","modification_date":"2016-02-21"},{"geonameid":"2990683","name":"Neuf-Brisach","asciiname":"Neuf-Brisach","alternatenames":"Brisacum Novum,Nef-Brizak,Neu-Breisach,Neuf-Brisach,Njof-Brizakh,na bu li sa ke,nufu=burizakku,nywf bryzakh,nywf-brysash,Неф-Бризак,Нёф-Бризах,نيوف-بريساش,نیوف بریزاخ,ヌフ＝ブリザック,纳布里萨克","latitude":"48.01783","longitude":"7.52795","feature_class":"P","feature_code":"PPL","country_code":"FR","cc2":"","admin1_code":"44","admin2_code":"68","admin3_code":"682","admin4_code":"68231","population":"2249","elevation":"","dem":"192","timezone":"Europe/Paris","modification_date":"2016-02-18"},{"geonameid":"2990685","name":"Neuf-Berquin","asciiname":"Neuf-Berquin","alternatenames":"Neuf-Berquin","latitude":"50.66065","longitude":"2.67213","feature_class":"P","feature_code":"PPL","country_code":"FR","cc2":"","admin1_code":"32","admin2_code":"59","admin3_code":"594","admin4_code":"59423","population":"1237","elevation":"","dem":"16","timezone":"Europe/Paris","modification_date":"2016-02-18"},{"geonameid":"2990727","name":"Nesmy","asciiname":"Nesmy","alternatenames":"Nemi,Nesmy,nei si mi,Немі,内斯米","latitude":"46.59078","longitude":"-1.40074","feature_class":"P","feature_code":"PPL","country_code":"FR","cc2":"","admin1_code":"52","admin2_code":"85","admin3_code":"852","admin4_code":"85160","population":"2131","elevation":"","dem":"63","timezone":"Europe/Paris","modification_date":"2016-02-18"},{"geonameid":"2990729","name":"Nesles-la-Vallée","asciiname":"Nesles-la-Vallee","alternatenames":"Nel'-la-Valle,Nesles,Nesles-la-Vallee,Nesles-la-Vallée,nei si lei la wa lai e,Нель-ла-Валле,内斯勒拉瓦莱厄","latitude":"49.13202","longitude":"2.17099","feature_class":"P","feature_code":"PPL","country_code":"FR","cc2":"","admin1_code":"11","admin2_code":"95","admin3_code":"953","admin4_code":"95446","population":"1947","elevation":"","dem":"50","timezone":"Europe/Paris","modification_date":"2016-02-18"},{"geonameid":"2990730","name":"Nesles-la-Montagne","asciiname":"Nesles-la-Montagne","alternatenames":"Nesles,Nesles-la-Montagne","latitude":"49.01964","longitude":"3.42607","feature_class":"P","feature_code":"PPL","country_code":"FR","cc2":"","admin1_code":"32","admin2_code":"02","admin3_code":"021","admin4_code":"02540","population":"1085","elevation":"","dem":"132","timezone":"Europe/Paris","modification_date":"2016-02-18"},{"geonameid":"2990733","name":"Nesles","asciiname":"Nesles","alternatenames":"Nesles","latitude":"50.62588","longitude":"1.65641","feature_class":"P","feature_code":"PPL","country_code":"FR","cc2":"","admin1_code":"32","admin2_code":"62","admin3_code":"623","admin4_code":"62603","population":"1089","elevation":"","dem":"42","timezone":"Europe/Paris","modification_date":"2016-02-18"},{"geonameid":"2990741","name":"Nesle","asciiname":"Nesle","alternatenames":"Nel',Nele,Nesle,Nèle,nei lei,Нель,内勒","latitude":"49.75888","longitude":"2.91133","feature_class":"P","feature_code":"PPL","country_code":"FR","cc2":"","admin1_code":"32","admin2_code":"80","admin3_code":"804","admin4_code":"80585","population":"2551","elevation":"","dem":"78","timezone":"Europe/Paris","modification_date":"2016-02-18"},{"geonameid":"2990751","name":"Nersac","asciiname":"Nersac","alternatenames":"Nersac,Nersak,nei er sa ke,Нерсак,内尔萨克","latitude":"45.63333","longitude":"0.05","feature_class":"P","feature_code":"PPL","country_code":"FR","cc2":"","admin1_code":"75","admin2_code":"16","admin3_code":"161","admin4_code":"16244","population":"2464","elevation":"","dem":"32","timezone":"Europe/Paris","modification_date":"2016-02-18"},{"geonameid":"2990758","name":"Nérondes","asciiname":"Nerondes","alternatenames":"","latitude":"46.99758","longitude":"2.81834","feature_class":"P","feature_code":"PPL","country_code":"FR","cc2":"","admin1_code":"24","admin2_code":"18","admin3_code":"182","admin4_code":"18160","population":"1615","elevation":"","dem":"191","timezone":"Europe/Paris","modification_date":"2016-02-18"},{"geonameid":"2990767","name":"Néris-les-Bains","asciiname":"Neris-les-Bains","alternatenames":"Neri-le-Ben,Neriomagus,Neris,Nerís,Néris,nei li lai ban,Нери-ле-Бен,Нері-ле-Бен,内里莱班","latitude":"46.28688","longitude":"2.65869","feature_class":"P","feature_code":"PPL","country_code":"FR","cc2":"","admin1_code":"84","admin2_code":"03","admin3_code":"031","admin4_code":"03195","population":"2818","elevation":"","dem":"359","timezone":"Europe/Paris","modification_date":"2016-02-18"},{"geonameid":"2990777","name":"Nercillac","asciiname":"Nercillac","alternatenames":"Nercillac,Nersijak,nei er xi la ke,Нерсийак,Нерсіяк,内尔西拉克","latitude":"45.71667","longitude":"-0.25","feature_class":"P","feature_code":"PPL","country_code":"FR","cc2":"","admin1_code":"75","admin2_code":"16","admin3_code":"162","admin4_code":"16243","population":"1027","elevation":"","dem":"13","timezone":"Europe/Paris","modification_date":"2016-02-18"},{"geonameid":"2990780","name":"Nérac","asciiname":"Nerac","alternatenames":"Nerac,Nerak,Nérac,ne rak,nei la ke,nerakku,Нерак,เนรัก,ネラック,内拉克","latitude":"44.13333","longitude":"0.35","feature_class":"P","feature_code":"PPLA3","country_code":"FR","cc2":"","admin1_code":"75","admin2_code":"47","admin3_code":"474","admin4_code":"47195","population":"7688","elevation":"","dem":"66","timezone":"Europe/Paris","modification_date":"2016-02-18"},{"geonameid":"2990787","name":"Néoules","asciiname":"Neoules","alternatenames":"Neoules,Néoules","latitude":"43.31034","longitude":"6.01298","feature_class":"P","feature_code":"PPL","country_code":"FR","cc2":"","admin1_code":"93","admin2_code":"83","admin3_code":"833","admin4_code":"83088","population":"1753","elevation":"","dem":"336","timezone":"Europe/Paris","modification_date":"2016-02-18"},{"geonameid":"2990793","name":"Nemours","asciiname":"Nemours","alternatenames":"Gorad Nemur,Nemours,Nemur,nei mu er,nmwr,numuru,Горад Немур,Немур,نمور,ヌムール,内穆尔","latitude":"48.27511","longitude":"2.69078","feature_class":"P","feature_code":"PPL","country_code":"FR","cc2":"","admin1_code":"11","admin2_code":"77","admin3_code":"774","admin4_code":"77333","population":"13933","elevation":"","dem":"57","timezone":"Europe/Paris","modification_date":"2016-02-18"},{"geonameid":"2990809","name":"Nègrepelisse","asciiname":"Negrepelisse","alternatenames":"Negrapelissa,Negrepeliss,Negrepelisse,Nègrepelisse,nei ge lei pei li se,Негрепелісс,内格雷佩利瑟","latitude":"44.07436","longitude":"1.51978","feature_class":"P","feature_code":"PPL","country_code":"FR","cc2":"","admin1_code":"76","admin2_code":"82","admin3_code":"822","admin4_code":"82134","population":"3714","elevation":"","dem":"104","timezone":"Europe/Paris","modification_date":"2016-02-18"},{"geonameid":"2990831","name":"Nébian","asciiname":"Nebian","alternatenames":"Nebian,Nébian","latitude":"43.60657","longitude":"3.43133","feature_class":"P","feature_code":"PPL","country_code":"FR","cc2":"","admin1_code":"76","admin2_code":"34","admin3_code":"342","admin4_code":"34180","population":"1160","elevation":"","dem":"125","timezone":"Europe/Paris","modification_date":"2016-02-18"},{"geonameid":"2990835","name":"Neauphle-le-Château","asciiname":"Neauphle-le-Chateau","alternatenames":"Neauphle,Neauphle-la-Montagne,Neauphle-le-Chateau,Neauphle-le-Château,Nofl'-le-Shato,nwfl lwshatw,Нофль-ле-Шато,نوفل لوشاتو,نوفل‌لوشاتو","latitude":"48.81418","longitude":"1.90567","feature_class":"P","feature_code":"PPL","country_code":"FR","cc2":"","admin1_code":"11","admin2_code":"78","admin3_code":"782","admin4_code":"78442","population":"2933","elevation":"","dem":"170","timezone":"Europe/Paris","modification_date":"2016-02-18"},{"geonameid":"2990839","name":"Neaufles-Saint-Martin","asciiname":"Neaufles-Saint-Martin","alternatenames":"Neaufles,Neaufles-Saint-Martin","latitude":"49.2765","longitude":"1.72794","feature_class":"P","feature_code":"PPL","country_code":"FR","cc2":"","admin1_code":"28","admin2_code":"27","admin3_code":"271","admin4_code":"27426","population":"1096","elevation":"","dem":"69","timezone":"Europe/Paris","modification_date":"2016-02-18"},{"geonameid":"2990848","name":"Nazelles-Négron","asciiname":"Nazelles-Negron","alternatenames":"","latitude":"47.43333","longitude":"0.95","feature_class":"P","feature_code":"PPL","country_code":"FR","cc2":"","admin1_code":"24","admin2_code":"37","admin3_code":"372","admin4_code":"37163","population":"3831","elevation":"","dem":"109","timezone":"Europe/Paris","modification_date":"2016-02-18"},{"geonameid":"2990852","name":"Nay","asciiname":"Nay","alternatenames":"Nay","latitude":"43.18333","longitude":"-0.26667","feature_class":"P","feature_code":"PPL","country_code":"FR","cc2":"","admin1_code":"75","admin2_code":"64","admin3_code":"643","admin4_code":"64417","population":"3530","elevation":"","dem":"315","timezone":"Europe/Paris","modification_date":"2016-02-18"},{"geonameid":"2990860","name":"Naves","asciiname":"Naves","alternatenames":"","latitude":"45.31395","longitude":"1.76708","feature_class":"P","feature_code":"PPL","country_code":"FR","cc2":"","admin1_code":"75","admin2_code":"19","admin3_code":"192","admin4_code":"19146","population":"2441","elevation":"","dem":"412","timezone":"Europe/Paris","modification_date":"2016-02-18"},{"geonameid":"2990865","name":"Navenne","asciiname":"Navenne","alternatenames":"Navenne","latitude":"47.60873","longitude":"6.16176","feature_class":"P","feature_code":"PPL","country_code":"FR","cc2":"","admin1_code":"27","admin2_code":"70","admin3_code":"702","admin4_code":"70378","population":"1796","elevation":"","dem":"245","timezone":"Europe/Paris","modification_date":"2016-02-18"},{"geonameid":"2990866","name":"Naveil","asciiname":"Naveil","alternatenames":"Naveil,Navej,na wei,Навей,纳韦","latitude":"47.79576","longitude":"1.03222","feature_class":"P","feature_code":"PPL","country_code":"FR","cc2":"","admin1_code":"24","admin2_code":"41","admin3_code":"412","admin4_code":"41158","population":"1914","elevation":"","dem":"79","timezone":"Europe/Paris","modification_date":"2016-02-18"},{"geonameid":"2990870","name":"Navarrenx","asciiname":"Navarrenx","alternatenames":"Nabarrengose,Navarrencs,Navarrenks,Navarrens,Navarrenx,na wa er lang,Наварренкс,Наварренс,纳瓦尔朗","latitude":"43.32135","longitude":"-0.75927","feature_class":"P","feature_code":"PPL","country_code":"FR","cc2":"","admin1_code":"75","admin2_code":"64","admin3_code":"642","admin4_code":"64416","population":"1275","elevation":"","dem":"129","timezone":"Europe/Paris","modification_date":"2016-02-18"},{"geonameid":"2990872","name":"Navailles-Angos","asciiname":"Navailles-Angos","alternatenames":"Navailles,Navailles-Angos,Navaj-Angos,Navalhas e Angos,Navalhas e Angòs,na wei lai ang ge,Навай-Ангос,纳韦莱昂戈","latitude":"43.41667","longitude":"-0.33333","feature_class":"P","feature_code":"PPL","country_code":"FR","cc2":"","admin1_code":"75","admin2_code":"64","admin3_code":"643","admin4_code":"64415","population":"1276","elevation":"","dem":"227","timezone":"Europe/Paris","modification_date":"2016-02-18"},{"geonameid":"2990889","name":"Naucelles","asciiname":"Naucelles","alternatenames":"Naucelles","latitude":"44.95782","longitude":"2.41889","feature_class":"P","feature_code":"PPL","country_code":"FR","cc2":"","admin1_code":"84","admin2_code":"15","admin3_code":"151","admin4_code":"15140","population":"1815","elevation":"","dem":"653","timezone":"Europe/Paris","modification_date":"2016-02-18"},{"geonameid":"2990890","name":"Naucelle","asciiname":"Naucelle","alternatenames":"Naucela,Naucelle,Naucèla,Nosel',nuo sai er,Носель,诺塞尔","latitude":"44.1981","longitude":"2.3431","feature_class":"P","feature_code":"PPL","country_code":"FR","cc2":"","admin1_code":"76","admin2_code":"12","admin3_code":"122","admin4_code":"12169","population":"2138","elevation":"","dem":"500","timezone":"Europe/Paris","modification_date":"2016-02-18"},{"geonameid":"2990902","name":"Nassandres","asciiname":"Nassandres","alternatenames":"Nassandr,Nassandres,na sang de lei,Нассандр,纳桑德雷","latitude":"49.12632","longitude":"0.73597","feature_class":"P","feature_code":"PPL","country_code":"FR","cc2":"","admin1_code":"28","admin2_code":"27","admin3_code":"272","admin4_code":"27425","population":"1468","elevation":"","dem":"73","timezone":"Europe/Paris","modification_date":"2016-02-18"},{"geonameid":"2990908","name":"Narrosse","asciiname":"Narrosse","alternatenames":"Narrosse","latitude":"43.70381","longitude":"-1.00742","feature_class":"P","feature_code":"PPL","country_code":"FR","cc2":"","admin1_code":"75","admin2_code":"40","admin3_code":"401","admin4_code":"40202","population":"2781","elevation":"","dem":"14","timezone":"Europe/Paris","modification_date":"2016-02-18"},{"geonameid":"2990912","name":"Nargis","asciiname":"Nargis","alternatenames":"Nargis","latitude":"48.11106","longitude":"2.75597","feature_class":"P","feature_code":"PPL","country_code":"FR","cc2":"","admin1_code":"24","admin2_code":"45","admin3_code":"451","admin4_code":"45222","population":"1176","elevation":"","dem":"84","timezone":"Europe/Paris","modification_date":"2016-02-18"},{"geonameid":"2990919","name":"Narbonne","asciiname":"Narbonne","alternatenames":"Gorad Narbona,Narbo,Narbon,Narbona,Narbonas,Narbonn,Narbonna,Narbonne,arbwnt,na bo ne,naleubon,narubon'nu,nrbwn,Горад Нарбона,Нарбон,Нарбонн,Нарбонна,נרבון,أربونة,نربون,ናርቦን፣ ፈረንሳይ,ナルボンヌ,纳博讷,나르본","latitude":"43.18333","longitude":"3","feature_class":"P","feature_code":"PPLA3","country_code":"FR","cc2":"","admin1_code":"76","admin2_code":"11","admin3_code":"113","admin4_code":"11262","population":"50776","elevation":"","dem":"16","timezone":"Europe/Paris","modification_date":"2016-02-18"},{"geonameid":"2990926","name":"Naours","asciiname":"Naours","alternatenames":"Naours","latitude":"50.03682","longitude":"2.27691","feature_class":"P","feature_code":"PPL","country_code":"FR","cc2":"","admin1_code":"32","admin2_code":"80","admin3_code":"802","admin4_code":"80584","population":"1139","elevation":"","dem":"70","timezone":"Europe/Paris","modification_date":"2016-02-18"},{"geonameid":"2990932","name":"Nantua","asciiname":"Nantua","alternatenames":"Nantjua,Nantua,Nantuat,nan di a,nangtwia,nante~yua,nantwa,Нантюа,Նանտուա,نانتوآ,نانتوا,ナンテュア,南蒂阿,낭튀아","latitude":"46.15","longitude":"5.61667","feature_class":"P","feature_code":"PPLA3","country_code":"FR","cc2":"","admin1_code":"84","admin2_code":"01","admin3_code":"014","admin4_code":"01269","population":"4269","elevation":"","dem":"653","timezone":"Europe/Paris","modification_date":"2016-02-18"},{"geonameid":"2990949","name":"Nantiat","asciiname":"Nantiat","alternatenames":"Nantiat","latitude":"46.0091","longitude":"1.17308","feature_class":"P","feature_code":"PPL","country_code":"FR","cc2":"","admin1_code":"75","admin2_code":"87","admin3_code":"871","admin4_code":"87103","population":"1695","elevation":"","dem":"339","timezone":"Europe/Paris","modification_date":"2016-02-18"},{"geonameid":"2990957","name":"Nanteuil-lès-Meaux","asciiname":"Nanteuil-les-Meaux","alternatenames":"Nanteuil,Nanteuil-les-Meaux,Nanteuil-lès-Meaux","latitude":"48.9294","longitude":"2.89594","feature_class":"P","feature_code":"PPL","country_code":"FR","cc2":"","admin1_code":"11","admin2_code":"77","admin3_code":"771","admin4_code":"77330","population":"5499","elevation":"","dem":"93","timezone":"Europe/Paris","modification_date":"2016-02-18"},{"geonameid":"2990958","name":"Nanteuil-le-Haudouin","asciiname":"Nanteuil-le-Haudouin","alternatenames":"Nantej-le-Oduen,Nanteuil,Nanteuil-le-Haudouin,Nantjoj-le-Oduehn,nan te yi lai ao du an,Нантей-ле-Одуен,Нантёй-ле-Одуэн,南特伊莱奥杜安","latitude":"49.14082","longitude":"2.81142","feature_class":"P","feature_code":"PPL","country_code":"FR","cc2":"","admin1_code":"32","admin2_code":"60","admin3_code":"604","admin4_code":"60446","population":"3359","elevation":"","dem":"92","timezone":"Europe/Paris","modification_date":"2016-02-18"},{"geonameid":"2990961","name":"Nanteuil-en-Vallée","asciiname":"Nanteuil-en-Vallee","alternatenames":"Nantej-an-Valle,Nanteuil,Nanteuil-en-Vallee,Nanteuil-en-Vallée,Nantjoj-an-Valle,wa lai ai de qu nan te yi,Нантей-ан-Валле,Нантёй-ан-Валле,瓦莱埃地区南特伊","latitude":"46.00089","longitude":"0.32206","feature_class":"P","feature_code":"PPL","country_code":"FR","cc2":"","admin1_code":"75","admin2_code":"16","admin3_code":"163","admin4_code":"16242","population":"1427","elevation":"","dem":"109","timezone":"Europe/Paris","modification_date":"2016-02-18"},{"geonameid":"2990965","name":"Nanteuil","asciiname":"Nanteuil","alternatenames":"Nanteuil","latitude":"46.41172","longitude":"-0.17461","feature_class":"P","feature_code":"PPL","country_code":"FR","cc2":"","admin1_code":"75","admin2_code":"79","admin3_code":"792","admin4_code":"79189","population":"1604","elevation":"","dem":"77","timezone":"Europe/Paris","modification_date":"2016-02-18"},{"geonameid":"2990969","name":"Nantes","asciiname":"Nantes","alternatenames":"NTE,Nant,Nante,Nantes,Nanto,Naoned,Portus Namnetus,nan te,nant,nanta,nanto,Нант,נאנט,نانت,नांत,ナント,南特","latitude":"47.21725","longitude":"-1.55336","feature_class":"P","feature_code":"PPLA","country_code":"FR","cc2":"","admin1_code":"52","admin2_code":"44","admin3_code":"442","admin4_code":"44109","population":"277269","elevation":"","dem":"19","timezone":"Europe/Paris","modification_date":"2016-02-18"},{"geonameid":"2990970","name":"Nanterre","asciiname":"Nanterre","alternatenames":"Gorad Nantehr,Nanter,Nanteras,Nanterr,Nanterre,Nemetodurum,nan tai er,nangteleu,nanteru,nantr,nantyr,Горад Нантэр,Нантер,Нантерр,نانتر,نانتير,نانتیرے,ナンテール,楠泰尔,낭테르","latitude":"48.89198","longitude":"2.20675","feature_class":"P","feature_code":"PPLA2","country_code":"FR","cc2":"","admin1_code":"11","admin2_code":"92","admin3_code":"922","admin4_code":"92050","population":"86719","elevation":"","dem":"50","timezone":"Europe/Paris","modification_date":"2016-02-18"},{"geonameid":"2990987","name":"Nans-les-Pins","asciiname":"Nans-les-Pins","alternatenames":"Nan-le-Pen,Nanc,Nans,Nans-le-Pen,Nans-les-Pins,Nanç,nan lai pan,Нан-ле-Пен,Нанс-ле-Пен,南莱潘","latitude":"43.37035","longitude":"5.7834","feature_class":"P","feature_code":"PPL","country_code":"FR","cc2":"","admin1_code":"93","admin2_code":"83","admin3_code":"833","admin4_code":"83087","population":"3409","elevation":"","dem":"398","timezone":"Europe/Paris","modification_date":"2016-02-18"},{"geonameid":"2990992","name":"Nangis","asciiname":"Nangis","alternatenames":"Nangis","latitude":"48.55535","longitude":"3.01306","feature_class":"P","feature_code":"PPL","country_code":"FR","cc2":"","admin1_code":"11","admin2_code":"77","admin3_code":"773","admin4_code":"77327","population":"8271","elevation":"","dem":"129","timezone":"Europe/Paris","modification_date":"2016-02-18"},{"geonameid":"2990995","name":"Nandy","asciiname":"Nandy","alternatenames":"Nandy","latitude":"48.58301","longitude":"2.56292","feature_class":"P","feature_code":"PPL","country_code":"FR","cc2":"","admin1_code":"11","admin2_code":"77","admin3_code":"772","admin4_code":"77326","population":"6741","elevation":"","dem":"82","timezone":"Europe/Paris","modification_date":"2016-02-18"},{"geonameid":"2990999","name":"Nancy","asciiname":"Nancy","alternatenames":"ETZ,Nanceium,Nancio,Nancy,Nansi,Nanzeg,nan xi,nanshi,nansi,nansy,Нанси,נאנסי,نانسي,نانسی,नांसी,ナンシー,南希","latitude":"48.68439","longitude":"6.18496","feature_class":"P","feature_code":"PPLA2","country_code":"FR","cc2":"","admin1_code":"44","admin2_code":"54","admin3_code":"543","admin4_code":"54395","population":"105334","elevation":"","dem":"212","timezone":"Europe/Paris","modification_date":"2016-02-21"},{"geonameid":"2991004","name":"Nancray","asciiname":"Nancray","alternatenames":"Nancray","latitude":"47.24536","longitude":"6.18283","feature_class":"P","feature_code":"PPL","country_code":"FR","cc2":"","admin1_code":"27","admin2_code":"25","admin3_code":"251","admin4_code":"25418","population":"1066","elevation":"","dem":"410","timezone":"Europe/Paris","modification_date":"2016-02-18"},{"geonameid":"2991027","name":"Nalliers","asciiname":"Nalliers","alternatenames":"Nalliers","latitude":"46.47071","longitude":"-1.02774","feature_class":"P","feature_code":"PPL","country_code":"FR","cc2":"","admin1_code":"52","admin2_code":"85","admin3_code":"851","admin4_code":"85159","population":"2012","elevation":"","dem":"7","timezone":"Europe/Paris","modification_date":"2016-02-18"},{"geonameid":"2991030","name":"Naizin","asciiname":"Naizin","alternatenames":"Naizin,Neizin,Nezen,nai zan,Незен,奈赞","latitude":"47.98993","longitude":"-2.83287","feature_class":"P","feature_code":"PPL","country_code":"FR","cc2":"","admin1_code":"53","admin2_code":"56","admin3_code":"562","admin4_code":"56144","population":"1625","elevation":"","dem":"122","timezone":"Europe/Paris","modification_date":"2016-02-18"},{"geonameid":"2991036","name":"Naintré","asciiname":"Naintre","alternatenames":"Naintre,Naintré,Nentre,nan te lei,Нентре,南特勒","latitude":"46.76354","longitude":"0.48683","feature_class":"P","feature_code":"PPL","country_code":"FR","cc2":"","admin1_code":"75","admin2_code":"86","admin3_code":"861","admin4_code":"86174","population":"5644","elevation":"","dem":"61","timezone":"Europe/Paris","modification_date":"2016-02-18"},{"geonameid":"2991040","name":"Nailloux","asciiname":"Nailloux","alternatenames":"Nailloux,Naju,Nalhos,Nalhós,nai lu,Найу,Наю,奈卢","latitude":"43.35718","longitude":"1.62302","feature_class":"P","feature_code":"PPL","country_code":"FR","cc2":"","admin1_code":"76","admin2_code":"31","admin3_code":"313","admin4_code":"31396","population":"1385","elevation":"","dem":"280","timezone":"Europe/Paris","modification_date":"2016-02-18"},{"geonameid":"2991046","name":"Nages-et-Solorgues","asciiname":"Nages-et-Solorgues","alternatenames":"Nages,Nages-et-Solorgues,Najas e Solorgues,Najas e Solòrgues,Nazh-e-Solorg,na re he suo luo er gai,Наж-е-Солорг,纳热和索洛尔盖","latitude":"43.7901","longitude":"4.23027","feature_class":"P","feature_code":"PPL","country_code":"FR","cc2":"","admin1_code":"76","admin2_code":"30","admin3_code":"302","admin4_code":"30186","population":"1413","elevation":"","dem":"73","timezone":"Europe/Paris","modification_date":"2016-02-18"},{"geonameid":"2991077","name":"Muzillac","asciiname":"Muzillac","alternatenames":"Mjuzijak,Musiliacum,Muzilheg,Muzillac,mi qi la ke,Мюзияк,Мюзіяк,米齐拉克","latitude":"47.55451","longitude":"-2.48041","feature_class":"P","feature_code":"PPL","country_code":"FR","cc2":"","admin1_code":"53","admin2_code":"56","admin3_code":"563","admin4_code":"56143","population":"4308","elevation":"","dem":"27","timezone":"Europe/Paris","modification_date":"2016-02-18"},{"geonameid":"2991086","name":"Mutzig","asciiname":"Mutzig","alternatenames":"Mjucig,Muetzig,Mutzig,Mützig,mi te qi,mutsu~ihi,Мюциг,ムツィヒ,米特齐","latitude":"48.53974","longitude":"7.45594","feature_class":"P","feature_code":"PPL","country_code":"FR","cc2":"","admin1_code":"44","admin2_code":"67","admin3_code":"673","admin4_code":"67313","population":"6329","elevation":"","dem":"195","timezone":"Europe/Paris","modification_date":"2016-02-18"},{"geonameid":"2991088","name":"Muttersholtz","asciiname":"Muttersholtz","alternatenames":"Mieterschulz,Mjuttersol'c,Muettersholz,Mutherholz,Muttersholtz,Muttersholz,Müttersholz,mi tai er suo er te,myutterusorutsu,Мюттерсольц,ミュッテルソルツ,米泰尔索尔特","latitude":"48.26639","longitude":"7.53197","feature_class":"P","feature_code":"PPL","country_code":"FR","cc2":"","admin1_code":"44","admin2_code":"67","admin3_code":"675","admin4_code":"67311","population":"1832","elevation":"","dem":"166","timezone":"Europe/Paris","modification_date":"2016-02-18"},{"geonameid":"2991095","name":"Mussy-sur-Seine","asciiname":"Mussy-sur-Seine","alternatenames":"Mjussi-sjur-Sen,Mussy,Mussy-sur-Seine,sai na he pan mi xi,Мюсси-сюр-Сен,Мюссі-сюр-Сен,塞纳河畔米西","latitude":"47.97791","longitude":"4.49743","feature_class":"P","feature_code":"PPL","country_code":"FR","cc2":"","admin1_code":"44","admin2_code":"10","admin3_code":"103","admin4_code":"10261","population":"1308","elevation":"","dem":"191","timezone":"Europe/Paris","modification_date":"2016-02-18"},{"geonameid":"2991101","name":"Mussig","asciiname":"Mussig","alternatenames":"","latitude":"48.22993","longitude":"7.51963","feature_class":"P","feature_code":"PPL","country_code":"FR","cc2":"","admin1_code":"44","admin2_code":"67","admin3_code":"675","admin4_code":"67310","population":"1150","elevation":"","dem":"172","timezone":"Europe/Paris","modification_date":"2016-02-18"},{"geonameid":"2991102","name":"Mussidan","asciiname":"Mussidan","alternatenames":"Mjusidan,Mjussidan,Moissida,Mussidan,mi xi dang,Мюсидан,Мюссидан,Мюссідан,米西当","latitude":"45.03542","longitude":"0.3629","feature_class":"P","feature_code":"PPL","country_code":"FR","cc2":"","admin1_code":"75","admin2_code":"24","admin3_code":"243","admin4_code":"24299","population":"2993","elevation":"","dem":"60","timezone":"Europe/Paris","modification_date":"2016-02-18"},{"geonameid":"2991115","name":"Mus","asciiname":"Mus","alternatenames":"Mus","latitude":"43.73919","longitude":"4.20257","feature_class":"P","feature_code":"PPL","country_code":"FR","cc2":"","admin1_code":"76","admin2_code":"30","admin3_code":"302","admin4_code":"30185","population":"1150","elevation":"","dem":"52","timezone":"Europe/Paris","modification_date":"2016-02-18"},{"geonameid":"2991118","name":"Murviel-lès-Montpellier","asciiname":"Murviel-les-Montpellier","alternatenames":"Mervielh,Mervielh de Montpelhier,Mervièlh,Mervièlh de Montpelhièr,Mjurv'el'-le-Monpel'e,Mjurvel'-le-Monpel'e,Murviel,Murviel-les-Montpellier,Murviel-lès-Montpellier,mi er wei ye lai meng bi li ai,Мюрвьель-ле-Монпелье,Мюрвєль-ле-Монпельє,米尔维耶莱蒙彼利埃","latitude":"43.60528","longitude":"3.7375","feature_class":"P","feature_code":"PPL","country_code":"FR","cc2":"","admin1_code":"76","admin2_code":"34","admin3_code":"343","admin4_code":"34179","population":"1352","elevation":"","dem":"131","timezone":"Europe/Paris","modification_date":"2016-02-18"},{"geonameid":"2991128","name":"Mûrs-Erigné","asciiname":"Murs-Erigne","alternatenames":"Mjur-Erin'e,Murs,Mûrs,mi er ai li nie,Мюр-Ериньє,米尔埃里涅","latitude":"47.4","longitude":"-0.55","feature_class":"P","feature_code":"PPL","country_code":"FR","cc2":"","admin1_code":"52","admin2_code":"49","admin3_code":"491","admin4_code":"49223","population":"5384","elevation":"","dem":"22","timezone":"Europe/Paris","modification_date":"2016-02-18"},{"geonameid":"2991134","name":"Muron","asciiname":"Muron","alternatenames":"Muron","latitude":"46.03444","longitude":"-0.82867","feature_class":"P","feature_code":"PPL","country_code":"FR","cc2":"","admin1_code":"75","admin2_code":"17","admin3_code":"172","admin4_code":"17253","population":"1086","elevation":"","dem":"12","timezone":"Europe/Paris","modification_date":"2016-02-18"},{"geonameid":"2991153","name":"Muret","asciiname":"Muret","alternatenames":"Barrancu,Lapangan Terbang LHerm,Mire,Mjure,Muret,Mureth,Muriel,Murèth,mi lei,mwrh,myure,Мире,Мюре,موره,ミュレ,米雷","latitude":"43.46667","longitude":"1.35","feature_class":"P","feature_code":"PPLA3","country_code":"FR","cc2":"","admin1_code":"76","admin2_code":"31","admin3_code":"311","admin4_code":"31395","population":"24313","elevation":"","dem":"186","timezone":"Europe/Paris","modification_date":"2016-02-18"},{"geonameid":"2991160","name":"Mur-de-Sologne","asciiname":"Mur-de-Sologne","alternatenames":"Mur,Mur-de-Sologne","latitude":"47.41239","longitude":"1.60832","feature_class":"P","feature_code":"PPL","country_code":"FR","cc2":"","admin1_code":"24","admin2_code":"41","admin3_code":"413","admin4_code":"41157","population":"1241","elevation":"","dem":"117","timezone":"Europe/Paris","modification_date":"2016-02-18"},{"geonameid":"2991161","name":"Mûr-de-Bretagne","asciiname":"Mur-de-Bretagne","alternatenames":"Mjur-de-Bretan',Mur,Mur-de-Bretagne,Mûr-de-Bretagne,mi de bu lei ta ni,myuru=do=burutanyu,Мюр-де-Бретань,ミュール＝ド＝ブルターニュ,米德布雷塔尼","latitude":"48.2","longitude":"-2.98333","feature_class":"P","feature_code":"PPL","country_code":"FR","cc2":"","admin1_code":"53","admin2_code":"22","admin3_code":"222","admin4_code":"22158","population":"2183","elevation":"","dem":"140","timezone":"Europe/Paris","modification_date":"2016-02-18"},{"geonameid":"2991179","name":"Murat","asciiname":"Murat","alternatenames":"Murat","latitude":"45.10797","longitude":"2.86665","feature_class":"P","feature_code":"PPL","country_code":"FR","cc2":"","admin1_code":"84","admin2_code":"15","admin3_code":"153","admin4_code":"15138","population":"2316","elevation":"","dem":"894","timezone":"Europe/Paris","modification_date":"2016-02-18"},{"geonameid":"2991189","name":"Munster","asciiname":"Munster","alternatenames":"Munster","latitude":"48.04089","longitude":"7.13338","feature_class":"P","feature_code":"PPL","country_code":"FR","cc2":"","admin1_code":"44","admin2_code":"68","admin3_code":"682","admin4_code":"68226","population":"5162","elevation":"","dem":"386","timezone":"Europe/Paris","modification_date":"2016-02-18"},{"geonameid":"2991199","name":"Mundolsheim","asciiname":"Mundolsheim","alternatenames":"Mjundol'sajm,Mundelse,man duo er sang,mwndwlshym,Мюндольсайм,موندولشيم,曼多尔桑","latitude":"48.64215","longitude":"7.71378","feature_class":"P","feature_code":"PPL","country_code":"FR","cc2":"","admin1_code":"44","admin2_code":"67","admin3_code":"676","admin4_code":"67309","population":"5572","elevation":"","dem":"143","timezone":"Europe/Paris","modification_date":"2016-02-18"},{"geonameid":"2991201","name":"Munchhouse","asciiname":"Munchhouse","alternatenames":"Munchhausen,Munchhouse,Münchhausen","latitude":"47.8678","longitude":"7.45167","feature_class":"P","feature_code":"PPL","country_code":"FR","cc2":"","admin1_code":"44","admin2_code":"68","admin3_code":"683","admin4_code":"68225","population":"1490","elevation":"","dem":"218","timezone":"Europe/Paris","modification_date":"2016-02-18"},{"geonameid":"2991207","name":"Mulsanne","asciiname":"Mulsanne","alternatenames":"Mjul'sann,Mulsanne,mwlsan,Мюльсанн,مولسان","latitude":"47.91172","longitude":"0.24938","feature_class":"P","feature_code":"PPL","country_code":"FR","cc2":"","admin1_code":"52","admin2_code":"72","admin3_code":"723","admin4_code":"72213","population":"4787","elevation":"","dem":"67","timezone":"Europe/Paris","modification_date":"2016-02-18"},{"geonameid":"2991214","name":"Mulhouse","asciiname":"Mulhouse","alternatenames":"EAP,Gorad Mjuluz,MLH,Miluz,Miluza,Miuluzas,Miulūzas,Mjuluz,Mueihausn,Muelhausen,Mulhouse,Mulhousen,Mulhusia,Mylhuzy,Mylhúzy,Mylouz,Müihausn,Mülhausen,mi lu si,miuluzi,mwillujeu,mwlwz,mylwz,myulujha,myuruzu,Μυλούζ,Горад Мюлуз,Милуз,Мюлуз,ملہاؤز,مولوز,ميلوز,म्युलुझ,მიულუზი,ミュルーズ,米卢斯,뮐루즈","latitude":"47.75","longitude":"7.33333","feature_class":"P","feature_code":"PPLA3","country_code":"FR","cc2":"","admin1_code":"44","admin2_code":"68","admin3_code":"684","admin4_code":"68224","population":"111430","elevation":"","dem":"240","timezone":"Europe/Paris","modification_date":"2016-02-18"},{"geonameid":"2991220","name":"Muizon","asciiname":"Muizon","alternatenames":"Mjuizon,Muizon,mi yi zong,Мюїзон,米伊宗","latitude":"49.27499","longitude":"3.89083","feature_class":"P","feature_code":"PPL","country_code":"FR","cc2":"","admin1_code":"44","admin2_code":"51","admin3_code":"513","admin4_code":"51391","population":"2335","elevation":"","dem":"75","timezone":"Europe/Paris","modification_date":"2016-02-18"},{"geonameid":"2991226","name":"Muides-sur-Loire","asciiname":"Muides-sur-Loire","alternatenames":"Mjuid-sjur-Luar,Muides,Muides-sur-Loire,lu wa er he pan mi yi dai,Мюїд-сюр-Луар,卢瓦尔河畔米伊代","latitude":"47.66958","longitude":"1.52694","feature_class":"P","feature_code":"PPL","country_code":"FR","cc2":"","admin1_code":"24","admin2_code":"41","admin3_code":"411","admin4_code":"41155","population":"1203","elevation":"","dem":"81","timezone":"Europe/Paris","modification_date":"2016-02-18"},{"geonameid":"2991231","name":"Mugron","asciiname":"Mugron","alternatenames":"Mjugron,Mugron,mi ge long,Мюгрон,米格龙","latitude":"43.74952","longitude":"-0.75179","feature_class":"P","feature_code":"PPL","country_code":"FR","cc2":"","admin1_code":"75","admin2_code":"40","admin3_code":"401","admin4_code":"40201","population":"1493","elevation":"","dem":"82","timezone":"Europe/Paris","modification_date":"2016-02-18"},{"geonameid":"2991255","name":"Mozé-sur-Louet","asciiname":"Moze-sur-Louet","alternatenames":"Moze,Moze-sur-Louet,Mozé,Mozé-sur-Louet","latitude":"47.35856","longitude":"-0.55295","feature_class":"P","feature_code":"PPL","country_code":"FR","cc2":"","admin1_code":"52","admin2_code":"49","admin3_code":"491","admin4_code":"49222","population":"2110","elevation":"","dem":"64","timezone":"Europe/Paris","modification_date":"2016-02-18"},{"geonameid":"2991258","name":"Mozac","asciiname":"Mozac","alternatenames":"Mausac,Moza,Mozac,mo zha ke,Моза,莫扎克","latitude":"45.89166","longitude":"3.09095","feature_class":"P","feature_code":"PPL","country_code":"FR","cc2":"","admin1_code":"84","admin2_code":"63","admin3_code":"634","admin4_code":"63245","population":"3507","elevation":"","dem":"359","timezone":"Europe/Paris","modification_date":"2016-02-18"},{"geonameid":"2991261","name":"Moyrazès","asciiname":"Moyrazes","alternatenames":"Moyrazes,Moyrazès","latitude":"44.34204","longitude":"2.43933","feature_class":"P","feature_code":"PPL","country_code":"FR","cc2":"","admin1_code":"76","admin2_code":"12","admin3_code":"122","admin4_code":"12162","population":"1146","elevation":"","dem":"726","timezone":"Europe/Paris","modification_date":"2016-02-18"},{"geonameid":"2991264","name":"Moyeuvre-Grande","asciiname":"Moyeuvre-Grande","alternatenames":"Grande Moyeuvre,Moyeuvre,Moyeuvre-Grande,Moyeuvre-la-Grande,Muaevr-Grand,mu wa e fu er ge lang de,mwaywr-grand,Муаевр-Гранд,Муаєвр-Гранд,موایور-گراند,穆瓦厄夫尔格朗德","latitude":"49.25165","longitude":"6.04754","feature_class":"P","feature_code":"PPL","country_code":"FR","cc2":"","admin1_code":"44","admin2_code":"57","admin3_code":"578","admin4_code":"57491","population":"9099","elevation":"","dem":"180","timezone":"Europe/Paris","modification_date":"2016-02-21"},{"geonameid":"2991271","name":"Moyenmoutier","asciiname":"Moyenmoutier","alternatenames":"Moyenmoutier,Muaenmut'e,mu wa ang mu di ye,Муаенмутье,Муаєнмутьє,穆瓦昂穆蒂耶","latitude":"48.3773","longitude":"6.90047","feature_class":"P","feature_code":"PPL","country_code":"FR","cc2":"","admin1_code":"44","admin2_code":"88","admin3_code":"883","admin4_code":"88319","population":"3340","elevation":"","dem":"306","timezone":"Europe/Paris","modification_date":"2016-02-21"},{"geonameid":"2991277","name":"Moye","asciiname":"Moye","alternatenames":"Moye","latitude":"45.87911","longitude":"5.91435","feature_class":"P","feature_code":"PPL","country_code":"FR","cc2":"","admin1_code":"84","admin2_code":"74","admin3_code":"741","admin4_code":"74192","population":"1022","elevation":"","dem":"509","timezone":"Europe/Paris","modification_date":"2016-02-18"},{"geonameid":"2991280","name":"Moyaux","asciiname":"Moyaux","alternatenames":"","latitude":"49.19511","longitude":"0.35603","feature_class":"P","feature_code":"PPL","country_code":"FR","cc2":"","admin1_code":"28","admin2_code":"14","admin3_code":"143","admin4_code":"14460","population":"1294","elevation":"","dem":"158","timezone":"Europe/Paris","modification_date":"2016-02-18"},{"geonameid":"2991283","name":"Mouzon","asciiname":"Mouzon","alternatenames":"Mouzon,Ville-le-Libre,Villé-le-Libre","latitude":"49.60706","longitude":"5.07569","feature_class":"P","feature_code":"PPL","country_code":"FR","cc2":"","admin1_code":"44","admin2_code":"08","admin3_code":"083","admin4_code":"08311","population":"2546","elevation":"","dem":"158","timezone":"Europe/Paris","modification_date":"2016-02-18"},{"geonameid":"2991285","name":"Mouzillon","asciiname":"Mouzillon","alternatenames":"Maodilon,Mouzillon","latitude":"47.14096","longitude":"-1.28191","feature_class":"P","feature_code":"PPL","country_code":"FR","cc2":"","admin1_code":"52","admin2_code":"44","admin3_code":"442","admin4_code":"44108","population":"2385","elevation":"","dem":"28","timezone":"Europe/Paris","modification_date":"2016-02-18"},{"geonameid":"2991292","name":"Mouzeil","asciiname":"Mouzeil","alternatenames":"Mouzeil,Mouzel,Muzej,mu ze,Музей,穆泽","latitude":"47.44738","longitude":"-1.34786","feature_class":"P","feature_code":"PPL","country_code":"FR","cc2":"","admin1_code":"52","admin2_code":"44","admin3_code":"444","admin4_code":"44107","population":"1306","elevation":"","dem":"41","timezone":"Europe/Paris","modification_date":"2016-02-18"},{"geonameid":"2991297","name":"Mouy","asciiname":"Mouy","alternatenames":"Mouy,Mui,mu yi,Муи,Муї,穆伊","latitude":"49.31535","longitude":"2.31954","feature_class":"P","feature_code":"PPL","country_code":"FR","cc2":"","admin1_code":"32","admin2_code":"60","admin3_code":"602","admin4_code":"60439","population":"5588","elevation":"","dem":"44","timezone":"Europe/Paris","modification_date":"2016-02-18"},{"geonameid":"2991298","name":"Mouxy","asciiname":"Mouxy","alternatenames":"Mouxy,Muksi,Муксі","latitude":"45.68399","longitude":"5.93538","feature_class":"P","feature_code":"PPL","country_code":"FR","cc2":"","admin1_code":"84","admin2_code":"73","admin3_code":"732","admin4_code":"73182","population":"1674","elevation":"","dem":"407","timezone":"Europe/Paris","modification_date":"2016-02-18"},{"geonameid":"2991302","name":"Mouvaux","asciiname":"Mouvaux","alternatenames":"Mouvaux,Mouveaux,Muvo,mu wo,Муво,穆沃","latitude":"50.69944","longitude":"3.13429","feature_class":"P","feature_code":"PPL","country_code":"FR","cc2":"","admin1_code":"32","admin2_code":"59","admin3_code":"595","admin4_code":"59421","population":"13285","elevation":"","dem":"51","timezone":"Europe/Paris","modification_date":"2016-02-18"},{"geonameid":"2991320","name":"Moutiers","asciiname":"Moutiers","alternatenames":"Moutiers","latitude":"49.23369","longitude":"5.96498","feature_class":"P","feature_code":"PPL","country_code":"FR","cc2":"","admin1_code":"44","admin2_code":"54","admin3_code":"541","admin4_code":"54391","population":"1970","elevation":"","dem":"197","timezone":"Europe/Paris","modification_date":"2016-02-21"},{"geonameid":"2991325","name":"Moûtiers","asciiname":"Moutiers","alternatenames":"Mont-Salins,Motiers,Motiérs,Mut'e,Мутье,Мутьє","latitude":"45.48333","longitude":"6.53333","feature_class":"P","feature_code":"PPL","country_code":"FR","cc2":"","admin1_code":"84","admin2_code":"73","admin3_code":"731","admin4_code":"73181","population":"4936","elevation":"","dem":"480","timezone":"Europe/Paris","modification_date":"2016-02-18"},{"geonameid":"2991330","name":"Mouthiers-sur-Boëme","asciiname":"Mouthiers-sur-Boeme","alternatenames":"Mouthiers,Mouthiers-sur-Boeme,Mouthiers-sur-Boëme,Mut'e-sjur-Boehm,Mut'e-sjur-Boem,bo e mu he pan mu di ye er,Мутье-сюр-Боэм,Мутьє-сюр-Боем,博厄姆河畔穆蒂耶尔","latitude":"45.55","longitude":"0.11667","feature_class":"P","feature_code":"PPL","country_code":"FR","cc2":"","admin1_code":"75","admin2_code":"16","admin3_code":"161","admin4_code":"16236","population":"2347","elevation":"","dem":"106","timezone":"Europe/Paris","modification_date":"2016-02-18"},{"geonameid":"2991343","name":"Moustoir-Ac","asciiname":"Moustoir-Ac","alternatenames":"Moustoer-Logunec'h,Moustoir-Ac","latitude":"47.85461","longitude":"-2.83481","feature_class":"P","feature_code":"PPL","country_code":"FR","cc2":"","admin1_code":"53","admin2_code":"56","admin3_code":"562","admin4_code":"56141","population":"1520","elevation":"","dem":"118","timezone":"Europe/Paris","modification_date":"2016-02-18"},{"geonameid":"2991361","name":"Moussy-le-Vieux","asciiname":"Moussy-le-Vieux","alternatenames":"Moussy-le-Vieux","latitude":"49.04712","longitude":"2.62493","feature_class":"P","feature_code":"PPL","country_code":"FR","cc2":"","admin1_code":"11","admin2_code":"77","admin3_code":"771","admin4_code":"77323","population":"1102","elevation":"","dem":"87","timezone":"Europe/Paris","modification_date":"2016-02-18"},{"geonameid":"2991362","name":"Moussy-le-Neuf","asciiname":"Moussy-le-Neuf","alternatenames":"Moussy-le-Neuf,Mussi-le-Nef,Мусси-ле-Неф,Муссі-ле-Неф","latitude":"49.06427","longitude":"2.60252","feature_class":"P","feature_code":"PPL","country_code":"FR","cc2":"","admin1_code":"11","admin2_code":"77","admin3_code":"771","admin4_code":"77322","population":"2603","elevation":"","dem":"111","timezone":"Europe/Paris","modification_date":"2016-02-18"},{"geonameid":"2991386","name":"Moussan","asciiname":"Moussan","alternatenames":"Moussan","latitude":"43.23091","longitude":"2.95","feature_class":"P","feature_code":"PPL","country_code":"FR","cc2":"","admin1_code":"76","admin2_code":"11","admin3_code":"113","admin4_code":"11258","population":"1255","elevation":"","dem":"52","timezone":"Europe/Paris","modification_date":"2016-02-18"},{"geonameid":"2991390","name":"Moussac","asciiname":"Moussac","alternatenames":"Moussac","latitude":"43.98119","longitude":"4.22647","feature_class":"P","feature_code":"PPL","country_code":"FR","cc2":"","admin1_code":"76","admin2_code":"30","admin3_code":"302","admin4_code":"30184","population":"1108","elevation":"","dem":"90","timezone":"Europe/Paris","modification_date":"2016-02-18"},{"geonameid":"2991396","name":"Mours-Saint-Eusèbe","asciiname":"Mours-Saint-Eusebe","alternatenames":"Mours,Mours-Saint-Eusebe,Mours-Saint-Eusèbe","latitude":"45.06829","longitude":"5.05752","feature_class":"P","feature_code":"PPL","country_code":"FR","cc2":"","admin1_code":"84","admin2_code":"26","admin3_code":"263","admin4_code":"26218","population":"2368","elevation":"","dem":"172","timezone":"Europe/Paris","modification_date":"2016-02-18"},{"geonameid":"2991398","name":"Mours","asciiname":"Mours","alternatenames":"Mours,Mur,mu er,Мур,穆尔","latitude":"49.13077","longitude":"2.26761","feature_class":"P","feature_code":"PPL","country_code":"FR","cc2":"","admin1_code":"11","admin2_code":"95","admin3_code":"953","admin4_code":"95436","population":"1566","elevation":"","dem":"42","timezone":"Europe/Paris","modification_date":"2016-02-18"},{"geonameid":"2991407","name":"Mouroux","asciiname":"Mouroux","alternatenames":"Mouroux","latitude":"48.82263","longitude":"3.03879","feature_class":"P","feature_code":"PPL","country_code":"FR","cc2":"","admin1_code":"11","admin2_code":"77","admin3_code":"771","admin4_code":"77320","population":"4604","elevation":"","dem":"76","timezone":"Europe/Paris","modification_date":"2016-02-18"},{"geonameid":"2991413","name":"Mourmelon-le-Grand","asciiname":"Mourmelon-le-Grand","alternatenames":"Mourmelon,Mourmelon-le-Grand","latitude":"49.13256","longitude":"4.3642","feature_class":"P","feature_code":"PPL","country_code":"FR","cc2":"","admin1_code":"44","admin2_code":"51","admin3_code":"511","admin4_code":"51388","population":"5829","elevation":"","dem":"119","timezone":"Europe/Paris","modification_date":"2016-02-18"},{"geonameid":"2991421","name":"Mouriès","asciiname":"Mouries","alternatenames":"Mories,Moriés,Mouries,Mouriès,Mur'es,Mure,mu li ye,Мурьес,Мурє,穆里耶","latitude":"43.68997","longitude":"4.87089","feature_class":"P","feature_code":"PPL","country_code":"FR","cc2":"","admin1_code":"93","admin2_code":"13","admin3_code":"132","admin4_code":"13065","population":"2909","elevation":"","dem":"19","timezone":"Europe/Paris","modification_date":"2016-02-18"},{"geonameid":"2991431","name":"Mourenx","asciiname":"Mourenx","alternatenames":"Morencs,Mourenx,Murans,Murenks,mu lang,Муранс,Муренкс,穆朗","latitude":"43.38333","longitude":"-0.6","feature_class":"P","feature_code":"PPL","country_code":"FR","cc2":"","admin1_code":"75","admin2_code":"64","admin3_code":"643","admin4_code":"64410","population":"8109","elevation":"","dem":"111","timezone":"Europe/Paris","modification_date":"2016-02-18"},{"geonameid":"2991446","name":"Moult","asciiname":"Moult","alternatenames":"Moult","latitude":"49.11494","longitude":"-0.16472","feature_class":"P","feature_code":"PPL","country_code":"FR","cc2":"","admin1_code":"28","admin2_code":"14","admin3_code":"142","admin4_code":"14456","population":"1179","elevation":"","dem":"23","timezone":"Europe/Paris","modification_date":"2016-02-18"},{"geonameid":"2991459","name":"Moulis-en-Médoc","asciiname":"Moulis-en-Medoc","alternatenames":"Moulis,Moulis-en-Medoc,Moulis-en-Médoc","latitude":"45.05938","longitude":"-0.77033","feature_class":"P","feature_code":"PPL","country_code":"FR","cc2":"","admin1_code":"75","admin2_code":"33","admin3_code":"334","admin4_code":"33297","population":"1585","elevation":"","dem":"17","timezone":"Europe/Paris","modification_date":"2016-02-18"},{"geonameid":"2991470","name":"Moulins-lès-Metz","asciiname":"Moulins-les-Metz","alternatenames":"Moulins,Moulins-les-Metz,Moulins-lès-Metz","latitude":"49.10318","longitude":"6.10721","feature_class":"P","feature_code":"PPL","country_code":"FR","cc2":"","admin1_code":"44","admin2_code":"57","admin3_code":"574","admin4_code":"57487","population":"4786","elevation":"","dem":"170","timezone":"Europe/Paris","modification_date":"2016-02-21"},{"geonameid":"2991474","name":"Moulins-Engilbert","asciiname":"Moulins-Engilbert","alternatenames":"Moulins-Engilbert,Moulins-la-Republique,Moulins-la-République,Mulen-Anzhil'ber,mu lan ang ji er bei er,Мулен-Анжильбер,穆兰昂吉尔贝尔","latitude":"46.98821","longitude":"3.81084","feature_class":"P","feature_code":"PPL","country_code":"FR","cc2":"","admin1_code":"27","admin2_code":"58","admin3_code":"581","admin4_code":"58182","population":"1579","elevation":"","dem":"230","timezone":"Europe/Paris","modification_date":"2016-02-18"},{"geonameid":"2991481","name":"Moulins","asciiname":"Moulins","alternatenames":"Molins,Moulins,Mulin,muran,Мулин,ムーラン","latitude":"46.56667","longitude":"3.33333","feature_class":"P","feature_code":"PPLA2","country_code":"FR","cc2":"","admin1_code":"84","admin2_code":"03","admin3_code":"032","admin4_code":"03190","population":"23095","elevation":"","dem":"225","timezone":"Europe/Paris","modification_date":"2016-02-18"},{"geonameid":"2991512","name":"Mouliets-et-Villemartin","asciiname":"Mouliets-et-Villemartin","alternatenames":"Mouliets,Mouliets-et-Villemartin","latitude":"44.83333","longitude":"-0.01667","feature_class":"P","feature_code":"PPL","country_code":"FR","cc2":"","admin1_code":"75","admin2_code":"33","admin3_code":"335","admin4_code":"33296","population":"1054","elevation":"","dem":"9","timezone":"Europe/Paris","modification_date":"2016-02-18"},{"geonameid":"2991518","name":"Mouleydier","asciiname":"Mouleydier","alternatenames":"Cybard-de-Mouleydier,Mont Leidier,Mont Leidièr,Montleidier e Sench Ibarc,Montleidièr e Sench Ibarç,Mouleydier,Muled'e,mu lai di ye,Муледье,Муледьє,穆莱迪耶","latitude":"44.85572","longitude":"0.59759","feature_class":"P","feature_code":"PPL","country_code":"FR","cc2":"","admin1_code":"75","admin2_code":"24","admin3_code":"241","admin4_code":"24296","population":"1123","elevation":"","dem":"68","timezone":"Europe/Paris","modification_date":"2016-02-18"},{"geonameid":"2991530","name":"Moulay","asciiname":"Moulay","alternatenames":"Moulay","latitude":"48.27245","longitude":"-0.62734","feature_class":"P","feature_code":"PPL","country_code":"FR","cc2":"","admin1_code":"52","admin2_code":"53","admin3_code":"533","admin4_code":"53162","population":"1008","elevation":"","dem":"117","timezone":"Europe/Paris","modification_date":"2016-02-18"},{"geonameid":"2991537","name":"Mouilleron-le-Captif","asciiname":"Mouilleron-le-Captif","alternatenames":"Mouilleron,Mouilleron-le-Captif,Mouilleron-le-Libre,Mujron-le-Kaptif,mu yi lai long lei ka pu di,Муйрон-ле-Каптіф,穆伊莱龙勒卡普蒂","latitude":"46.71898","longitude":"-1.45463","feature_class":"P","feature_code":"PPL","country_code":"FR","cc2":"","admin1_code":"52","admin2_code":"85","admin3_code":"852","admin4_code":"85155","population":"3807","elevation":"","dem":"74","timezone":"Europe/Paris","modification_date":"2016-02-18"},{"geonameid":"2991538","name":"Mouilleron-en-Pareds","asciiname":"Mouilleron-en-Pareds","alternatenames":"Mouilleron,Mouilleron-en-Pareds","latitude":"46.6763","longitude":"-0.8494","feature_class":"P","feature_code":"PPL","country_code":"FR","cc2":"","admin1_code":"52","admin2_code":"85","admin3_code":"851","admin4_code":"85154","population":"1324","elevation":"","dem":"109","timezone":"Europe/Paris","modification_date":"2016-02-18"},{"geonameid":"2991546","name":"Mouguerre","asciiname":"Mouguerre","alternatenames":"Moguerre,Mouguerre,Muger,Mugerr,Mugerre,mu gai er,Мугер,Мугерр,穆盖尔","latitude":"43.46795","longitude":"-1.41824","feature_class":"P","feature_code":"PPL","country_code":"FR","cc2":"","admin1_code":"75","admin2_code":"64","admin3_code":"641","admin4_code":"64407","population":"4392","elevation":"","dem":"99","timezone":"Europe/Paris","modification_date":"2016-02-18"},{"geonameid":"2991549","name":"Mougon","asciiname":"Mougon","alternatenames":"Mougon,Mugon,Мугон","latitude":"46.29561","longitude":"-0.28659","feature_class":"P","feature_code":"PPL","country_code":"FR","cc2":"","admin1_code":"75","admin2_code":"79","admin3_code":"792","admin4_code":"79185","population":"1698","elevation":"","dem":"86","timezone":"Europe/Paris","modification_date":"2016-02-18"},{"geonameid":"2991551","name":"Mougins","asciiname":"Mougins","alternatenames":"Mogins,Mougins,Muginis,Muzhen,mu ran,mujan,Мужен,ムージャン,穆然","latitude":"43.59873","longitude":"7.00434","feature_class":"P","feature_code":"PPL","country_code":"FR","cc2":"","admin1_code":"93","admin2_code":"06","admin3_code":"061","admin4_code":"06085","population":"18973","elevation":"","dem":"162","timezone":"Europe/Paris","modification_date":"2016-02-18"},{"geonameid":"2991558","name":"Mouen","asciiname":"Mouen","alternatenames":"Mouen","latitude":"49.14696","longitude":"-0.48366","feature_class":"P","feature_code":"PPL","country_code":"FR","cc2":"","admin1_code":"28","admin2_code":"14","admin3_code":"142","admin4_code":"14454","population":"1344","elevation":"","dem":"75","timezone":"Europe/Paris","modification_date":"2016-02-18"},{"geonameid":"2991565","name":"Mouchin","asciiname":"Mouchin","alternatenames":"Mouchin","latitude":"50.51639","longitude":"3.29627","feature_class":"P","feature_code":"PPL","country_code":"FR","cc2":"","admin1_code":"32","admin2_code":"59","admin3_code":"595","admin4_code":"59419","population":"1371","elevation":"","dem":"38","timezone":"Europe/Paris","modification_date":"2016-02-18"},{"geonameid":"2991573","name":"Mouchard","asciiname":"Mouchard","alternatenames":"Mouchard","latitude":"46.97259","longitude":"5.79626","feature_class":"P","feature_code":"PPL","country_code":"FR","cc2":"","admin1_code":"27","admin2_code":"39","admin3_code":"391","admin4_code":"39370","population":"1464","elevation":"","dem":"278","timezone":"Europe/Paris","modification_date":"2016-02-18"},{"geonameid":"2991575","name":"Mouchamps","asciiname":"Mouchamps","alternatenames":"Mouchamps,Musham,mu shang pu,Мушам,穆尚普","latitude":"46.78131","longitude":"-1.06179","feature_class":"P","feature_code":"PPL","country_code":"FR","cc2":"","admin1_code":"52","admin2_code":"85","admin3_code":"852","admin4_code":"85153","population":"2628","elevation":"","dem":"100","timezone":"Europe/Paris","modification_date":"2016-02-18"},{"geonameid":"2991579","name":"Mouans-Sartoux","asciiname":"Mouans-Sartoux","alternatenames":"Mouans-Sartoux","latitude":"43.62224","longitude":"6.97312","feature_class":"P","feature_code":"PPL","country_code":"FR","cc2":"","admin1_code":"93","admin2_code":"06","admin3_code":"061","admin4_code":"06084","population":"9330","elevation":"","dem":"127","timezone":"Europe/Paris","modification_date":"2016-02-18"},{"geonameid":"2991630","name":"Morzine","asciiname":"Morzine","alternatenames":"Morzena,Morzin,Murisinium,XMQ,morujinu,Морзін,モルジヌ","latitude":"46.18149","longitude":"6.70664","feature_class":"P","feature_code":"PPL","country_code":"FR","cc2":"","admin1_code":"84","admin2_code":"74","admin3_code":"744","admin4_code":"74191","population":"3281","elevation":"","dem":"953","timezone":"Europe/Paris","modification_date":"2016-02-18"},{"geonameid":"2991649","name":"Morvillars","asciiname":"Morvillars","alternatenames":"Marvillars,Morvillars","latitude":"47.54874","longitude":"6.93439","feature_class":"P","feature_code":"PPL","country_code":"FR","cc2":"","admin1_code":"27","admin2_code":"90","admin3_code":"901","admin4_code":"90072","population":"1003","elevation":"","dem":"333","timezone":"Europe/Paris","modification_date":"2016-02-18"},{"geonameid":"2991661","name":"Mortrée","asciiname":"Mortree","alternatenames":"Mortree,Mortrée","latitude":"48.63899","longitude":"0.07909","feature_class":"P","feature_code":"PPL","country_code":"FR","cc2":"","admin1_code":"28","admin2_code":"61","admin3_code":"612","admin4_code":"61294","population":"1091","elevation":"","dem":"176","timezone":"Europe/Paris","modification_date":"2016-02-18"},{"geonameid":"2991692","name":"Morteau","asciiname":"Morteau","alternatenames":"Morto,mo er tuo,Морто,莫尔托","latitude":"47.05784","longitude":"6.60716","feature_class":"P","feature_code":"PPL","country_code":"FR","cc2":"","admin1_code":"27","admin2_code":"25","admin3_code":"253","admin4_code":"25411","population":"6343","elevation":"","dem":"769","timezone":"Europe/Paris","modification_date":"2016-02-18"},{"geonameid":"2991695","name":"Mortcerf","asciiname":"Mortcerf","alternatenames":"Morser,Mortcerf,Морсер","latitude":"48.78879","longitude":"2.91692","feature_class":"P","feature_code":"PPL","country_code":"FR","cc2":"","admin1_code":"11","admin2_code":"77","admin3_code":"773","admin4_code":"77318","population":"1427","elevation":"","dem":"123","timezone":"Europe/Paris","modification_date":"2016-02-18"},{"geonameid":"2991699","name":"Mortain","asciiname":"Mortain","alternatenames":"Moretoin,Mortain,Morten,mo er tan,Мортен,莫尔坦","latitude":"48.64782","longitude":"-0.94055","feature_class":"P","feature_code":"PPL","country_code":"FR","cc2":"","admin1_code":"28","admin2_code":"50","admin3_code":"501","admin4_code":"50359","population":"2470","elevation":"","dem":"236","timezone":"Europe/Paris","modification_date":"2016-02-18"},{"geonameid":"2991700","name":"Mortagne-sur-Sèvre","asciiname":"Mortagne-sur-Sevre","alternatenames":"Mortagne,Mortagne-sur-Sevre,Mortagne-sur-Sèvre,Mortan'-sjur-Sevr,sai fu er he pan mo er ta nie,Мортань-сюр-Севр,塞夫尔河畔莫尔塔涅","latitude":"46.99203","longitude":"-0.94738","feature_class":"P","feature_code":"PPL","country_code":"FR","cc2":"","admin1_code":"52","admin2_code":"85","admin3_code":"852","admin4_code":"85151","population":"6428","elevation":"","dem":"121","timezone":"Europe/Paris","modification_date":"2016-02-18"},{"geonameid":"2991701","name":"Mortagne-sur-Gironde","asciiname":"Mortagne-sur-Gironde","alternatenames":"Mortagne,Mortagne-sur-Gironde,Mortan'-sjur-Zhirond,ji long de he pan mo er ta ni,mwrtan swr jyrwnd,Мортань-сюр-Жиронд,مورتان سور جيروند,吉龙德河畔莫尔塔尼","latitude":"45.48139","longitude":"-0.78702","feature_class":"P","feature_code":"PPL","country_code":"FR","cc2":"","admin1_code":"75","admin2_code":"17","admin3_code":"174","admin4_code":"17248","population":"1034","elevation":"","dem":"49","timezone":"Europe/Paris","modification_date":"2016-02-18"},{"geonameid":"2991702","name":"Mortagne-du-Nord","asciiname":"Mortagne-du-Nord","alternatenames":"Mortagne,Mortagne-du-Nord,Mortan'-dju-Nor,bei mo er ta nie,Мортань-дю-Нор,北莫尔塔涅","latitude":"50.50352","longitude":"3.45352","feature_class":"P","feature_code":"PPL","country_code":"FR","cc2":"","admin1_code":"32","admin2_code":"59","admin3_code":"596","admin4_code":"59418","population":"1646","elevation":"","dem":"16","timezone":"Europe/Paris","modification_date":"2016-02-18"},{"geonameid":"2991704","name":"Mortagne-au-Perche","asciiname":"Mortagne-au-Perche","alternatenames":"Mortagne,Mortan'-o-Persh,mo er ta nie ou pei shen,morutanyu=o=perushu,mwrtany-aw-prsh,Мортань-о-Перш,مورتانی-او-پرش,モルターニュ＝オー＝ペルシュ,莫尔塔涅欧佩什","latitude":"48.51667","longitude":"0.55","feature_class":"P","feature_code":"PPLA3","country_code":"FR","cc2":"","admin1_code":"28","admin2_code":"61","admin3_code":"613","admin4_code":"61293","population":"4893","elevation":"","dem":"230","timezone":"Europe/Paris","modification_date":"2016-02-18"},{"geonameid":"2991713","name":"Morschwiller-le-Bas","asciiname":"Morschwiller-le-Bas","alternatenames":"Morschweiler,Morschwiller,Morschwiller-le-Bas,Morshviller-le-Ba,mo er si ke wei lai lai ba,Моршвиллер-ле-Ба,Моршвіллер-ле-Ба,莫尔斯克维莱莱巴","latitude":"47.73609","longitude":"7.26687","feature_class":"P","feature_code":"PPL","country_code":"FR","cc2":"","admin1_code":"44","admin2_code":"68","admin3_code":"684","admin4_code":"68218","population":"2754","elevation":"","dem":"267","timezone":"Europe/Paris","modification_date":"2016-02-18"},{"geonameid":"2991716","name":"Morsbach","asciiname":"Morsbach","alternatenames":"Morsbach","latitude":"49.17086","longitude":"6.87958","feature_class":"P","feature_code":"PPL","country_code":"FR","cc2":"","admin1_code":"44","admin2_code":"57","admin3_code":"573","admin4_code":"57484","population":"2541","elevation":"","dem":"224","timezone":"Europe/Paris","modification_date":"2016-02-21"},{"geonameid":"2991719","name":"Morsang-sur-Orge","asciiname":"Morsang-sur-Orge","alternatenames":"Morsan sir Orzh,Morsan-sjur-Orzh,Morsang,Morsang-sur-Orge,ao er ri he pan mo er sang,moleusangswileuoleuju,morusan=shuru=oruju,mwrsan swr awrzh,Морсан сир Орж,Морсан-сюр-Орж,مورسان سور اورژ,モルサン＝シュル＝オルジュ,奥尔日河畔莫尔桑,모르상쉬르오르주","latitude":"48.66181","longitude":"2.35338","feature_class":"P","feature_code":"PPL","country_code":"FR","cc2":"","admin1_code":"11","admin2_code":"91","admin3_code":"912","admin4_code":"91434","population":"19917","elevation":"","dem":"76","timezone":"Europe/Paris","modification_date":"2016-02-18"},{"geonameid":"2991725","name":"Morre","asciiname":"Morre","alternatenames":"Morre","latitude":"47.22595","longitude":"6.07512","feature_class":"P","feature_code":"PPL","country_code":"FR","cc2":"","admin1_code":"27","admin2_code":"25","admin3_code":"251","admin4_code":"25410","population":"1227","elevation":"","dem":"451","timezone":"Europe/Paris","modification_date":"2016-02-18"},{"geonameid":"2991727","name":"Morosaglia","asciiname":"Morosaglia","alternatenames":"Merusaglia,Morosaglia,Morozal'ja,Морозалья","latitude":"42.436","longitude":"9.30694","feature_class":"P","feature_code":"PPL","country_code":"FR","cc2":"","admin1_code":"94","admin2_code":"2B","admin3_code":"2B3","admin4_code":"2B169","population":"1105","elevation":"","dem":"785","timezone":"Europe/Paris","modification_date":"2016-02-18"},{"geonameid":"2991741","name":"Mornas","asciiname":"Mornas","alternatenames":"Mornas,Mornats,mo er na,morunasu,Морнас,モルナス,莫尔纳","latitude":"44.20025","longitude":"4.72902","feature_class":"P","feature_code":"PPL","country_code":"FR","cc2":"","admin1_code":"93","admin2_code":"84","admin3_code":"842","admin4_code":"84083","population":"2370","elevation":"","dem":"35","timezone":"Europe/Paris","modification_date":"2016-02-18"},{"geonameid":"2991743","name":"Mornant","asciiname":"Mornant","alternatenames":"Mornan,Mornant,Морнан","latitude":"45.61897","longitude":"4.6737","feature_class":"P","feature_code":"PPL","country_code":"FR","cc2":"","admin1_code":"84","admin2_code":"69","admin3_code":"691","admin4_code":"69141","population":"5055","elevation":"","dem":"369","timezone":"Europe/Paris","modification_date":"2016-02-18"},{"geonameid":"2991747","name":"Mornac","asciiname":"Mornac","alternatenames":"Mornac","latitude":"45.68333","longitude":"0.26667","feature_class":"P","feature_code":"PPL","country_code":"FR","cc2":"","admin1_code":"75","admin2_code":"16","admin3_code":"161","admin4_code":"16232","population":"2078","elevation":"","dem":"125","timezone":"Europe/Paris","modification_date":"2016-02-18"},{"geonameid":"2991750","name":"Mormoiron","asciiname":"Mormoiron","alternatenames":"Mormeiron,Mormoiron,Mormuaron,mo er mu wa long,Мормуарон,莫尔穆瓦龙","latitude":"44.06783","longitude":"5.17885","feature_class":"P","feature_code":"PPL","country_code":"FR","cc2":"","admin1_code":"93","admin2_code":"84","admin3_code":"843","admin4_code":"84082","population":"1667","elevation":"","dem":"261","timezone":"Europe/Paris","modification_date":"2016-02-18"},{"geonameid":"2991754","name":"Mormant","asciiname":"Mormant","alternatenames":"Morinant-l'Egalite,Morinant-l'Egalité,Mormant","latitude":"48.60901","longitude":"2.89025","feature_class":"P","feature_code":"PPL","country_code":"FR","cc2":"","admin1_code":"11","admin2_code":"77","admin3_code":"772","admin4_code":"77317","population":"4765","elevation":"","dem":"110","timezone":"Europe/Paris","modification_date":"2016-02-18"},{"geonameid":"2991772","name":"Morlaix","asciiname":"Morlaix","alternatenames":"MXN,Mons Relaxus,Montroulez,Morlaix,Morle,mo er lai,morure,mwrlyks,Морле,مورلیکس,モルレー,莫尔莱","latitude":"48.58333","longitude":"-3.83333","feature_class":"P","feature_code":"PPLA3","country_code":"FR","cc2":"","admin1_code":"53","admin2_code":"29","admin3_code":"293","admin4_code":"29151","population":"17516","elevation":"","dem":"11","timezone":"Europe/Paris","modification_date":"2016-02-18"},{"geonameid":"2991775","name":"Morlaas","asciiname":"Morlaas","alternatenames":"Morlaas","latitude":"43.35","longitude":"-0.26667","feature_class":"P","feature_code":"PPL","country_code":"FR","cc2":"","admin1_code":"75","admin2_code":"64","admin3_code":"643","admin4_code":"64405","population":"4162","elevation":"","dem":"288","timezone":"Europe/Paris","modification_date":"2016-02-18"},{"geonameid":"2991792","name":"Morigny-Champigny","asciiname":"Morigny-Champigny","alternatenames":"Morigny,Morigny-Champigny,Morin'i-Shampin'i,mo li ni shang pi ni,Мориньи-Шампиньи,Мориньї-Шампіньї,莫里尼尚皮尼","latitude":"48.44685","longitude":"2.18351","feature_class":"P","feature_code":"PPL","country_code":"FR","cc2":"","admin1_code":"11","admin2_code":"91","admin3_code":"911","admin4_code":"91433","population":"4199","elevation":"","dem":"71","timezone":"Europe/Paris","modification_date":"2016-02-18"},{"geonameid":"2991799","name":"Morières-lès-Avignon","asciiname":"Morieres-les-Avignon","alternatenames":"Mor'er-lez-Avin'on,Morer-lez-Avin'jon,Morieras dAvinhon,Morieres,Morieres-les-Avignon,Morières,Morières-lès-Avignon,mo li ai lai a wei ni weng,Морьер-лез-Авиньон,Морєр-лез-Авіньйон,莫里埃莱阿维尼翁","latitude":"43.9403","longitude":"4.9011","feature_class":"P","feature_code":"PPL","country_code":"FR","cc2":"","admin1_code":"93","admin2_code":"84","admin3_code":"842","admin4_code":"84081","population":"7001","elevation":"","dem":"29","timezone":"Europe/Paris","modification_date":"2016-02-18"},{"geonameid":"2991802","name":"Morienval","asciiname":"Morienval","alternatenames":"Morjanval',mo li an wa,Морянваль,莫里安瓦","latitude":"49.2977","longitude":"2.92078","feature_class":"P","feature_code":"PPL","country_code":"FR","cc2":"","admin1_code":"32","admin2_code":"60","admin3_code":"604","admin4_code":"60430","population":"1094","elevation":"","dem":"91","timezone":"Europe/Paris","modification_date":"2016-02-18"},{"geonameid":"2991806","name":"Morhange","asciiname":"Morhange","alternatenames":"Morhange","latitude":"48.92299","longitude":"6.64179","feature_class":"P","feature_code":"PPL","country_code":"FR","cc2":"","admin1_code":"44","admin2_code":"57","admin3_code":"573","admin4_code":"57483","population":"4316","elevation":"","dem":"257","timezone":"Europe/Paris","modification_date":"2016-02-21"},{"geonameid":"2991832","name":"Morez","asciiname":"Morez","alternatenames":"More,Morez,Morez-la-Montagne,mo lei ci,Море,莫雷兹","latitude":"46.5254","longitude":"6.02589","feature_class":"P","feature_code":"PPL","country_code":"FR","cc2":"","admin1_code":"27","admin2_code":"39","admin3_code":"393","admin4_code":"39368","population":"6495","elevation":"","dem":"778","timezone":"Europe/Paris","modification_date":"2016-02-18"},{"geonameid":"2991839","name":"Moreuil","asciiname":"Moreuil","alternatenames":"Morej,Moreuil,Moreul,Morjoj,mo lei yi,Морей,Морёй,莫勒伊","latitude":"49.77457","longitude":"2.48273","feature_class":"P","feature_code":"PPL","country_code":"FR","cc2":"","admin1_code":"32","admin2_code":"80","admin3_code":"803","admin4_code":"80570","population":"4162","elevation":"","dem":"47","timezone":"Europe/Paris","modification_date":"2016-02-18"},{"geonameid":"2991842","name":"Moret-sur-Loing","asciiname":"Moret-sur-Loing","alternatenames":"More-sjur-Luen,Moret,Море-сюр-Луен","latitude":"48.37239","longitude":"2.81713","feature_class":"P","feature_code":"PPL","country_code":"FR","cc2":"","admin1_code":"11","admin2_code":"77","admin3_code":"774","admin4_code":"77316","population":"4866","elevation":"","dem":"55","timezone":"Europe/Paris","modification_date":"2016-02-18"},{"geonameid":"2991847","name":"Morestel","asciiname":"Morestel","alternatenames":"Morestel","latitude":"45.676","longitude":"5.47079","feature_class":"P","feature_code":"PPL","country_code":"FR","cc2":"","admin1_code":"84","admin2_code":"38","admin3_code":"382","admin4_code":"38261","population":"3307","elevation":"","dem":"234","timezone":"Europe/Paris","modification_date":"2016-02-18"},{"geonameid":"2991861","name":"Morée","asciiname":"Moree","alternatenames":"Moree,Morée","latitude":"47.90397","longitude":"1.23421","feature_class":"P","feature_code":"PPL","country_code":"FR","cc2":"","admin1_code":"24","admin2_code":"41","admin3_code":"412","admin4_code":"41154","population":"1041","elevation":"","dem":"97","timezone":"Europe/Paris","modification_date":"2016-02-18"},{"geonameid":"2991866","name":"Moréac","asciiname":"Moreac","alternatenames":"Moreac,Moréac,Mourieg","latitude":"47.91967","longitude":"-2.81934","feature_class":"P","feature_code":"PPL","country_code":"FR","cc2":"","admin1_code":"53","admin2_code":"56","admin3_code":"562","admin4_code":"56140","population":"3097","elevation":"","dem":"116","timezone":"Europe/Paris","modification_date":"2016-02-18"},{"geonameid":"2991868","name":"Mordelles","asciiname":"Mordelles","alternatenames":"Mauricella,Mordel',Mordelles,Morzhell,mo er dai lai,Мордель,莫尔代莱","latitude":"48.07571","longitude":"-1.84286","feature_class":"P","feature_code":"PPL","country_code":"FR","cc2":"","admin1_code":"53","admin2_code":"35","admin3_code":"353","admin4_code":"35196","population":"6484","elevation":"","dem":"34","timezone":"Europe/Paris","modification_date":"2016-02-18"},{"geonameid":"2991877","name":"Morcenx","asciiname":"Morcenx","alternatenames":"Morcens,Morcenx,Morsanks,mo er sang,Морсанкс,莫尔桑","latitude":"44.03536","longitude":"-0.91375","feature_class":"P","feature_code":"PPL","country_code":"FR","cc2":"","admin1_code":"75","admin2_code":"40","admin3_code":"402","admin4_code":"40197","population":"4993","elevation":"","dem":"76","timezone":"Europe/Paris","modification_date":"2016-02-18"},{"geonameid":"2991880","name":"Morbier","asciiname":"Morbier","alternatenames":"Morbier","latitude":"46.53693","longitude":"6.01532","feature_class":"P","feature_code":"PPL","country_code":"FR","cc2":"","admin1_code":"27","admin2_code":"39","admin3_code":"393","admin4_code":"39367","population":"2224","elevation":"","dem":"821","timezone":"Europe/Paris","modification_date":"2016-02-18"},{"geonameid":"2991881","name":"Morbecque","asciiname":"Morbecque","alternatenames":"Morbecque","latitude":"50.69365","longitude":"2.51787","feature_class":"P","feature_code":"PPL","country_code":"FR","cc2":"","admin1_code":"32","admin2_code":"59","admin3_code":"594","admin4_code":"59416","population":"2873","elevation":"","dem":"29","timezone":"Europe/Paris","modification_date":"2016-02-18"},{"geonameid":"2991888","name":"Morannes","asciiname":"Morannes","alternatenames":"Morann,Morannes,mo la nei,Моранн,莫拉内","latitude":"47.74364","longitude":"-0.41604","feature_class":"P","feature_code":"PPL","country_code":"FR","cc2":"","admin1_code":"52","admin2_code":"49","admin3_code":"491","admin4_code":"49220","population":"1679","elevation":"","dem":"28","timezone":"Europe/Paris","modification_date":"2016-02-18"},{"geonameid":"2991891","name":"Morangis","asciiname":"Morangis","alternatenames":"Morangis","latitude":"48.70383","longitude":"2.33908","feature_class":"P","feature_code":"PPL","country_code":"FR","cc2":"","admin1_code":"11","admin2_code":"91","admin3_code":"913","admin4_code":"91432","population":"11369","elevation":"","dem":"82","timezone":"Europe/Paris","modification_date":"2016-02-18"},