{"nextFile":"cities.71.json","rows":[{"geonameid":"8023606","name":"Cicurug","asciiname":"Cicurug","alternatenames":"Cicurug","latitude":"-7.2681","longitude":"108.1382","feature_class":"P","feature_code":"PPLA4","country_code":"ID","cc2":"","admin1_code":"30","admin2_code":"","admin3_code":"","admin4_code":"","population":"0","elevation":"","dem":"521","timezone":"Asia/Jakarta","modification_date":"2012-01-21"},{"geonameid":"8023611","name":"Leuwibodas","asciiname":"Leuwibodas","alternatenames":"Leuwibodas","latitude":"-7.2537","longitude":"108.1351","feature_class":"P","feature_code":"PPLA4","country_code":"ID","cc2":"","admin1_code":"30","admin2_code":"","admin3_code":"","admin4_code":"","population":"0","elevation":"","dem":"648","timezone":"Asia/Jakarta","modification_date":"2012-01-21"},{"geonameid":"8023622","name":"Kudang","asciiname":"Kudang","alternatenames":"Kudang","latitude":"-7.2762","longitude":"108.1434","feature_class":"P","feature_code":"PPLA4","country_code":"ID","cc2":"","admin1_code":"30","admin2_code":"","admin3_code":"","admin4_code":"","population":"0","elevation":"","dem":"502","timezone":"Asia/Jakarta","modification_date":"2012-01-21"},{"geonameid":"8023632","name":"Banjarsari","asciiname":"Banjarsari","alternatenames":"Banjarsari","latitude":"-7.3152","longitude":"108.1456","feature_class":"P","feature_code":"PPLA4","country_code":"ID","cc2":"","admin1_code":"30","admin2_code":"","admin3_code":"","admin4_code":"","population":"0","elevation":"","dem":"451","timezone":"Asia/Jakarta","modification_date":"2012-01-21"},{"geonameid":"8023640","name":"Pagaden","asciiname":"Pagaden","alternatenames":"Pagaden","latitude":"-7.3208","longitude":"108.1566","feature_class":"P","feature_code":"PPLA4","country_code":"ID","cc2":"","admin1_code":"30","admin2_code":"","admin3_code":"","admin4_code":"","population":"0","elevation":"","dem":"441","timezone":"Asia/Jakarta","modification_date":"2012-01-21"},{"geonameid":"8023661","name":"Cibogor","asciiname":"Cibogor","alternatenames":"Cibogor","latitude":"-7.2549","longitude":"108.1536","feature_class":"P","feature_code":"PPLA4","country_code":"ID","cc2":"","admin1_code":"30","admin2_code":"","admin3_code":"","admin4_code":"","population":"0","elevation":"","dem":"541","timezone":"Asia/Jakarta","modification_date":"2012-01-21"},{"geonameid":"8023667","name":"Karangmulya","asciiname":"Karangmulya","alternatenames":"Karangmulya","latitude":"-7.2613","longitude":"108.1626","feature_class":"P","feature_code":"PPLA4","country_code":"ID","cc2":"","admin1_code":"30","admin2_code":"","admin3_code":"","admin4_code":"","population":"0","elevation":"","dem":"507","timezone":"Asia/Jakarta","modification_date":"2012-01-21"},{"geonameid":"8023690","name":"Pasirangin","asciiname":"Pasirangin","alternatenames":"Pasirangin","latitude":"-7.3158","longitude":"108.1717","feature_class":"P","feature_code":"PPLA4","country_code":"ID","cc2":"","admin1_code":"30","admin2_code":"","admin3_code":"","admin4_code":"","population":"0","elevation":"","dem":"417","timezone":"Asia/Jakarta","modification_date":"2012-01-21"},{"geonameid":"8023696","name":"Bungursari","asciiname":"Bungursari","alternatenames":"Bungursari","latitude":"-7.3031","longitude":"108.1709","feature_class":"P","feature_code":"PPLA4","country_code":"ID","cc2":"","admin1_code":"30","admin2_code":"","admin3_code":"","admin4_code":"","population":"0","elevation":"","dem":"440","timezone":"Asia/Jakarta","modification_date":"2012-01-21"},{"geonameid":"8023698","name":"Cikondang","asciiname":"Cikondang","alternatenames":"Cikondang,Kondang","latitude":"-7.2963","longitude":"108.1689","feature_class":"P","feature_code":"PPLA4","country_code":"ID","cc2":"","admin1_code":"30","admin2_code":"","admin3_code":"","admin4_code":"","population":"0","elevation":"","dem":"458","timezone":"Asia/Jakarta","modification_date":"2012-01-21"},{"geonameid":"8023704","name":"Simpang","asciiname":"Simpang","alternatenames":"Simpang","latitude":"-7.2796","longitude":"108.1674","feature_class":"P","feature_code":"PPLA4","country_code":"ID","cc2":"","admin1_code":"30","admin2_code":"","admin3_code":"","admin4_code":"","population":"0","elevation":"","dem":"466","timezone":"Asia/Jakarta","modification_date":"2012-01-21"},{"geonameid":"8023705","name":"Sindanggalih","asciiname":"Sindanggalih","alternatenames":"Sindanggalih","latitude":"-7.2769","longitude":"108.173","feature_class":"P","feature_code":"PPLA4","country_code":"ID","cc2":"","admin1_code":"30","admin2_code":"","admin3_code":"","admin4_code":"","population":"0","elevation":"","dem":"457","timezone":"Asia/Jakarta","modification_date":"2012-01-21"},{"geonameid":"8023708","name":"Neundeut","asciiname":"Neundeut","alternatenames":"Neundeut","latitude":"-7.2606","longitude":"108.1713","feature_class":"P","feature_code":"PPLA4","country_code":"ID","cc2":"","admin1_code":"30","admin2_code":"","admin3_code":"","admin4_code":"","population":"0","elevation":"","dem":"466","timezone":"Asia/Jakarta","modification_date":"2012-01-21"},{"geonameid":"8023718","name":"Ciburuyhilir","asciiname":"Ciburuyhilir","alternatenames":"Ciburuyhilir","latitude":"-7.2686","longitude":"108.1774","feature_class":"P","feature_code":"PPLA4","country_code":"ID","cc2":"","admin1_code":"30","admin2_code":"","admin3_code":"","admin4_code":"","population":"0","elevation":"","dem":"454","timezone":"Asia/Jakarta","modification_date":"2012-01-21"},{"geonameid":"8023734","name":"Rancageneng Satu","asciiname":"Rancageneng Satu","alternatenames":"Rancageneng Satu","latitude":"-7.3176","longitude":"108.1861","feature_class":"P","feature_code":"PPLA4","country_code":"ID","cc2":"","admin1_code":"30","admin2_code":"","admin3_code":"","admin4_code":"","population":"0","elevation":"","dem":"395","timezone":"Asia/Jakarta","modification_date":"2012-01-21"},{"geonameid":"8023737","name":"Sukarindik","asciiname":"Sukarindik","alternatenames":"Soekarindik 1,Sukarindik","latitude":"-7.3011","longitude":"108.1869","feature_class":"P","feature_code":"PPLA4","country_code":"ID","cc2":"","admin1_code":"30","admin2_code":"","admin3_code":"","admin4_code":"","population":"0","elevation":"","dem":"416","timezone":"Asia/Jakarta","modification_date":"2012-01-21"},{"geonameid":"8023742","name":"Sukamaju Kidul","asciiname":"Sukamaju Kidul","alternatenames":"Sukamaju Kidul","latitude":"-7.2831","longitude":"108.1867","feature_class":"P","feature_code":"PPLA3","country_code":"ID","cc2":"","admin1_code":"30","admin2_code":"","admin3_code":"","admin4_code":"","population":"0","elevation":"","dem":"427","timezone":"Asia/Jakarta","modification_date":"2012-01-21"},{"geonameid":"8023747","name":"Pagendingan","asciiname":"Pagendingan","alternatenames":"Pagendingan","latitude":"-7.2659","longitude":"108.1864","feature_class":"P","feature_code":"PPLA4","country_code":"ID","cc2":"","admin1_code":"30","admin2_code":"","admin3_code":"","admin4_code":"","population":"0","elevation":"","dem":"426","timezone":"Asia/Jakarta","modification_date":"2012-01-21"},{"geonameid":"8023749","name":"Kebonbencoy","asciiname":"Kebonbencoy","alternatenames":"Kebonbencoy","latitude":"-7.2535","longitude":"108.1874","feature_class":"P","feature_code":"PPLA4","country_code":"ID","cc2":"","admin1_code":"30","admin2_code":"","admin3_code":"","admin4_code":"","population":"0","elevation":"","dem":"440","timezone":"Asia/Jakarta","modification_date":"2012-01-21"},{"geonameid":"8023755","name":"Sukahaji","asciiname":"Sukahaji","alternatenames":"Sukahaji","latitude":"-7.2662","longitude":"108.1984","feature_class":"P","feature_code":"PPLA4","country_code":"ID","cc2":"","admin1_code":"30","admin2_code":"","admin3_code":"","admin4_code":"","population":"0","elevation":"","dem":"426","timezone":"Asia/Jakarta","modification_date":"2012-01-21"},{"geonameid":"8023757","name":"Parakanhonje Wetan","asciiname":"Parakanhonje Wetan","alternatenames":"Parakanhonje Wetan","latitude":"-7.2801","longitude":"108.1944","feature_class":"P","feature_code":"PPLA4","country_code":"ID","cc2":"","admin1_code":"30","admin2_code":"","admin3_code":"","admin4_code":"","population":"0","elevation":"","dem":"403","timezone":"Asia/Jakarta","modification_date":"2012-01-21"},{"geonameid":"8023759","name":"Sindangpalay","asciiname":"Sindangpalay","alternatenames":"Sindangpalaj,Sindangpalay","latitude":"-7.2891","longitude":"108.198","feature_class":"P","feature_code":"PPLA4","country_code":"ID","cc2":"","admin1_code":"30","admin2_code":"","admin3_code":"","admin4_code":"","population":"0","elevation":"","dem":"396","timezone":"Asia/Jakarta","modification_date":"2012-01-21"},{"geonameid":"8023762","name":"Pakemitan","asciiname":"Pakemitan","alternatenames":"Pakemitan","latitude":"-7.2924","longitude":"108.1998","feature_class":"P","feature_code":"PPLA4","country_code":"ID","cc2":"","admin1_code":"30","admin2_code":"","admin3_code":"","admin4_code":"","population":"0","elevation":"","dem":"398","timezone":"Asia/Jakarta","modification_date":"2012-01-21"},{"geonameid":"8023767","name":"Sukamulya","asciiname":"Sukamulya","alternatenames":"Sukamulya","latitude":"-7.3149","longitude":"108.193","feature_class":"P","feature_code":"PPLA4","country_code":"ID","cc2":"","admin1_code":"30","admin2_code":"","admin3_code":"","admin4_code":"","population":"0","elevation":"","dem":"386","timezone":"Asia/Jakarta","modification_date":"2012-01-21"},{"geonameid":"8023777","name":"Argasari","asciiname":"Argasari","alternatenames":"Argasari","latitude":"-7.3247","longitude":"108.2057","feature_class":"P","feature_code":"PPLA3","country_code":"ID","cc2":"","admin1_code":"30","admin2_code":"","admin3_code":"","admin4_code":"","population":"0","elevation":"","dem":"368","timezone":"Asia/Jakarta","modification_date":"2012-01-21"},{"geonameid":"8023783","name":"Gunungbatu","asciiname":"Gunungbatu","alternatenames":"Goenoengbatoe,Gunungbatu","latitude":"-7.3116","longitude":"108.204","feature_class":"P","feature_code":"PPLA4","country_code":"ID","cc2":"","admin1_code":"30","admin2_code":"","admin3_code":"","admin4_code":"","population":"0","elevation":"","dem":"380","timezone":"Asia/Jakarta","modification_date":"2012-01-21"},{"geonameid":"8023786","name":"Jati","asciiname":"Jati","alternatenames":"Jati","latitude":"-7.3037","longitude":"108.2033","feature_class":"P","feature_code":"PPLA4","country_code":"ID","cc2":"","admin1_code":"30","admin2_code":"","admin3_code":"","admin4_code":"","population":"0","elevation":"","dem":"393","timezone":"Asia/Jakarta","modification_date":"2012-01-21"},{"geonameid":"8023791","name":"Kosangka","asciiname":"Kosangka","alternatenames":"Kosangka","latitude":"-7.2918","longitude":"108.206","feature_class":"P","feature_code":"PPLA4","country_code":"ID","cc2":"","admin1_code":"30","admin2_code":"","admin3_code":"","admin4_code":"","population":"0","elevation":"","dem":"379","timezone":"Asia/Jakarta","modification_date":"2012-01-21"},{"geonameid":"8023796","name":"Sukamulya","asciiname":"Sukamulya","alternatenames":"Sukamulya","latitude":"-7.2786","longitude":"108.204","feature_class":"P","feature_code":"PPLA4","country_code":"ID","cc2":"","admin1_code":"30","admin2_code":"","admin3_code":"","admin4_code":"","population":"0","elevation":"","dem":"401","timezone":"Asia/Jakarta","modification_date":"2012-01-21"},{"geonameid":"8023797","name":"Cisingkah","asciiname":"Cisingkah","alternatenames":"Cisingkah,Tjisingkah","latitude":"-7.2792","longitude":"108.2069","feature_class":"P","feature_code":"PPLA4","country_code":"ID","cc2":"","admin1_code":"30","admin2_code":"","admin3_code":"","admin4_code":"","population":"0","elevation":"","dem":"403","timezone":"Asia/Jakarta","modification_date":"2012-01-21"},{"geonameid":"8023807","name":"Ampera","asciiname":"Ampera","alternatenames":"Ampera","latitude":"-7.3226","longitude":"108.2108","feature_class":"P","feature_code":"PPLA4","country_code":"ID","cc2":"","admin1_code":"30","admin2_code":"","admin3_code":"","admin4_code":"","population":"0","elevation":"","dem":"364","timezone":"Asia/Jakarta","modification_date":"2012-01-21"},{"geonameid":"8023820","name":"Leuwidahu","asciiname":"Leuwidahu","alternatenames":"Leuwidahoe,Leuwidahu","latitude":"-7.3044","longitude":"108.2109","feature_class":"P","feature_code":"PPLA4","country_code":"ID","cc2":"","admin1_code":"30","admin2_code":"","admin3_code":"","admin4_code":"","population":"0","elevation":"","dem":"378","timezone":"Asia/Jakarta","modification_date":"2012-01-21"},{"geonameid":"8023825","name":"Rajapeni","asciiname":"Rajapeni","alternatenames":"Rajapeni","latitude":"-7.2841","longitude":"108.2148","feature_class":"P","feature_code":"PPLA4","country_code":"ID","cc2":"","admin1_code":"30","admin2_code":"","admin3_code":"","admin4_code":"","population":"0","elevation":"","dem":"378","timezone":"Asia/Jakarta","modification_date":"2012-01-21"},{"geonameid":"8023830","name":"Sukahurip","asciiname":"Sukahurip","alternatenames":"Sukahurip","latitude":"-7.2619","longitude":"108.2169","feature_class":"P","feature_code":"PPLA4","country_code":"ID","cc2":"","admin1_code":"30","admin2_code":"","admin3_code":"","admin4_code":"","population":"0","elevation":"","dem":"473","timezone":"Asia/Jakarta","modification_date":"2012-01-21"},{"geonameid":"8023842","name":"Saripin","asciiname":"Saripin","alternatenames":"Babakan Saripin,Saripin","latitude":"-7.3325","longitude":"108.2455","feature_class":"P","feature_code":"PPLA4","country_code":"ID","cc2":"","admin1_code":"30","admin2_code":"","admin3_code":"","admin4_code":"","population":"0","elevation":"","dem":"337","timezone":"Asia/Jakarta","modification_date":"2012-01-21"},{"geonameid":"8023847","name":"Nagarasari","asciiname":"Nagarasari","alternatenames":"Nagarasari","latitude":"-7.3003","longitude":"108.2213","feature_class":"P","feature_code":"PPLA3","country_code":"ID","cc2":"","admin1_code":"30","admin2_code":"","admin3_code":"","admin4_code":"","population":"0","elevation":"","dem":"359","timezone":"Asia/Jakarta","modification_date":"2012-01-21"},{"geonameid":"8023851","name":"Mancogeh","asciiname":"Mancogeh","alternatenames":"Mancogeh","latitude":"-7.3087","longitude":"108.2172","feature_class":"P","feature_code":"PPLA4","country_code":"ID","cc2":"","admin1_code":"30","admin2_code":"","admin3_code":"","admin4_code":"","population":"0","elevation":"","dem":"366","timezone":"Asia/Jakarta","modification_date":"2012-01-21"},{"geonameid":"8023859","name":"Tawangsari","asciiname":"Tawangsari","alternatenames":"Tawangsari","latitude":"-7.3227","longitude":"108.2206","feature_class":"P","feature_code":"PPLA4","country_code":"ID","cc2":"","admin1_code":"30","admin2_code":"","admin3_code":"","admin4_code":"","population":"0","elevation":"","dem":"355","timezone":"Asia/Jakarta","modification_date":"2012-01-21"},{"geonameid":"8023864","name":"Sukasari","asciiname":"Sukasari","alternatenames":"Sukasari","latitude":"-7.3258","longitude":"108.2322","feature_class":"P","feature_code":"PPLA4","country_code":"ID","cc2":"","admin1_code":"30","admin2_code":"","admin3_code":"","admin4_code":"","population":"0","elevation":"","dem":"347","timezone":"Asia/Jakarta","modification_date":"2012-01-21"},{"geonameid":"8023866","name":"Cibogor","asciiname":"Cibogor","alternatenames":"Cibogor","latitude":"-7.3141","longitude":"108.2299","feature_class":"P","feature_code":"PPLA4","country_code":"ID","cc2":"","admin1_code":"30","admin2_code":"","admin3_code":"","admin4_code":"","population":"0","elevation":"","dem":"349","timezone":"Asia/Jakarta","modification_date":"2012-01-21"},{"geonameid":"8023877","name":"Cihideung Satu","asciiname":"Cihideung Satu","alternatenames":"Cihideung Satu","latitude":"-7.2845","longitude":"108.2327","feature_class":"P","feature_code":"PPLA4","country_code":"ID","cc2":"","admin1_code":"30","admin2_code":"","admin3_code":"","admin4_code":"","population":"0","elevation":"","dem":"389","timezone":"Asia/Jakarta","modification_date":"2012-01-21"},{"geonameid":"8023895","name":"Pengkolan","asciiname":"Pengkolan","alternatenames":"Pengkolan","latitude":"-7.3042","longitude":"108.2438","feature_class":"P","feature_code":"PPLA4","country_code":"ID","cc2":"","admin1_code":"30","admin2_code":"","admin3_code":"","admin4_code":"","population":"0","elevation":"","dem":"341","timezone":"Asia/Jakarta","modification_date":"2012-01-21"},{"geonameid":"8023911","name":"Bojongnangka","asciiname":"Bojongnangka","alternatenames":"Bodjongnangka,Bojongnangka","latitude":"-7.3318","longitude":"108.2498","feature_class":"P","feature_code":"PPLA4","country_code":"ID","cc2":"","admin1_code":"30","admin2_code":"","admin3_code":"","admin4_code":"","population":"0","elevation":"","dem":"335","timezone":"Asia/Jakarta","modification_date":"2012-01-21"},{"geonameid":"8023913","name":"Tugu","asciiname":"Tugu","alternatenames":"Tugu","latitude":"-7.2962","longitude":"108.247","feature_class":"P","feature_code":"PPLA4","country_code":"ID","cc2":"","admin1_code":"30","admin2_code":"","admin3_code":"","admin4_code":"","population":"0","elevation":"","dem":"353","timezone":"Asia/Jakarta","modification_date":"2012-01-21"},{"geonameid":"8023932","name":"Golacir","asciiname":"Golacir","alternatenames":"Golacir,Golatjir Dua","latitude":"-7.3295","longitude":"108.1257","feature_class":"P","feature_code":"PPLA4","country_code":"ID","cc2":"","admin1_code":"30","admin2_code":"","admin3_code":"","admin4_code":"","population":"0","elevation":"","dem":"443","timezone":"Asia/Jakarta","modification_date":"2012-01-21"},{"geonameid":"8023961","name":"Tabrik","asciiname":"Tabrik","alternatenames":"Tabrik","latitude":"-7.361","longitude":"108.1371","feature_class":"P","feature_code":"PPLA4","country_code":"ID","cc2":"","admin1_code":"30","admin2_code":"","admin3_code":"","admin4_code":"","population":"0","elevation":"","dem":"387","timezone":"Asia/Jakarta","modification_date":"2012-01-21"},{"geonameid":"8023971","name":"Cidamar","asciiname":"Cidamar","alternatenames":"Cidamar","latitude":"-7.3459","longitude":"108.1388","feature_class":"P","feature_code":"PPLA4","country_code":"ID","cc2":"","admin1_code":"30","admin2_code":"","admin3_code":"","admin4_code":"","population":"0","elevation":"","dem":"409","timezone":"Asia/Jakarta","modification_date":"2012-01-21"},{"geonameid":"8023984","name":"Gunungkawung","asciiname":"Gunungkawung","alternatenames":"Gunungkawung","latitude":"-7.3389","longitude":"108.1493","feature_class":"P","feature_code":"PPLA4","country_code":"ID","cc2":"","admin1_code":"30","admin2_code":"","admin3_code":"","admin4_code":"","population":"0","elevation":"","dem":"418","timezone":"Asia/Jakarta","modification_date":"2012-01-21"},{"geonameid":"8024029","name":"Gunungangka","asciiname":"Gunungangka","alternatenames":"Goenoengnangka,Gunungangka","latitude":"-7.34307","longitude":"108.16434","feature_class":"P","feature_code":"PPLA4","country_code":"ID","cc2":"","admin1_code":"30","admin2_code":"","admin3_code":"","admin4_code":"","population":"0","elevation":"","dem":"406","timezone":"Asia/Jakarta","modification_date":"2012-01-21"},{"geonameid":"8024030","name":"Pasiripis","asciiname":"Pasiripis","alternatenames":"Pasiripis,Pasiripis Satu","latitude":"-7.3459","longitude":"108.1656","feature_class":"P","feature_code":"PPLA4","country_code":"ID","cc2":"","admin1_code":"30","admin2_code":"","admin3_code":"","admin4_code":"","population":"0","elevation":"","dem":"399","timezone":"Asia/Jakarta","modification_date":"2012-01-21"},{"geonameid":"8024037","name":"Sindangsari","asciiname":"Sindangsari","alternatenames":"Sindangsari","latitude":"-7.3698","longitude":"108.1614","feature_class":"P","feature_code":"PPLA4","country_code":"ID","cc2":"","admin1_code":"30","admin2_code":"","admin3_code":"","admin4_code":"","population":"0","elevation":"","dem":"362","timezone":"Asia/Jakarta","modification_date":"2012-01-21"},{"geonameid":"8024054","name":"Rancakukun","asciiname":"Rancakukun","alternatenames":"Rancakukun","latitude":"-7.3447","longitude":"108.1744","feature_class":"P","feature_code":"PPLA4","country_code":"ID","cc2":"","admin1_code":"30","admin2_code":"","admin3_code":"","admin4_code":"","population":"0","elevation":"","dem":"401","timezone":"Asia/Jakarta","modification_date":"2012-01-21"},{"geonameid":"8024066","name":"Sudimara","asciiname":"Sudimara","alternatenames":"Soedimara,Sudimara","latitude":"-7.3626","longitude":"108.1774","feature_class":"P","feature_code":"PPLA4","country_code":"ID","cc2":"","admin1_code":"30","admin2_code":"","admin3_code":"","admin4_code":"","population":"0","elevation":"","dem":"383","timezone":"Asia/Jakarta","modification_date":"2012-01-21"},{"geonameid":"8024073","name":"Cigantang Hilir","asciiname":"Cigantang Hilir","alternatenames":"Cigantang Hilir","latitude":"-7.3606","longitude":"108.19","feature_class":"P","feature_code":"PPLA4","country_code":"ID","cc2":"","admin1_code":"30","admin2_code":"","admin3_code":"","admin4_code":"","population":"0","elevation":"","dem":"368","timezone":"Asia/Jakarta","modification_date":"2012-01-21"},{"geonameid":"8024080","name":"Panyarang","asciiname":"Panyarang","alternatenames":"Panyarang","latitude":"-7.3472","longitude":"108.1873","feature_class":"P","feature_code":"PPLA4","country_code":"ID","cc2":"","admin1_code":"30","admin2_code":"","admin3_code":"","admin4_code":"","population":"0","elevation":"","dem":"381","timezone":"Asia/Jakarta","modification_date":"2012-01-21"},{"geonameid":"8024084","name":"Cilingga","asciiname":"Cilingga","alternatenames":"Cilingga,Tjilingga","latitude":"-7.3373","longitude":"108.1984","feature_class":"P","feature_code":"PPLA4","country_code":"ID","cc2":"","admin1_code":"30","admin2_code":"","admin3_code":"","admin4_code":"","population":"0","elevation":"","dem":"382","timezone":"Asia/Jakarta","modification_date":"2012-01-21"},{"geonameid":"8024093","name":"Gunungsubang","asciiname":"Gunungsubang","alternatenames":"Goenoengsoebang,Gunungsubang","latitude":"-7.3716","longitude":"108.1949","feature_class":"P","feature_code":"PPLA4","country_code":"ID","cc2":"","admin1_code":"30","admin2_code":"","admin3_code":"","admin4_code":"","population":"0","elevation":"","dem":"340","timezone":"Asia/Jakarta","modification_date":"2012-01-21"},{"geonameid":"8024100","name":"Sengkol","asciiname":"Sengkol","alternatenames":"Sengkol","latitude":"-7.3711","longitude":"108.2135","feature_class":"P","feature_code":"PPLA4","country_code":"ID","cc2":"","admin1_code":"30","admin2_code":"","admin3_code":"","admin4_code":"","population":"0","elevation":"","dem":"343","timezone":"Asia/Jakarta","modification_date":"2012-01-21"},{"geonameid":"8024119","name":"Sambongpari","asciiname":"Sambongpari","alternatenames":"Sambongpari","latitude":"-7.3462","longitude":"108.205","feature_class":"P","feature_code":"PPLA4","country_code":"ID","cc2":"","admin1_code":"30","admin2_code":"","admin3_code":"","admin4_code":"","population":"0","elevation":"","dem":"367","timezone":"Asia/Jakarta","modification_date":"2012-01-21"},{"geonameid":"8024127","name":"Sukagenah","asciiname":"Sukagenah","alternatenames":"Sukagenah","latitude":"-7.3546","longitude":"108.2086","feature_class":"P","feature_code":"PPLA4","country_code":"ID","cc2":"","admin1_code":"30","admin2_code":"","admin3_code":"","admin4_code":"","population":"0","elevation":"","dem":"356","timezone":"Asia/Jakarta","modification_date":"2012-01-21"},{"geonameid":"8024129","name":"Tugusirna","asciiname":"Tugusirna","alternatenames":"Tugusirna","latitude":"-7.3441","longitude":"108.2158","feature_class":"P","feature_code":"PPLA4","country_code":"ID","cc2":"","admin1_code":"30","admin2_code":"","admin3_code":"","admin4_code":"","population":"0","elevation":"","dem":"355","timezone":"Asia/Jakarta","modification_date":"2012-01-21"},{"geonameid":"8024130","name":"Panututan","asciiname":"Panututan","alternatenames":"Panoetoetan,Panututan","latitude":"-7.341","longitude":"108.2088","feature_class":"P","feature_code":"PPLA4","country_code":"ID","cc2":"","admin1_code":"30","admin2_code":"","admin3_code":"","admin4_code":"","population":"0","elevation":"","dem":"363","timezone":"Asia/Jakarta","modification_date":"2012-01-21"},{"geonameid":"8024141","name":"Gunungkoneng","asciiname":"Gunungkoneng","alternatenames":"Gunungkoneng","latitude":"-7.3286","longitude":"108.2105","feature_class":"P","feature_code":"PPLA4","country_code":"ID","cc2":"","admin1_code":"30","admin2_code":"","admin3_code":"","admin4_code":"","population":"0","elevation":"","dem":"362","timezone":"Asia/Jakarta","modification_date":"2012-01-21"},{"geonameid":"8024142","name":"Yudanagara","asciiname":"Yudanagara","alternatenames":"Yudanagara","latitude":"-7.3307","longitude":"108.2164","feature_class":"P","feature_code":"PPLA4","country_code":"ID","cc2":"","admin1_code":"30","admin2_code":"","admin3_code":"","admin4_code":"","population":"0","elevation":"","dem":"358","timezone":"Asia/Jakarta","modification_date":"2012-01-21"},{"geonameid":"8024151","name":"Dadaha","asciiname":"Dadaha","alternatenames":"Dadaha","latitude":"-7.3343","longitude":"108.2221","feature_class":"P","feature_code":"PPLA4","country_code":"ID","cc2":"","admin1_code":"30","admin2_code":"","admin3_code":"","admin4_code":"","population":"0","elevation":"","dem":"351","timezone":"Asia/Jakarta","modification_date":"2012-01-21"},{"geonameid":"8024167","name":"Sukamaju","asciiname":"Sukamaju","alternatenames":"Sukamaju","latitude":"-7.3709","longitude":"108.2273","feature_class":"P","feature_code":"PPLA4","country_code":"ID","cc2":"","admin1_code":"30","admin2_code":"","admin3_code":"","admin4_code":"","population":"0","elevation":"","dem":"352","timezone":"Asia/Jakarta","modification_date":"2012-01-21"},{"geonameid":"8024174","name":"Kahuripan","asciiname":"Kahuripan","alternatenames":"Kahuripan","latitude":"-7.3471","longitude":"108.2281","feature_class":"P","feature_code":"PPLA3","country_code":"ID","cc2":"","admin1_code":"30","admin2_code":"","admin3_code":"","admin4_code":"","population":"0","elevation":"","dem":"353","timezone":"Asia/Jakarta","modification_date":"2012-01-21"},{"geonameid":"8024177","name":"Margalaksana","asciiname":"Margalaksana","alternatenames":"Margalaksana","latitude":"-7.3444","longitude":"108.224","feature_class":"P","feature_code":"PPLA4","country_code":"ID","cc2":"","admin1_code":"30","admin2_code":"","admin3_code":"","admin4_code":"","population":"0","elevation":"","dem":"354","timezone":"Asia/Jakarta","modification_date":"2012-01-21"},{"geonameid":"8024180","name":"Cikalang","asciiname":"Cikalang","alternatenames":"Cikalang,Tjikalang","latitude":"-7.339","longitude":"108.2306","feature_class":"P","feature_code":"PPLA4","country_code":"ID","cc2":"","admin1_code":"30","admin2_code":"","admin3_code":"","admin4_code":"","population":"0","elevation":"","dem":"346","timezone":"Asia/Jakarta","modification_date":"2012-01-21"},{"geonameid":"8024185","name":"Kebontiwu","asciiname":"Kebontiwu","alternatenames":"Kebontiwu","latitude":"-7.3299","longitude":"108.2274","feature_class":"P","feature_code":"PPLA4","country_code":"ID","cc2":"","admin1_code":"30","admin2_code":"","admin3_code":"","admin4_code":"","population":"0","elevation":"","dem":"347","timezone":"Asia/Jakarta","modification_date":"2012-01-21"},{"geonameid":"8024197","name":"Siluman","asciiname":"Siluman","alternatenames":"Siluman","latitude":"-7.3421","longitude":"108.2365","feature_class":"P","feature_code":"PPLA4","country_code":"ID","cc2":"","admin1_code":"30","admin2_code":"","admin3_code":"","admin4_code":"","population":"0","elevation":"","dem":"344","timezone":"Asia/Jakarta","modification_date":"2012-01-21"},{"geonameid":"8024202","name":"Gunungmuncang","asciiname":"Gunungmuncang","alternatenames":"Goenoengmoentjang,Gunungmuncang","latitude":"-7.351","longitude":"108.2382","feature_class":"P","feature_code":"PPLA4","country_code":"ID","cc2":"","admin1_code":"30","admin2_code":"","admin3_code":"","admin4_code":"","population":"0","elevation":"","dem":"350","timezone":"Asia/Jakarta","modification_date":"2012-01-21"},{"geonameid":"8024210","name":"Rahayu Dua","asciiname":"Rahayu Dua","alternatenames":"Rahayu Dua","latitude":"-7.3722","longitude":"108.2349","feature_class":"P","feature_code":"PPLA4","country_code":"ID","cc2":"","admin1_code":"30","admin2_code":"","admin3_code":"","admin4_code":"","population":"0","elevation":"","dem":"359","timezone":"Asia/Jakarta","modification_date":"2012-01-21"},{"geonameid":"8024218","name":"Bantargedang","asciiname":"Bantargedang","alternatenames":"Bantargedang","latitude":"-7.3586","longitude":"108.2497","feature_class":"P","feature_code":"PPLA4","country_code":"ID","cc2":"","admin1_code":"30","admin2_code":"","admin3_code":"","admin4_code":"","population":"0","elevation":"","dem":"344","timezone":"Asia/Jakarta","modification_date":"2012-01-21"},{"geonameid":"8025595","name":"Bojongbenteng","asciiname":"Bojongbenteng","alternatenames":"Bodjongbenteng,Bojongbenteng","latitude":"-7.1278","longitude":"108.2102","feature_class":"P","feature_code":"PPLA4","country_code":"ID","cc2":"","admin1_code":"30","admin2_code":"","admin3_code":"","admin4_code":"","population":"0","elevation":"","dem":"491","timezone":"Asia/Jakarta","modification_date":"2012-01-21"},{"geonameid":"8025607","name":"Medangdatar","asciiname":"Medangdatar","alternatenames":"Medangdatar","latitude":"-7.1578","longitude":"108.1254","feature_class":"P","feature_code":"PPLA4","country_code":"ID","cc2":"","admin1_code":"30","admin2_code":"","admin3_code":"","admin4_code":"","population":"0","elevation":"","dem":"627","timezone":"Asia/Jakarta","modification_date":"2012-01-21"},{"geonameid":"8025618","name":"Tejakalapa","asciiname":"Tejakalapa","alternatenames":"Tedjakalapa,Tejakalapa,Tejakelapa","latitude":"-7.2324","longitude":"108.1252","feature_class":"P","feature_code":"PPLA4","country_code":"ID","cc2":"","admin1_code":"30","admin2_code":"","admin3_code":"","admin4_code":"","population":"0","elevation":"","dem":"800","timezone":"Asia/Jakarta","modification_date":"2012-01-21"},{"geonameid":"8025620","name":"Sukasetia","asciiname":"Sukasetia","alternatenames":"Sukasetia","latitude":"-7.2481","longitude":"108.1957","feature_class":"P","feature_code":"PPLA4","country_code":"ID","cc2":"","admin1_code":"30","admin2_code":"","admin3_code":"","admin4_code":"","population":"0","elevation":"","dem":"429","timezone":"Asia/Jakarta","modification_date":"2012-01-21"},{"geonameid":"8025624","name":"Nanggela","asciiname":"Nanggela","alternatenames":"Nangela,Nanggela","latitude":"-7.1327","longitude":"108.1321","feature_class":"P","feature_code":"PPLA4","country_code":"ID","cc2":"","admin1_code":"30","admin2_code":"","admin3_code":"","admin4_code":"","population":"0","elevation":"","dem":"508","timezone":"Asia/Jakarta","modification_date":"2012-01-21"},{"geonameid":"8025631","name":"Ciseuti Girang","asciiname":"Ciseuti Girang","alternatenames":"Ciseuti Girang","latitude":"-7.1289","longitude":"108.1703","feature_class":"P","feature_code":"PPLA4","country_code":"ID","cc2":"","admin1_code":"30","admin2_code":"","admin3_code":"","admin4_code":"","population":"0","elevation":"","dem":"494","timezone":"Asia/Jakarta","modification_date":"2012-01-21"},{"geonameid":"8025634","name":"Sukamaju","asciiname":"Sukamaju","alternatenames":"Sukamaju","latitude":"-7.1309","longitude":"108.1785","feature_class":"P","feature_code":"PPLA4","country_code":"ID","cc2":"","admin1_code":"30","admin2_code":"","admin3_code":"","admin4_code":"","population":"0","elevation":"","dem":"490","timezone":"Asia/Jakarta","modification_date":"2012-01-21"},{"geonameid":"8025643","name":"Sukasenang","asciiname":"Sukasenang","alternatenames":"Sukasenang","latitude":"-7.1287","longitude":"108.2273","feature_class":"P","feature_code":"PPLA4","country_code":"ID","cc2":"","admin1_code":"30","admin2_code":"","admin3_code":"","admin4_code":"","population":"0","elevation":"","dem":"484","timezone":"Asia/Jakarta","modification_date":"2012-01-21"},{"geonameid":"8025650","name":"Cimuncang","asciiname":"Cimuncang","alternatenames":"Cimuncang,Tjimoentjang Dua","latitude":"-7.1357","longitude":"108.2359","feature_class":"P","feature_code":"PPLA4","country_code":"ID","cc2":"","admin1_code":"30","admin2_code":"","admin3_code":"","admin4_code":"","population":"0","elevation":"","dem":"508","timezone":"Asia/Jakarta","modification_date":"2012-01-21"},{"geonameid":"8025656","name":"Ciroke","asciiname":"Ciroke","alternatenames":"Ciroke","latitude":"-7.1413","longitude":"108.2229","feature_class":"P","feature_code":"PPLA4","country_code":"ID","cc2":"","admin1_code":"30","admin2_code":"","admin3_code":"","admin4_code":"","population":"0","elevation":"","dem":"471","timezone":"Asia/Jakarta","modification_date":"2012-01-21"},{"geonameid":"8025663","name":"Panoongan","asciiname":"Panoongan","alternatenames":"Panoongan","latitude":"-7.1382","longitude":"108.2054","feature_class":"P","feature_code":"PPLA4","country_code":"ID","cc2":"","admin1_code":"30","admin2_code":"","admin3_code":"","admin4_code":"","population":"0","elevation":"","dem":"462","timezone":"Asia/Jakarta","modification_date":"2012-01-21"},{"geonameid":"8025675","name":"Tanjunghurip","asciiname":"Tanjunghurip","alternatenames":"Tanjunghurip","latitude":"-7.1425","longitude":"108.1637","feature_class":"P","feature_code":"PPLA4","country_code":"ID","cc2":"","admin1_code":"30","admin2_code":"","admin3_code":"","admin4_code":"","population":"0","elevation":"","dem":"480","timezone":"Asia/Jakarta","modification_date":"2012-01-21"},{"geonameid":"8025680","name":"Cijangkar","asciiname":"Cijangkar","alternatenames":"Cijangkar","latitude":"-7.1414","longitude":"108.1425","feature_class":"P","feature_code":"PPLA4","country_code":"ID","cc2":"","admin1_code":"30","admin2_code":"","admin3_code":"","admin4_code":"","population":"0","elevation":"","dem":"488","timezone":"Asia/Jakarta","modification_date":"2012-01-21"},{"geonameid":"8025691","name":"Sindangtamu","asciiname":"Sindangtamu","alternatenames":"Sindangtamu","latitude":"-7.1429","longitude":"108.1483","feature_class":"P","feature_code":"PPLA3","country_code":"ID","cc2":"","admin1_code":"30","admin2_code":"","admin3_code":"","admin4_code":"","population":"0","elevation":"","dem":"486","timezone":"Asia/Jakarta","modification_date":"2012-01-21"},{"geonameid":"8025692","name":"Rancakuya","asciiname":"Rancakuya","alternatenames":"Rancakuya","latitude":"-7.1448","longitude":"108.1472","feature_class":"P","feature_code":"PPLA4","country_code":"ID","cc2":"","admin1_code":"30","admin2_code":"","admin3_code":"","admin4_code":"","population":"0","elevation":"","dem":"484","timezone":"Asia/Jakarta","modification_date":"2012-01-21"},{"geonameid":"8025709","name":"Sukapancar","asciiname":"Sukapancar","alternatenames":"Soekapantjar,Sukapancar","latitude":"-7.142","longitude":"108.1808","feature_class":"P","feature_code":"PPLA4","country_code":"ID","cc2":"","admin1_code":"30","admin2_code":"","admin3_code":"","admin4_code":"","population":"0","elevation":"","dem":"467","timezone":"Asia/Jakarta","modification_date":"2012-01-21"},{"geonameid":"8025714","name":"Banjarsari","asciiname":"Banjarsari","alternatenames":"Bandjarsari,Banjarsari","latitude":"-7.1508","longitude":"108.1902","feature_class":"P","feature_code":"PPLA4","country_code":"ID","cc2":"","admin1_code":"30","admin2_code":"","admin3_code":"","admin4_code":"","population":"0","elevation":"","dem":"463","timezone":"Asia/Jakarta","modification_date":"2012-01-21"},{"geonameid":"8025718","name":"Cicalung","asciiname":"Cicalung","alternatenames":"Cicalung","latitude":"-7.142","longitude":"108.2005","feature_class":"P","feature_code":"PPLA4","country_code":"ID","cc2":"","admin1_code":"30","admin2_code":"","admin3_code":"","admin4_code":"","population":"0","elevation":"","dem":"461","timezone":"Asia/Jakarta","modification_date":"2012-01-21"},{"geonameid":"8025721","name":"Sukaraja","asciiname":"Sukaraja","alternatenames":"Soekaradja Dua,Sukaraja","latitude":"-7.1466","longitude":"108.214","feature_class":"P","feature_code":"PPLA3","country_code":"ID","cc2":"","admin1_code":"30","admin2_code":"","admin3_code":"","admin4_code":"","population":"0","elevation":"","dem":"481","timezone":"Asia/Jakarta","modification_date":"2012-01-21"},{"geonameid":"8025722","name":"Sukasari","asciiname":"Sukasari","alternatenames":"Sukasari","latitude":"-7.1481","longitude":"108.2149","feature_class":"P","feature_code":"PPLA4","country_code":"ID","cc2":"","admin1_code":"30","admin2_code":"","admin3_code":"","admin4_code":"","population":"0","elevation":"","dem":"507","timezone":"Asia/Jakarta","modification_date":"2012-01-21"},{"geonameid":"8025732","name":"Cibeureum","asciiname":"Cibeureum","alternatenames":"Cibeureum,Tjibeureum","latitude":"-7.1529","longitude":"108.2084","feature_class":"P","feature_code":"PPLA4","country_code":"ID","cc2":"","admin1_code":"30","admin2_code":"","admin3_code":"","admin4_code":"","population":"0","elevation":"","dem":"468","timezone":"Asia/Jakarta","modification_date":"2012-01-21"},{"geonameid":"8025742","name":"Cihanjuang","asciiname":"Cihanjuang","alternatenames":"Cihanjuang","latitude":"-7.156","longitude":"108.1897","feature_class":"P","feature_code":"PPLA4","country_code":"ID","cc2":"","admin1_code":"30","admin2_code":"","admin3_code":"","admin4_code":"","population":"0","elevation":"","dem":"469","timezone":"Asia/Jakarta","modification_date":"2012-01-21"},{"geonameid":"8025763","name":"Pakemitan","asciiname":"Pakemitan","alternatenames":"Pakemitan,Pakemitan-kidoel","latitude":"-7.1571","longitude":"108.1494","feature_class":"P","feature_code":"PPLA4","country_code":"ID","cc2":"","admin1_code":"30","admin2_code":"","admin3_code":"","admin4_code":"","population":"0","elevation":"","dem":"507","timezone":"Asia/Jakarta","modification_date":"2012-01-21"},{"geonameid":"8025767","name":"Asem","asciiname":"Asem","alternatenames":"Asem","latitude":"-7.1567","longitude":"108.1432","feature_class":"P","feature_code":"PPLA4","country_code":"ID","cc2":"","admin1_code":"30","admin2_code":"","admin3_code":"","admin4_code":"","population":"0","elevation":"","dem":"510","timezone":"Asia/Jakarta","modification_date":"2012-01-21"},{"geonameid":"8025783","name":"Kaum Kaler","asciiname":"Kaum Kaler","alternatenames":"Kaum Kaler","latitude":"-7.159","longitude":"108.1477","feature_class":"P","feature_code":"PPLA4","country_code":"ID","cc2":"","admin1_code":"30","admin2_code":"","admin3_code":"","admin4_code":"","population":"0","elevation":"","dem":"517","timezone":"Asia/Jakarta","modification_date":"2012-01-21"},{"geonameid":"8025786","name":"Kudang","asciiname":"Kudang","alternatenames":"Kudang","latitude":"-7.1641","longitude":"108.1519","feature_class":"P","feature_code":"PPLA4","country_code":"ID","cc2":"","admin1_code":"30","admin2_code":"","admin3_code":"","admin4_code":"","population":"0","elevation":"","dem":"518","timezone":"Asia/Jakarta","modification_date":"2012-01-21"},{"geonameid":"8025794","name":"Cipanjang","asciiname":"Cipanjang","alternatenames":"Cipanjang,Tjipandjang","latitude":"-7.1599","longitude":"108.1684","feature_class":"P","feature_code":"PPLA4","country_code":"ID","cc2":"","admin1_code":"30","admin2_code":"","admin3_code":"","admin4_code":"","population":"0","elevation":"","dem":"491","timezone":"Asia/Jakarta","modification_date":"2012-01-21"},{"geonameid":"8025801","name":"Sindangharja","asciiname":"Sindangharja","alternatenames":"Sindangharja","latitude":"-7.1611","longitude":"108.1848","feature_class":"P","feature_code":"PPLA4","country_code":"ID","cc2":"","admin1_code":"30","admin2_code":"","admin3_code":"","admin4_code":"","population":"0","elevation":"","dem":"468","timezone":"Asia/Jakarta","modification_date":"2012-01-21"},{"geonameid":"8025807","name":"Babakan","asciiname":"Babakan","alternatenames":"Babakan","latitude":"-7.1617","longitude":"108.2039","feature_class":"P","feature_code":"PPLA4","country_code":"ID","cc2":"","admin1_code":"30","admin2_code":"","admin3_code":"","admin4_code":"","population":"0","elevation":"","dem":"481","timezone":"Asia/Jakarta","modification_date":"2012-01-21"},{"geonameid":"8025818","name":"Sukamenak","asciiname":"Sukamenak","alternatenames":"Soekamenak Satu,Sukamenak","latitude":"-7.1692","longitude":"108.1812","feature_class":"P","feature_code":"PPLA4","country_code":"ID","cc2":"","admin1_code":"30","admin2_code":"","admin3_code":"","admin4_code":"","population":"0","elevation":"","dem":"481","timezone":"Asia/Jakarta","modification_date":"2012-01-21"},{"geonameid":"8025826","name":"Sukasenang","asciiname":"Sukasenang","alternatenames":"Sukasenang","latitude":"-7.17","longitude":"108.1669","feature_class":"P","feature_code":"PPLA4","country_code":"ID","cc2":"","admin1_code":"30","admin2_code":"","admin3_code":"","admin4_code":"","population":"0","elevation":"","dem":"505","timezone":"Asia/Jakarta","modification_date":"2012-01-21"},{"geonameid":"8025827","name":"Gereba","asciiname":"Gereba","alternatenames":"Gereba","latitude":"-7.1716","longitude":"108.154","feature_class":"P","feature_code":"PPLA4","country_code":"ID","cc2":"","admin1_code":"30","admin2_code":"","admin3_code":"","admin4_code":"","population":"0","elevation":"","dem":"561","timezone":"Asia/Jakarta","modification_date":"2012-01-21"},{"geonameid":"8025840","name":"Anto","asciiname":"Anto","alternatenames":"Anto","latitude":"-7.1684","longitude":"108.1309","feature_class":"P","feature_code":"PPLA4","country_code":"ID","cc2":"","admin1_code":"30","admin2_code":"","admin3_code":"","admin4_code":"","population":"0","elevation":"","dem":"611","timezone":"Asia/Jakarta","modification_date":"2012-01-21"},{"geonameid":"8025845","name":"Bugel","asciiname":"Bugel","alternatenames":"Boegel,Bugel","latitude":"-7.184","longitude":"108.1298","feature_class":"P","feature_code":"PPLA4","country_code":"ID","cc2":"","admin1_code":"30","admin2_code":"","admin3_code":"","admin4_code":"","population":"0","elevation":"","dem":"746","timezone":"Asia/Jakarta","modification_date":"2012-01-21"},{"geonameid":"8025859","name":"Ciomas","asciiname":"Ciomas","alternatenames":"Ciomas,Tjiomas Dua","latitude":"-7.1783","longitude":"108.1691","feature_class":"P","feature_code":"PPLA4","country_code":"ID","cc2":"","admin1_code":"30","admin2_code":"","admin3_code":"","admin4_code":"","population":"0","elevation":"","dem":"511","timezone":"Asia/Jakarta","modification_date":"2012-01-21"},{"geonameid":"8025865","name":"Rajamandala","asciiname":"Rajamandala","alternatenames":"Rajamandala","latitude":"-7.1838","longitude":"108.1818","feature_class":"P","feature_code":"PPLA4","country_code":"ID","cc2":"","admin1_code":"30","admin2_code":"","admin3_code":"","admin4_code":"","population":"0","elevation":"","dem":"483","timezone":"Asia/Jakarta","modification_date":"2012-01-21"},{"geonameid":"8025870","name":"Pasireurih","asciiname":"Pasireurih","alternatenames":"Pasireurih","latitude":"-7.1758","longitude":"108.1982","feature_class":"P","feature_code":"PPLA4","country_code":"ID","cc2":"","admin1_code":"30","admin2_code":"","admin3_code":"","admin4_code":"","population":"0","elevation":"","dem":"459","timezone":"Asia/Jakarta","modification_date":"2012-01-21"},{"geonameid":"8025880","name":"Jamanis","asciiname":"Jamanis","alternatenames":"Djamanis,Jamanis","latitude":"-7.1894","longitude":"108.1836","feature_class":"P","feature_code":"PPLA3","country_code":"ID","cc2":"","admin1_code":"30","admin2_code":"","admin3_code":"","admin4_code":"","population":"0","elevation":"","dem":"480","timezone":"Asia/Jakarta","modification_date":"2012-01-21"},{"geonameid":"8025883","name":"Nyalindung","asciiname":"Nyalindung","alternatenames":"Njalindoeng Satu,Nyalindung","latitude":"-7.1913","longitude":"108.1762","feature_class":"P","feature_code":"PPLA4","country_code":"ID","cc2":"","admin1_code":"30","admin2_code":"","admin3_code":"","admin4_code":"","population":"0","elevation":"","dem":"505","timezone":"Asia/Jakarta","modification_date":"2012-01-21"},{"geonameid":"8025893","name":"Sangiangteras","asciiname":"Sangiangteras","alternatenames":"Sangiangteras","latitude":"-7.1861","longitude":"108.1542","feature_class":"P","feature_code":"PPLA4","country_code":"ID","cc2":"","admin1_code":"30","admin2_code":"","admin3_code":"","admin4_code":"","population":"0","elevation":"","dem":"613","timezone":"Asia/Jakarta","modification_date":"2012-01-21"},{"geonameid":"8025917","name":"Timbulsari","asciiname":"Timbulsari","alternatenames":"Timbulsari","latitude":"-7.1925","longitude":"108.151","feature_class":"P","feature_code":"PPLA4","country_code":"ID","cc2":"","admin1_code":"30","admin2_code":"","admin3_code":"","admin4_code":"","population":"0","elevation":"","dem":"643","timezone":"Asia/Jakarta","modification_date":"2012-01-21"},{"geonameid":"8025918","name":"Condong","asciiname":"Condong","alternatenames":"Condong,Tjondong Satu","latitude":"-7.1981","longitude":"108.1573","feature_class":"P","feature_code":"PPLA4","country_code":"ID","cc2":"","admin1_code":"30","admin2_code":"","admin3_code":"","admin4_code":"","population":"0","elevation":"","dem":"603","timezone":"Asia/Jakarta","modification_date":"2012-01-21"},{"geonameid":"8025927","name":"Singabarong","asciiname":"Singabarong","alternatenames":"Singabarong","latitude":"-7.1984","longitude":"108.1785","feature_class":"P","feature_code":"PPLA4","country_code":"ID","cc2":"","admin1_code":"30","admin2_code":"","admin3_code":"","admin4_code":"","population":"0","elevation":"","dem":"505","timezone":"Asia/Jakarta","modification_date":"2012-01-21"},{"geonameid":"8025938","name":"Kampungdesa Pamokolan","asciiname":"Kampungdesa Pamokolan","alternatenames":"Kampungdesa Pamokolan","latitude":"-7.1971","longitude":"108.2","feature_class":"P","feature_code":"PPLA4","country_code":"ID","cc2":"","admin1_code":"30","admin2_code":"","admin3_code":"","admin4_code":"","population":"0","elevation":"","dem":"458","timezone":"Asia/Jakarta","modification_date":"2012-01-21"},{"geonameid":"8025949","name":"Padamulya","asciiname":"Padamulya","alternatenames":"Padamulya","latitude":"-7.2028","longitude":"108.2022","feature_class":"P","feature_code":"PPLA4","country_code":"ID","cc2":"","admin1_code":"30","admin2_code":"","admin3_code":"","admin4_code":"","population":"0","elevation":"","dem":"476","timezone":"Asia/Jakarta","modification_date":"2012-01-21"},{"geonameid":"8025957","name":"Ciinjuk","asciiname":"Ciinjuk","alternatenames":"Ciinjuk,Tjiindjoek","latitude":"-7.2069","longitude":"108.1868","feature_class":"P","feature_code":"PPLA4","country_code":"ID","cc2":"","admin1_code":"30","admin2_code":"","admin3_code":"","admin4_code":"","population":"0","elevation":"","dem":"475","timezone":"Asia/Jakarta","modification_date":"2012-01-21"},{"geonameid":"8025966","name":"Sukahening","asciiname":"Sukahening","alternatenames":"Soekahening,Sukahening","latitude":"-7.2057","longitude":"108.152","feature_class":"P","feature_code":"PPLA4","country_code":"ID","cc2":"","admin1_code":"30","admin2_code":"","admin3_code":"","admin4_code":"","population":"0","elevation":"","dem":"645","timezone":"Asia/Jakarta","modification_date":"2012-01-21"},{"geonameid":"8025974","name":"Cijoho","asciiname":"Cijoho","alternatenames":"Cijoho","latitude":"-7.2064","longitude":"108.1312","feature_class":"P","feature_code":"PPLA4","country_code":"ID","cc2":"","admin1_code":"30","admin2_code":"","admin3_code":"","admin4_code":"","population":"0","elevation":"","dem":"796","timezone":"Asia/Jakarta","modification_date":"2012-01-21"},{"geonameid":"8025980","name":"Ciengang","asciiname":"Ciengang","alternatenames":"Ciengang,Tjiengang","latitude":"-7.218","longitude":"108.1327","feature_class":"P","feature_code":"PPLA4","country_code":"ID","cc2":"","admin1_code":"30","admin2_code":"","admin3_code":"","admin4_code":"","population":"0","elevation":"","dem":"791","timezone":"Asia/Jakarta","modification_date":"2012-01-21"},{"geonameid":"8025989","name":"Cihateup","asciiname":"Cihateup","alternatenames":"Cihateup","latitude":"-7.2139","longitude":"108.17","feature_class":"P","feature_code":"PPLA4","country_code":"ID","cc2":"","admin1_code":"30","admin2_code":"","admin3_code":"","admin4_code":"","population":"0","elevation":"","dem":"534","timezone":"Asia/Jakarta","modification_date":"2012-01-21"},{"geonameid":"8025990","name":"Sukaraja","asciiname":"Sukaraja","alternatenames":"Sukaraja","latitude":"-7.2116","longitude":"108.1768","feature_class":"P","feature_code":"PPLA4","country_code":"ID","cc2":"","admin1_code":"30","admin2_code":"","admin3_code":"","admin4_code":"","population":"0","elevation":"","dem":"514","timezone":"Asia/Jakarta","modification_date":"2012-01-21"},{"geonameid":"8026002","name":"Pasirtamiang","asciiname":"Pasirtamiang","alternatenames":"Pasirtamiang","latitude":"-7.2114","longitude":"108.2097","feature_class":"P","feature_code":"PPLA4","country_code":"ID","cc2":"","admin1_code":"30","admin2_code":"","admin3_code":"","admin4_code":"","population":"0","elevation":"","dem":"549","timezone":"Asia/Jakarta","modification_date":"2012-01-21"},{"geonameid":"8026013","name":"Dusun Tengah Cihaurbeuti","asciiname":"Dusun Tengah Cihaurbeuti","alternatenames":"Dusun Tengah Cihaurbeuti","latitude":"-7.2248","longitude":"108.2027","feature_class":"P","feature_code":"PPLA4","country_code":"ID","cc2":"","admin1_code":"30","admin2_code":"","admin3_code":"","admin4_code":"","population":"0","elevation":"","dem":"448","timezone":"Asia/Jakarta","modification_date":"2012-01-21"},{"geonameid":"8026018","name":"Pasarlama","asciiname":"Pasarlama","alternatenames":"Pasarlama","latitude":"-7.2227","longitude":"108.1898","feature_class":"P","feature_code":"PPLA4","country_code":"ID","cc2":"","admin1_code":"30","admin2_code":"","admin3_code":"","admin4_code":"","population":"0","elevation":"","dem":"460","timezone":"Asia/Jakarta","modification_date":"2012-01-21"},{"geonameid":"8026030","name":"Cikadu","asciiname":"Cikadu","alternatenames":"Cikadu,Tjikadoe Dua","latitude":"-7.224","longitude":"108.1738","feature_class":"P","feature_code":"PPLA4","country_code":"ID","cc2":"","admin1_code":"30","admin2_code":"","admin3_code":"","admin4_code":"","population":"0","elevation":"","dem":"507","timezone":"Asia/Jakarta","modification_date":"2012-01-21"},{"geonameid":"8026039","name":"Sukasenang","asciiname":"Sukasenang","alternatenames":"Sukasenang","latitude":"-7.2191","longitude":"108.1565","feature_class":"P","feature_code":"PPLA4","country_code":"ID","cc2":"","admin1_code":"30","admin2_code":"","admin3_code":"","admin4_code":"","population":"0","elevation":"","dem":"599","timezone":"Asia/Jakarta","modification_date":"2012-01-21"},{"geonameid":"8026047","name":"Sukasetia","asciiname":"Sukasetia","alternatenames":"Sukasetia","latitude":"-7.2313","longitude":"108.1308","feature_class":"P","feature_code":"PPLA4","country_code":"ID","cc2":"","admin1_code":"30","admin2_code":"","admin3_code":"","admin4_code":"","population":"0","elevation":"","dem":"781","timezone":"Asia/Jakarta","modification_date":"2012-01-21"},{"geonameid":"8026055","name":"Cigebay","asciiname":"Cigebay","alternatenames":"Cigebay","latitude":"-7.2275","longitude":"108.162","feature_class":"P","feature_code":"PPLA4","country_code":"ID","cc2":"","admin1_code":"30","admin2_code":"","admin3_code":"","admin4_code":"","population":"0","elevation":"","dem":"540","timezone":"Asia/Jakarta","modification_date":"2012-01-21"},{"geonameid":"8026058","name":"Sirnarasa","asciiname":"Sirnarasa","alternatenames":"Sirnarasa","latitude":"-7.2338","longitude":"108.1632","feature_class":"P","feature_code":"PPLA4","country_code":"ID","cc2":"","admin1_code":"30","admin2_code":"","admin3_code":"","admin4_code":"","population":"0","elevation":"","dem":"511","timezone":"Asia/Jakarta","modification_date":"2012-01-21"},{"geonameid":"8026069","name":"Dawagung","asciiname":"Dawagung","alternatenames":"Dawagoeng,Dawagung","latitude":"-7.2345","longitude":"108.1884","feature_class":"P","feature_code":"PPLA4","country_code":"ID","cc2":"","admin1_code":"30","admin2_code":"","admin3_code":"","admin4_code":"","population":"0","elevation":"","dem":"452","timezone":"Asia/Jakarta","modification_date":"2012-01-21"},{"geonameid":"8026091","name":"Sukamaju","asciiname":"Sukamaju","alternatenames":"Sukamaju","latitude":"-7.2416","longitude":"108.2205","feature_class":"P","feature_code":"PPLA4","country_code":"ID","cc2":"","admin1_code":"30","admin2_code":"","admin3_code":"","admin4_code":"","population":"0","elevation":"","dem":"573","timezone":"Asia/Jakarta","modification_date":"2012-01-21"},{"geonameid":"8026094","name":"Nanggela","asciiname":"Nanggela","alternatenames":"Nanggela","latitude":"-7.2416","longitude":"108.1963","feature_class":"P","feature_code":"PPLA4","country_code":"ID","cc2":"","admin1_code":"30","admin2_code":"","admin3_code":"","admin4_code":"","population":"0","elevation":"","dem":"454","timezone":"Asia/Jakarta","modification_date":"2012-01-21"},{"geonameid":"8026120","name":"Jantake","asciiname":"Jantake","alternatenames":"Djantaka,Jantake","latitude":"-7.2475","longitude":"108.1563","feature_class":"P","feature_code":"PPLA4","country_code":"ID","cc2":"","admin1_code":"30","admin2_code":"","admin3_code":"","admin4_code":"","population":"0","elevation":"","dem":"547","timezone":"Asia/Jakarta","modification_date":"2012-01-21"},{"geonameid":"8026128","name":"Sariwangi","asciiname":"Sariwangi","alternatenames":"Sariwangi","latitude":"-7.2459","longitude":"108.1805","feature_class":"P","feature_code":"PPLA4","country_code":"ID","cc2":"","admin1_code":"30","admin2_code":"","admin3_code":"","admin4_code":"","population":"0","elevation":"","dem":"470","timezone":"Asia/Jakarta","modification_date":"2012-01-21"},{"geonameid":"8028720","name":"Sukadana","asciiname":"Sukadana","alternatenames":"Soekadana,Sukadana","latitude":"-7.0179","longitude":"108.2228","feature_class":"P","feature_code":"PPLA4","country_code":"ID","cc2":"","admin1_code":"30","admin2_code":"","admin3_code":"","admin4_code":"","population":"0","elevation":"","dem":"547","timezone":"Asia/Jakarta","modification_date":"2012-01-21"},{"geonameid":"8028740","name":"Desa Sindanghurip","asciiname":"Desa Sindanghurip","alternatenames":"Desa Sindanghurip","latitude":"-7.0168","longitude":"108.242","feature_class":"P","feature_code":"PPLA4","country_code":"ID","cc2":"","admin1_code":"30","admin2_code":"","admin3_code":"","admin4_code":"","population":"0","elevation":"","dem":"497","timezone":"Asia/Jakarta","modification_date":"2012-01-21"},{"geonameid":"8028755","name":"Bangbayang","asciiname":"Bangbayang","alternatenames":"Bangbajang,Bangbayang","latitude":"-7.0393","longitude":"108.2058","feature_class":"P","feature_code":"PPLA4","country_code":"ID","cc2":"","admin1_code":"30","admin2_code":"","admin3_code":"","admin4_code":"","population":"0","elevation":"","dem":"856","timezone":"Asia/Jakarta","modification_date":"2012-01-21"},{"geonameid":"8028758","name":"Buninegara","asciiname":"Buninegara","alternatenames":"Boeninagara,Buninegara","latitude":"-7.0382","longitude":"108.227","feature_class":"P","feature_code":"PPLA4","country_code":"ID","cc2":"","admin1_code":"30","admin2_code":"","admin3_code":"","admin4_code":"","population":"0","elevation":"","dem":"674","timezone":"Asia/Jakarta","modification_date":"2012-01-21"},{"geonameid":"8028765","name":"Desa Borogojol","asciiname":"Desa Borogojol","alternatenames":"Brogodjol,Desa Borogojol","latitude":"-7.0438","longitude":"108.1819","feature_class":"P","feature_code":"PPLA4","country_code":"ID","cc2":"","admin1_code":"30","admin2_code":"","admin3_code":"","admin4_code":"","population":"0","elevation":"","dem":"926","timezone":"Asia/Jakarta","modification_date":"2012-01-21"},{"geonameid":"8028797","name":"Sindangbarang","asciiname":"Sindangbarang","alternatenames":"Sindangbarang","latitude":"-7.0791","longitude":"108.2059","feature_class":"P","feature_code":"PPLA4","country_code":"ID","cc2":"","admin1_code":"30","admin2_code":"","admin3_code":"","admin4_code":"","population":"0","elevation":"","dem":"643","timezone":"Asia/Jakarta","modification_date":"2012-01-21"},{"geonameid":"8028827","name":"Nanggewer","asciiname":"Nanggewer","alternatenames":"Nanggewer","latitude":"-7.1016","longitude":"108.1629","feature_class":"P","feature_code":"PPLA4","country_code":"ID","cc2":"","admin1_code":"30","admin2_code":"","admin3_code":"","admin4_code":"","population":"0","elevation":"","dem":"590","timezone":"Asia/Jakarta","modification_date":"2012-01-21"},{"geonameid":"8028845","name":"Pamekaran","asciiname":"Pamekaran","alternatenames":"Pamekaran","latitude":"-7.1087","longitude":"108.2441","feature_class":"P","feature_code":"PPLA4","country_code":"ID","cc2":"","admin1_code":"30","admin2_code":"","admin3_code":"","admin4_code":"","population":"0","elevation":"","dem":"603","timezone":"Asia/Jakarta","modification_date":"2012-01-21"},{"geonameid":"8028851","name":"Puteran Kidul","asciiname":"Puteran Kidul","alternatenames":"Puteran Kidul","latitude":"-7.1189","longitude":"108.1996","feature_class":"P","feature_code":"PPLA4","country_code":"ID","cc2":"","admin1_code":"30","admin2_code":"","admin3_code":"","admin4_code":"","population":"0","elevation":"","dem":"482","timezone":"Asia/Jakarta","modification_date":"2012-01-21"},{"geonameid":"8028855","name":"Pagerageung Tengah","asciiname":"Pagerageung Tengah","alternatenames":"Pagerageung Tengah","latitude":"-7.1103","longitude":"108.1664","feature_class":"P","feature_code":"PPLA4","country_code":"ID","cc2":"","admin1_code":"30","admin2_code":"","admin3_code":"","admin4_code":"","population":"0","elevation":"","dem":"551","timezone":"Asia/Jakarta","modification_date":"2012-01-21"},{"geonameid":"8028859","name":"Citeureup","asciiname":"Citeureup","alternatenames":"Citeureup","latitude":"-7.118","longitude":"108.1493","feature_class":"P","feature_code":"PPLA4","country_code":"ID","cc2":"","admin1_code":"30","admin2_code":"","admin3_code":"","admin4_code":"","population":"0","elevation":"","dem":"520","timezone":"Asia/Jakarta","modification_date":"2012-01-21"},{"geonameid":"8028866","name":"Tagog","asciiname":"Tagog","alternatenames":"Tagog","latitude":"-7.121","longitude":"108.1397","feature_class":"P","feature_code":"PPLA4","country_code":"ID","cc2":"","admin1_code":"30","admin2_code":"","admin3_code":"","admin4_code":"","population":"0","elevation":"","dem":"541","timezone":"Asia/Jakarta","modification_date":"2012-01-21"},{"geonameid":"8028876","name":"Cimanglid","asciiname":"Cimanglid","alternatenames":"Cimanglid","latitude":"-7.1173","longitude":"108.1831","feature_class":"P","feature_code":"PPLA4","country_code":"ID","cc2":"","admin1_code":"30","admin2_code":"","admin3_code":"","admin4_code":"","population":"0","elevation":"","dem":"526","timezone":"Asia/Jakarta","modification_date":"2012-01-21"},{"geonameid":"8028888","name":"Payungsari","asciiname":"Payungsari","alternatenames":"Pajoengsari,Payungsari","latitude":"-7.1207","longitude":"108.2397","feature_class":"P","feature_code":"PPLA4","country_code":"ID","cc2":"","admin1_code":"30","admin2_code":"","admin3_code":"","admin4_code":"","population":"0","elevation":"","dem":"533","timezone":"Asia/Jakarta","modification_date":"2012-01-21"},{"geonameid":"8033531","name":"Kalapanunggal","asciiname":"Kalapanunggal","alternatenames":"Kalapanunggal","latitude":"-7.2146","longitude":"107.0047","feature_class":"P","feature_code":"PPLA4","country_code":"ID","cc2":"","admin1_code":"30","admin2_code":"","admin3_code":"","admin4_code":"","population":"0","elevation":"","dem":"347","timezone":"Asia/Jakarta","modification_date":"2012-01-21"},{"geonameid":"8038921","name":"Cimalati","asciiname":"Cimalati","alternatenames":"Cimalati,Tjimalati","latitude":"-7.3932","longitude":"107.2169","feature_class":"P","feature_code":"PPLA4","country_code":"ID","cc2":"","admin1_code":"30","admin2_code":"","admin3_code":"","admin4_code":"","population":"0","elevation":"","dem":"282","timezone":"Asia/Jakarta","modification_date":"2012-01-21"},{"geonameid":"8038970","name":"Simpang","asciiname":"Simpang","alternatenames":"Simpang,Simpang Dua","latitude":"-7.4188","longitude":"107.1592","feature_class":"P","feature_code":"PPLA4","country_code":"ID","cc2":"","admin1_code":"30","admin2_code":"","admin3_code":"","admin4_code":"","population":"0","elevation":"","dem":"16","timezone":"Asia/Jakarta","modification_date":"2012-01-21"},{"geonameid":"8039012","name":"Puncak","asciiname":"Puncak","alternatenames":"Puncak","latitude":"-7.4487","longitude":"107.126","feature_class":"P","feature_code":"PPLA4","country_code":"ID","cc2":"","admin1_code":"30","admin2_code":"","admin3_code":"","admin4_code":"","population":"0","elevation":"","dem":"34","timezone":"Asia/Jakarta","modification_date":"2012-01-21"},{"geonameid":"8039079","name":"Cigarogol","asciiname":"Cigarogol","alternatenames":"Cigarogol,Tjigarogol","latitude":"-7.4752","longitude":"107.2076","feature_class":"P","feature_code":"PPLA4","country_code":"ID","cc2":"","admin1_code":"30","admin2_code":"","admin3_code":"","admin4_code":"","population":"0","elevation":"","dem":"10","timezone":"Asia/Jakarta","modification_date":"2012-01-21"},{"geonameid":"8041292","name":"Bebedahan","asciiname":"Bebedahan","alternatenames":"Bebedahan","latitude":"-7.2586","longitude":"107.1401","feature_class":"P","feature_code":"PPLA4","country_code":"ID","cc2":"","admin1_code":"30","admin2_code":"","admin3_code":"","admin4_code":"","population":"0","elevation":"","dem":"336","timezone":"Asia/Jakarta","modification_date":"2012-01-21"},{"geonameid":"8041301","name":"Tanggeung Kolot","asciiname":"Tanggeung Kolot","alternatenames":"Tanggeung Kolot","latitude":"-7.2758","longitude":"107.1329","feature_class":"P","feature_code":"PPLA4","country_code":"ID","cc2":"","admin1_code":"30","admin2_code":"","admin3_code":"","admin4_code":"","population":"0","elevation":"","dem":"333","timezone":"Asia/Jakarta","modification_date":"2012-01-21"},{"geonameid":"8041334","name":"Cireundeu","asciiname":"Cireundeu","alternatenames":"Cireundeu","latitude":"-7.3234","longitude":"107.1565","feature_class":"P","feature_code":"PPLA4","country_code":"ID","cc2":"","admin1_code":"30","admin2_code":"","admin3_code":"","admin4_code":"","population":"0","elevation":"","dem":"522","timezone":"Asia/Jakarta","modification_date":"2012-01-21"},{"geonameid":"8041353","name":"Gunungbatu","asciiname":"Gunungbatu","alternatenames":"Goenoengbatoe,Gunungbatu","latitude":"-7.2519","longitude":"107.164","feature_class":"P","feature_code":"PPLA4","country_code":"ID","cc2":"","admin1_code":"30","admin2_code":"","admin3_code":"","admin4_code":"","population":"0","elevation":"","dem":"539","timezone":"Asia/Jakarta","modification_date":"2012-01-21"},{"geonameid":"8041369","name":"Pamadangan","asciiname":"Pamadangan","alternatenames":"Pamadangan,Tjipamadangan","latitude":"-7.3335","longitude":"107.1738","feature_class":"P","feature_code":"PPLA4","country_code":"ID","cc2":"","admin1_code":"30","admin2_code":"","admin3_code":"","admin4_code":"","population":"0","elevation":"","dem":"490","timezone":"Asia/Jakarta","modification_date":"2012-01-21"},{"geonameid":"8041416","name":"Panineungan","asciiname":"Panineungan","alternatenames":"Panineungan","latitude":"-7.2725","longitude":"107.1956","feature_class":"P","feature_code":"PPLA4","country_code":"ID","cc2":"","admin1_code":"30","admin2_code":"","admin3_code":"","admin4_code":"","population":"0","elevation":"","dem":"796","timezone":"Asia/Jakarta","modification_date":"2012-01-21"},{"geonameid":"8041444","name":"Solokpandan","asciiname":"Solokpandan","alternatenames":"Solokpandan","latitude":"-7.336","longitude":"107.2015","feature_class":"P","feature_code":"PPLA4","country_code":"ID","cc2":"","admin1_code":"30","admin2_code":"","admin3_code":"","admin4_code":"","population":"0","elevation":"","dem":"249","timezone":"Asia/Jakarta","modification_date":"2012-01-21"},{"geonameid":"8041499","name":"Cibitung","asciiname":"Cibitung","alternatenames":"Cibitung","latitude":"-7.3492","longitude":"107.2307","feature_class":"P","feature_code":"PPLA4","country_code":"ID","cc2":"","admin1_code":"30","admin2_code":"","admin3_code":"","admin4_code":"","population":"0","elevation":"","dem":"555","timezone":"Asia/Jakarta","modification_date":"2012-01-21"},{"geonameid":"8042130","name":"Warungsimpang","asciiname":"Warungsimpang","alternatenames":"Waroengsimpang,Warungsimpang","latitude":"-7.0131","longitude":"107.1412","feature_class":"P","feature_code":"PPLA4","country_code":"ID","cc2":"","admin1_code":"30","admin2_code":"","admin3_code":"","admin4_code":"","population":"0","elevation":"","dem":"1017","timezone":"Asia/Jakarta","modification_date":"2012-01-21"},{"geonameid":"8042176","name":"Kebonkaret","asciiname":"Kebonkaret","alternatenames":"Kebonkaret","latitude":"-7.0558","longitude":"107.1591","feature_class":"P","feature_code":"PPLA4","country_code":"ID","cc2":"","admin1_code":"30","admin2_code":"","admin3_code":"","admin4_code":"","population":"0","elevation":"","dem":"1073","timezone":"Asia/Jakarta","modification_date":"2012-01-21"},{"geonameid":"8042206","name":"Kupel","asciiname":"Kupel","alternatenames":"Kupel","latitude":"-7.076","longitude":"107.1737","feature_class":"P","feature_code":"PPLA4","country_code":"ID","cc2":"","admin1_code":"30","admin2_code":"","admin3_code":"","admin4_code":"","population":"0","elevation":"","dem":"999","timezone":"Asia/Jakarta","modification_date":"2012-01-21"},{"geonameid":"8042229","name":"Walagar","asciiname":"Walagar","alternatenames":"Walagar","latitude":"-7.0743","longitude":"107.1963","feature_class":"P","feature_code":"PPLA4","country_code":"ID","cc2":"","admin1_code":"30","admin2_code":"","admin3_code":"","admin4_code":"","population":"0","elevation":"","dem":"947","timezone":"Asia/Jakarta","modification_date":"2012-01-21"},{"geonameid":"8042258","name":"Citamiang","asciiname":"Citamiang","alternatenames":"Citamiang","latitude":"-7.0714","longitude":"107.2036","feature_class":"P","feature_code":"PPLA4","country_code":"ID","cc2":"","admin1_code":"30","admin2_code":"","admin3_code":"","admin4_code":"","population":"0","elevation":"","dem":"970","timezone":"Asia/Jakarta","modification_date":"2012-01-21"},{"geonameid":"8042299","name":"Nagrog","asciiname":"Nagrog","alternatenames":"Nagrog","latitude":"-7.0347","longitude":"107.2297","feature_class":"P","feature_code":"PPLA4","country_code":"ID","cc2":"","admin1_code":"30","admin2_code":"","admin3_code":"","admin4_code":"","population":"0","elevation":"","dem":"1023","timezone":"Asia/Jakarta","modification_date":"2012-01-21"},{"geonameid":"8044747","name":"Karanganyar","asciiname":"Karanganyar","alternatenames":"Karanganjar Dua,Karanganyar","latitude":"-7.7926","longitude":"108.3405","feature_class":"P","feature_code":"PPLA4","country_code":"ID","cc2":"","admin1_code":"30","admin2_code":"","admin3_code":"","admin4_code":"","population":"0","elevation":"","dem":"73","timezone":"Asia/Jakarta","modification_date":"2012-01-21"},{"geonameid":"8044785","name":"Sukamenak","asciiname":"Sukamenak","alternatenames":"Sukamenak","latitude":"-7.8097","longitude":"108.3165","feature_class":"P","feature_code":"PPLA4","country_code":"ID","cc2":"","admin1_code":"30","admin2_code":"","admin3_code":"","admin4_code":"","population":"0","elevation":"","dem":"15","timezone":"Asia/Jakarta","modification_date":"2012-01-21"},{"geonameid":"8044844","name":"Cibongas","asciiname":"Cibongas","alternatenames":"Cibongas,Tjibongas","latitude":"-7.6593","longitude":"108.2721","feature_class":"P","feature_code":"PPLA3","country_code":"ID","cc2":"","admin1_code":"30","admin2_code":"","admin3_code":"","admin4_code":"","population":"0","elevation":"","dem":"189","timezone":"Asia/Jakarta","modification_date":"2012-01-21"},{"geonameid":"8044852","name":"Bojongsari","asciiname":"Bojongsari","alternatenames":"Bojongsari","latitude":"-7.6798","longitude":"108.2718","feature_class":"P","feature_code":"PPLA4","country_code":"ID","cc2":"","admin1_code":"30","admin2_code":"","admin3_code":"","admin4_code":"","population":"0","elevation":"","dem":"179","timezone":"Asia/Jakarta","modification_date":"2012-01-21"},{"geonameid":"8044868","name":"Rancabungur","asciiname":"Rancabungur","alternatenames":"Rancabungur","latitude":"-7.7359","longitude":"108.2792","feature_class":"P","feature_code":"PPLA4","country_code":"ID","cc2":"","admin1_code":"30","admin2_code":"","admin3_code":"","admin4_code":"","population":"0","elevation":"","dem":"102","timezone":"Asia/Jakarta","modification_date":"2012-01-21"},{"geonameid":"8044875","name":"Cibeureum","asciiname":"Cibeureum","alternatenames":"Cibeureum","latitude":"-7.63968","longitude":"108.29376","feature_class":"P","feature_code":"PPLA4","country_code":"ID","cc2":"","admin1_code":"30","admin2_code":"","admin3_code":"","admin4_code":"","population":"0","elevation":"","dem":"199","timezone":"Asia/Jakarta","modification_date":"2012-01-21"},{"geonameid":"8044900","name":"Cikawung","asciiname":"Cikawung","alternatenames":"Cikawung","latitude":"-7.6764","longitude":"108.311","feature_class":"P","feature_code":"PPLA4","country_code":"ID","cc2":"","admin1_code":"30","admin2_code":"","admin3_code":"","admin4_code":"","population":"0","elevation":"","dem":"138","timezone":"Asia/Jakarta","modification_date":"2012-01-21"},{"geonameid":"8044904","name":"Ciranca","asciiname":"Ciranca","alternatenames":"Ciranca,Tjirantja","latitude":"-7.6614","longitude":"108.3254","feature_class":"P","feature_code":"PPLA4","country_code":"ID","cc2":"","admin1_code":"30","admin2_code":"","admin3_code":"","admin4_code":"","population":"0","elevation":"","dem":"205","timezone":"Asia/Jakarta","modification_date":"2012-01-21"},{"geonameid":"8044918","name":"Mekarsari","asciiname":"Mekarsari","alternatenames":"Mekarsari","latitude":"-7.6682","longitude":"108.3375","feature_class":"P","feature_code":"PPLA4","country_code":"ID","cc2":"","admin1_code":"30","admin2_code":"","admin3_code":"","admin4_code":"","population":"0","elevation":"","dem":"155","timezone":"Asia/Jakarta","modification_date":"2012-01-21"},{"geonameid":"8044929","name":"Purwosari","asciiname":"Purwosari","alternatenames":"Purwosari","latitude":"-7.7339","longitude":"108.3352","feature_class":"P","feature_code":"PPLA4","country_code":"ID","cc2":"","admin1_code":"30","admin2_code":"","admin3_code":"","admin4_code":"","population":"0","elevation":"","dem":"153","timezone":"Asia/Jakarta","modification_date":"2012-01-21"},{"geonameid":"8044992","name":"Cikiangir","asciiname":"Cikiangir","alternatenames":"Cikiangir,Tjikiangir","latitude":"-7.5056","longitude":"108.2787","feature_class":"P","feature_code":"PPLA4","country_code":"ID","cc2":"","admin1_code":"30","admin2_code":"","admin3_code":"","admin4_code":"","population":"0","elevation":"","dem":"348","timezone":"Asia/Jakarta","modification_date":"2012-01-21"},{"geonameid":"8045032","name":"Cipicung","asciiname":"Cipicung","alternatenames":"Cipicung,Tjipitjoeng Satu","latitude":"-7.505","longitude":"108.3008","feature_class":"P","feature_code":"PPLA4","country_code":"ID","cc2":"","admin1_code":"30","admin2_code":"","admin3_code":"","admin4_code":"","population":"0","elevation":"","dem":"416","timezone":"Asia/Jakarta","modification_date":"2012-01-21"},{"geonameid":"8045052","name":"Kawitan","asciiname":"Kawitan","alternatenames":"Kawitan","latitude":"-7.5107","longitude":"108.2701","feature_class":"P","feature_code":"PPLA4","country_code":"ID","cc2":"","admin1_code":"30","admin2_code":"","admin3_code":"","admin4_code":"","population":"0","elevation":"","dem":"322","timezone":"Asia/Jakarta","modification_date":"2012-01-21"},{"geonameid":"8045061","name":"Cikiray","asciiname":"Cikiray","alternatenames":"Cikiray","latitude":"-7.5231","longitude":"108.3246","feature_class":"P","feature_code":"PPLA4","country_code":"ID","cc2":"","admin1_code":"30","admin2_code":"","admin3_code":"","admin4_code":"","population":"0","elevation":"","dem":"523","timezone":"Asia/Jakarta","modification_date":"2012-01-21"},{"geonameid":"8045070","name":"Cigangsa","asciiname":"Cigangsa","alternatenames":"Cigangsa,Tjigangsa","latitude":"-7.5237","longitude":"108.3633","feature_class":"P","feature_code":"PPLA4","country_code":"ID","cc2":"","admin1_code":"30","admin2_code":"","admin3_code":"","admin4_code":"","population":"0","elevation":"","dem":"557","timezone":"Asia/Jakarta","modification_date":"2012-01-21"},{"geonameid":"8045081","name":"Cilegi","asciiname":"Cilegi","alternatenames":"Cilegi,Tjilegi","latitude":"-7.5284","longitude":"108.2718","feature_class":"P","feature_code":"PPLA4","country_code":"ID","cc2":"","admin1_code":"30","admin2_code":"","admin3_code":"","admin4_code":"","population":"0","elevation":"","dem":"275","timezone":"Asia/Jakarta","modification_date":"2012-01-21"},{"geonameid":"8045094","name":"Jayasari","asciiname":"Jayasari","alternatenames":"Jayasari","latitude":"-7.538","longitude":"108.3488","feature_class":"P","feature_code":"PPLA4","country_code":"ID","cc2":"","admin1_code":"30","admin2_code":"","admin3_code":"","admin4_code":"","population":"0","elevation":"","dem":"550","timezone":"Asia/Jakarta","modification_date":"2012-01-21"},{"geonameid":"8045131","name":"Ciganaria","asciiname":"Ciganaria","alternatenames":"Ciganaria","latitude":"-7.5605","longitude":"108.2573","feature_class":"P","feature_code":"PPLA4","country_code":"ID","cc2":"","admin1_code":"30","admin2_code":"","admin3_code":"","admin4_code":"","population":"0","elevation":"","dem":"239","timezone":"Asia/Jakarta","modification_date":"2012-01-21"},{"geonameid":"8045150","name":"Sinagar","asciiname":"Sinagar","alternatenames":"Sinagar","latitude":"-7.5774","longitude":"108.3241","feature_class":"P","feature_code":"PPLA4","country_code":"ID","cc2":"","admin1_code":"30","admin2_code":"","admin3_code":"","admin4_code":"","population":"0","elevation":"","dem":"355","timezone":"Asia/Jakarta","modification_date":"2012-01-21"},{"geonameid":"8045157","name":"Cayur","asciiname":"Cayur","alternatenames":"Cayur,Tjajoer Satu","latitude":"-7.5875","longitude":"108.281","feature_class":"P","feature_code":"PPLA4","country_code":"ID","cc2":"","admin1_code":"30","admin2_code":"","admin3_code":"","admin4_code":"","population":"0","elevation":"","dem":"285","timezone":"Asia/Jakarta","modification_date":"2012-01-21"},{"geonameid":"8045161","name":"Pegadungan","asciiname":"Pegadungan","alternatenames":"Pegadungan","latitude":"-7.5933","longitude":"108.3714","feature_class":"P","feature_code":"PPLA4","country_code":"ID","cc2":"","admin1_code":"30","admin2_code":"","admin3_code":"","admin4_code":"","population":"0","elevation":"","dem":"260","timezone":"Asia/Jakarta","modification_date":"2012-01-21"},{"geonameid":"8045192","name":"Pakemitan Dua","asciiname":"Pakemitan Dua","alternatenames":"Pakemitan Dua","latitude":"-7.6221","longitude":"108.2564","feature_class":"P","feature_code":"PPLA4","country_code":"ID","cc2":"","admin1_code":"30","admin2_code":"","admin3_code":"","admin4_code":"","population":"0","elevation":"","dem":"261","timezone":"Asia/Jakarta","modification_date":"2012-01-21"},{"geonameid":"8045197","name":"Sempur","asciiname":"Sempur","alternatenames":"Sempoer,Sempur","latitude":"-7.6214","longitude":"108.3386","feature_class":"P","feature_code":"PPLA4","country_code":"ID","cc2":"","admin1_code":"30","admin2_code":"","admin3_code":"","admin4_code":"","population":"0","elevation":"","dem":"214","timezone":"Asia/Jakarta","modification_date":"2012-01-21"},{"geonameid":"8045236","name":"Jatiwangi","asciiname":"Jatiwangi","alternatenames":"Jatiwangi","latitude":"-7.3785","longitude":"108.258","feature_class":"P","feature_code":"PPLA4","country_code":"ID","cc2":"","admin1_code":"30","admin2_code":"","admin3_code":"","admin4_code":"","population":"0","elevation":"","dem":"359","timezone":"Asia/Jakarta","modification_date":"2012-01-21"},{"geonameid":"8045241","name":"Sukamulya","asciiname":"Sukamulya","alternatenames":"Sukamulya","latitude":"-7.3779","longitude":"108.288","feature_class":"P","feature_code":"PPLA4","country_code":"ID","cc2":"","admin1_code":"30","admin2_code":"","admin3_code":"","admin4_code":"","population":"0","elevation":"","dem":"322","timezone":"Asia/Jakarta","modification_date":"2012-01-21"},{"geonameid":"8045259","name":"Darmasari","asciiname":"Darmasari","alternatenames":"Darmasari","latitude":"-7.3808","longitude":"108.3541","feature_class":"P","feature_code":"PPLA4","country_code":"ID","cc2":"","admin1_code":"30","admin2_code":"","admin3_code":"","admin4_code":"","population":"0","elevation":"","dem":"276","timezone":"Asia/Jakarta","modification_date":"2012-01-21"},{"geonameid":"8045282","name":"Jamupu","asciiname":"Jamupu","alternatenames":"Jamupu","latitude":"-7.4931","longitude":"108.2525","feature_class":"P","feature_code":"PPLA4","country_code":"ID","cc2":"","admin1_code":"30","admin2_code":"","admin3_code":"","admin4_code":"","population":"0","elevation":"","dem":"482","timezone":"Asia/Jakarta","modification_date":"2012-01-21"},{"geonameid":"8045291","name":"Cilangkap","asciiname":"Cilangkap","alternatenames":"Cilangkap","latitude":"-7.4523","longitude":"108.256","feature_class":"P","feature_code":"PPLA4","country_code":"ID","cc2":"","admin1_code":"30","admin2_code":"","admin3_code":"","admin4_code":"","population":"0","elevation":"","dem":"287","timezone":"Asia/Jakarta","modification_date":"2012-01-21"},{"geonameid":"8045329","name":"Rahayu","asciiname":"Rahayu","alternatenames":"Rahayu","latitude":"-7.3896","longitude":"108.357","feature_class":"P","feature_code":"PPLA4","country_code":"ID","cc2":"","admin1_code":"30","admin2_code":"","admin3_code":"","admin4_code":"","population":"0","elevation":"","dem":"298","timezone":"Asia/Jakarta","modification_date":"2012-01-21"},{"geonameid":"8045343","name":"Cihurip Satu","asciiname":"Cihurip Satu","alternatenames":"Cihurip Satu","latitude":"-7.3986","longitude":"108.3328","feature_class":"P","feature_code":"PPLA4","country_code":"ID","cc2":"","admin1_code":"30","admin2_code":"","admin3_code":"","admin4_code":"","population":"0","elevation":"","dem":"308","timezone":"Asia/Jakarta","modification_date":"2012-01-21"},{"geonameid":"8045348","name":"Sukamaju","asciiname":"Sukamaju","alternatenames":"Sukamaju","latitude":"-7.3911","longitude":"108.3238","feature_class":"P","feature_code":"PPLA4","country_code":"ID","cc2":"","admin1_code":"30","admin2_code":"","admin3_code":"","admin4_code":"","population":"0","elevation":"","dem":"333","timezone":"Asia/Jakarta","modification_date":"2012-01-21"},{"geonameid":"8045353","name":"Bojongsari","asciiname":"Bojongsari","alternatenames":"Bojongsari","latitude":"-7.3914","longitude":"108.3095","feature_class":"P","feature_code":"PPLA4","country_code":"ID","cc2":"","admin1_code":"30","admin2_code":"","admin3_code":"","admin4_code":"","population":"0","elevation":"","dem":"333","timezone":"Asia/Jakarta","modification_date":"2012-01-21"},{"geonameid":"8045361","name":"Lengkong","asciiname":"Lengkong","alternatenames":"Lengkong","latitude":"-7.3953","longitude":"108.2883","feature_class":"P","feature_code":"PPLA4","country_code":"ID","cc2":"","admin1_code":"30","admin2_code":"","admin3_code":"","admin4_code":"","population":"0","elevation":"","dem":"352","timezone":"Asia/Jakarta","modification_date":"2012-01-21"},{"geonameid":"8045366","name":"Bandung","asciiname":"Bandung","alternatenames":"Bandoeng,Bandung","latitude":"-7.3993","longitude":"108.2607","feature_class":"P","feature_code":"PPLA4","country_code":"ID","cc2":"","admin1_code":"30","admin2_code":"","admin3_code":"","admin4_code":"","population":"0","elevation":"","dem":"387","timezone":"Asia/Jakarta","modification_date":"2012-01-21"},{"geonameid":"8045374","name":"Dusundesa","asciiname":"Dusundesa","alternatenames":"Dusundesa","latitude":"-7.4051","longitude":"108.2846","feature_class":"P","feature_code":"PPLA4","country_code":"ID","cc2":"","admin1_code":"30","admin2_code":"","admin3_code":"","admin4_code":"","population":"0","elevation":"","dem":"358","timezone":"Asia/Jakarta","modification_date":"2012-01-21"},{"geonameid":"8045398","name":"Ciriri","asciiname":"Ciriri","alternatenames":"Ciriri,Tjiriri","latitude":"-7.4087","longitude":"108.3595","feature_class":"P","feature_code":"PPLA3","country_code":"ID","cc2":"","admin1_code":"30","admin2_code":"","admin3_code":"","admin4_code":"","population":"0","elevation":"","dem":"305","timezone":"Asia/Jakarta","modification_date":"2012-01-21"},{"geonameid":"8045410","name":"Panuusan","asciiname":"Panuusan","alternatenames":"Panoeoesan,Panuusan","latitude":"-7.4094","longitude":"108.3124","feature_class":"P","feature_code":"PPLA4","country_code":"ID","cc2":"","admin1_code":"30","admin2_code":"","admin3_code":"","admin4_code":"","population":"0","elevation":"","dem":"526","timezone":"Asia/Jakarta","modification_date":"2012-01-21"},{"geonameid":"8045432","name":"Cinunjang","asciiname":"Cinunjang","alternatenames":"Cinunjang,Tjinoendjang","latitude":"-7.4204","longitude":"108.2835","feature_class":"P","feature_code":"PPLA4","country_code":"ID","cc2":"","admin1_code":"30","admin2_code":"","admin3_code":"","admin4_code":"","population":"0","elevation":"","dem":"388","timezone":"Asia/Jakarta","modification_date":"2012-01-21"},{"geonameid":"8045444","name":"Mekarjaya","asciiname":"Mekarjaya","alternatenames":"Mekarjaya","latitude":"-7.4237","longitude":"108.3434","feature_class":"P","feature_code":"PPLA4","country_code":"ID","cc2":"","admin1_code":"30","admin2_code":"","admin3_code":"","admin4_code":"","population":"0","elevation":"","dem":"409","timezone":"Asia/Jakarta","modification_date":"2012-01-21"},{"geonameid":"8045458","name":"Poponcol","asciiname":"Poponcol","alternatenames":"Poponcol","latitude":"-7.4271","longitude":"108.297","feature_class":"P","feature_code":"PPLA4","country_code":"ID","cc2":"","admin1_code":"30","admin2_code":"","admin3_code":"","admin4_code":"","population":"0","elevation":"","dem":"503","timezone":"Asia/Jakarta","modification_date":"2012-01-21"},{"geonameid":"8045474","name":"Cidamar","asciiname":"Cidamar","alternatenames":"Cidamar","latitude":"-7.439","longitude":"108.3009","feature_class":"P","feature_code":"PPLA4","country_code":"ID","cc2":"","admin1_code":"30","admin2_code":"","admin3_code":"","admin4_code":"","population":"0","elevation":"","dem":"660","timezone":"Asia/Jakarta","modification_date":"2012-01-21"},{"geonameid":"8045478","name":"Pasirmukti","asciiname":"Pasirmukti","alternatenames":"Pasirmukti","latitude":"-7.4405","longitude":"108.3423","feature_class":"P","feature_code":"PPLA4","country_code":"ID","cc2":"","admin1_code":"30","admin2_code":"","admin3_code":"","admin4_code":"","population":"0","elevation":"","dem":"559","timezone":"Asia/Jakarta","modification_date":"2012-01-21"},{"geonameid":"8045514","name":"Sindangsetra","asciiname":"Sindangsetra","alternatenames":"Sindangsetra","latitude":"-7.4579","longitude":"108.3525","feature_class":"P","feature_code":"PPLA4","country_code":"ID","cc2":"","admin1_code":"30","admin2_code":"","admin3_code":"","admin4_code":"","population":"0","elevation":"","dem":"692","timezone":"Asia/Jakarta","modification_date":"2012-01-21"},{"geonameid":"8045528","name":"Jayawangi","asciiname":"Jayawangi","alternatenames":"Jayawangi","latitude":"-7.4592","longitude":"108.2735","feature_class":"P","feature_code":"PPLA4","country_code":"ID","cc2":"","admin1_code":"30","admin2_code":"","admin3_code":"","admin4_code":"","population":"0","elevation":"","dem":"341","timezone":"Asia/Jakarta","modification_date":"2012-01-21"},{"geonameid":"8045929","name":"Desa Darmacaang","asciiname":"Desa Darmacaang","alternatenames":"Desa Darmacaang","latitude":"-7.2746","longitude":"108.2725","feature_class":"P","feature_code":"PPLA4","country_code":"ID","cc2":"","admin1_code":"30","admin2_code":"","admin3_code":"","admin4_code":"","population":"0","elevation":"","dem":"547","timezone":"Asia/Jakarta","modification_date":"2012-01-21"},{"geonameid":"8045939","name":"Cirahab","asciiname":"Cirahab","alternatenames":"Cirahab","latitude":"-7.2714","longitude":"108.3071","feature_class":"P","feature_code":"PPLA4","country_code":"ID","cc2":"","admin1_code":"30","admin2_code":"","admin3_code":"","admin4_code":"","population":"0","elevation":"","dem":"403","timezone":"Asia/Jakarta","modification_date":"2012-01-21"},{"geonameid":"8045940","name":"Desa Gunungsari","asciiname":"Desa Gunungsari","alternatenames":"Desa Gunungsari","latitude":"-7.2556","longitude":"108.3109","feature_class":"P","feature_code":"PPLA4","country_code":"ID","cc2":"","admin1_code":"30","admin2_code":"","admin3_code":"","admin4_code":"","population":"0","elevation":"","dem":"473","timezone":"Asia/Jakarta","modification_date":"2012-01-21"},{"geonameid":"8045944","name":"Cukanguncal","asciiname":"Cukanguncal","alternatenames":"Cukanguncal,Tjoekangoentjal","latitude":"-7.256","longitude":"108.3155","feature_class":"P","feature_code":"PPLA4","country_code":"ID","cc2":"","admin1_code":"30","admin2_code":"","admin3_code":"","admin4_code":"","population":"0","elevation":"","dem":"510","timezone":"Asia/Jakarta","modification_date":"2012-01-21"},{"geonameid":"8045967","name":"Warungjarak","asciiname":"Warungjarak","alternatenames":"Waroengdjarak,Warungjarak","latitude":"-7.26271","longitude":"108.37381","feature_class":"P","feature_code":"PPLA4","country_code":"ID","cc2":"","admin1_code":"30","admin2_code":"","admin3_code":"","admin4_code":"","population":"0","elevation":"","dem":"300","timezone":"Asia/Jakarta","modification_date":"2012-01-21"},{"geonameid":"8045981","name":"Rimpakgede","asciiname":"Rimpakgede","alternatenames":"Rimpakgede","latitude":"-7.2763","longitude":"108.3561","feature_class":"P","feature_code":"PPLA4","country_code":"ID","cc2":"","admin1_code":"30","admin2_code":"","admin3_code":"","admin4_code":"","population":"0","elevation":"","dem":"289","timezone":"Asia/Jakarta","modification_date":"2012-01-21"},{"geonameid":"8045983","name":"Desa Saguling","asciiname":"Desa Saguling","alternatenames":"Desa Saguling,Sagoeling","latitude":"-7.2977","longitude":"108.3555","feature_class":"P","feature_code":"PPLA4","country_code":"ID","cc2":"","admin1_code":"30","admin2_code":"","admin3_code":"","admin4_code":"","population":"0","elevation":"","dem":"219","timezone":"Asia/Jakarta","modification_date":"2012-01-21"},{"geonameid":"8045991","name":"Desa Werasari","asciiname":"Desa Werasari","alternatenames":"Desa Werasari","latitude":"-7.2799","longitude":"108.3165","feature_class":"P","feature_code":"PPLA4","country_code":"ID","cc2":"","admin1_code":"30","admin2_code":"","admin3_code":"","admin4_code":"","population":"0","elevation":"","dem":"369","timezone":"Asia/Jakarta","modification_date":"2012-01-21"},{"geonameid":"8045995","name":"Desa Mangkubumi","asciiname":"Desa Mangkubumi","alternatenames":"Desa Mangkubumi","latitude":"-7.2819","longitude":"108.3082","feature_class":"P","feature_code":"PPLA4","country_code":"ID","cc2":"","admin1_code":"30","admin2_code":"","admin3_code":"","admin4_code":"","population":"0","elevation":"","dem":"370","timezone":"Asia/Jakarta","modification_date":"2012-01-21"},{"geonameid":"8046000","name":"Desa Nasol","asciiname":"Desa Nasol","alternatenames":"Desa Nasol","latitude":"-7.2815","longitude":"108.2903","feature_class":"P","feature_code":"PPLA4","country_code":"ID","cc2":"","admin1_code":"30","admin2_code":"","admin3_code":"","admin4_code":"","population":"0","elevation":"","dem":"447","timezone":"Asia/Jakarta","modification_date":"2012-01-21"},{"geonameid":"8046017","name":"Walahir","asciiname":"Walahir","alternatenames":"Walahir","latitude":"-7.2797","longitude":"108.2553","feature_class":"P","feature_code":"PPLA4","country_code":"ID","cc2":"","admin1_code":"30","admin2_code":"","admin3_code":"","admin4_code":"","population":"0","elevation":"","dem":"473","timezone":"Asia/Jakarta","modification_date":"2012-01-21"},{"geonameid":"8046022","name":"Desa Margaluyu","asciiname":"Desa Margaluyu","alternatenames":"Desa Margaluyu","latitude":"-7.308","longitude":"108.2558","feature_class":"P","feature_code":"PPLA4","country_code":"ID","cc2":"","admin1_code":"30","admin2_code":"","admin3_code":"","admin4_code":"","population":"0","elevation":"","dem":"329","timezone":"Asia/Jakarta","modification_date":"2012-01-21"},{"geonameid":"8046023","name":"Cimamut","asciiname":"Cimamut","alternatenames":"Cimamut","latitude":"-7.3116","longitude":"108.2568","feature_class":"P","feature_code":"PPLA4","country_code":"ID","cc2":"","admin1_code":"30","admin2_code":"","admin3_code":"","admin4_code":"","population":"0","elevation":"","dem":"326","timezone":"Asia/Jakarta","modification_date":"2012-01-21"},{"geonameid":"8046024","name":"Gunungpeundeuy","asciiname":"Gunungpeundeuy","alternatenames":"Gunungpeundeuy","latitude":"-7.3231","longitude":"108.2514","feature_class":"P","feature_code":"PPLA4","country_code":"ID","cc2":"","admin1_code":"30","admin2_code":"","admin3_code":"","admin4_code":"","population":"0","elevation":"","dem":"335","timezone":"Asia/Jakarta","modification_date":"2012-01-21"},{"geonameid":"8046029","name":"Pasar Sabtu","asciiname":"Pasar Sabtu","alternatenames":"Pasar Sabtu","latitude":"-7.3102","longitude":"108.2667","feature_class":"P","feature_code":"PPLA4","country_code":"ID","cc2":"","admin1_code":"30","admin2_code":"","admin3_code":"","admin4_code":"","population":"0","elevation":"","dem":"311","timezone":"Asia/Jakarta","modification_date":"2012-01-21"},{"geonameid":"8046035","name":"Pasirjaya","asciiname":"Pasirjaya","alternatenames":"Pasirjaya","latitude":"-7.3251","longitude":"108.2681","feature_class":"P","feature_code":"PPLA4","country_code":"ID","cc2":"","admin1_code":"30","admin2_code":"","admin3_code":"","admin4_code":"","population":"0","elevation":"","dem":"329","timezone":"Asia/Jakarta","modification_date":"2012-01-21"},{"geonameid":"8046036","name":"Cibodas","asciiname":"Cibodas","alternatenames":"Cibodas","latitude":"-7.3027","longitude":"108.277","feature_class":"P","feature_code":"PPLA4","country_code":"ID","cc2":"","admin1_code":"30","admin2_code":"","admin3_code":"","admin4_code":"","population":"0","elevation":"","dem":"316","timezone":"Asia/Jakarta","modification_date":"2012-01-21"},{"geonameid":"8046042","name":"Colendra","asciiname":"Colendra","alternatenames":"Colendra","latitude":"-7.3051","longitude":"108.2941","feature_class":"P","feature_code":"PPLA4","country_code":"ID","cc2":"","admin1_code":"30","admin2_code":"","admin3_code":"","admin4_code":"","population":"0","elevation":"","dem":"345","timezone":"Asia/Jakarta","modification_date":"2012-01-21"},{"geonameid":"8046043","name":"Desa Cimari","asciiname":"Desa Cimari","alternatenames":"Cimari,Desa Cimari,Tjimari","latitude":"-7.3121","longitude":"108.288","feature_class":"P","feature_code":"PPLA4","country_code":"ID","cc2":"","admin1_code":"30","admin2_code":"","admin3_code":"","admin4_code":"","population":"0","elevation":"","dem":"306","timezone":"Asia/Jakarta","modification_date":"2012-01-21"},{"geonameid":"8046049","name":"Cisadap","asciiname":"Cisadap","alternatenames":"Cisadap,Tjisadap","latitude":"-7.3102","longitude":"108.3066","feature_class":"P","feature_code":"PPLA4","country_code":"ID","cc2":"","admin1_code":"30","admin2_code":"","admin3_code":"","admin4_code":"","population":"0","elevation":"","dem":"288","timezone":"Asia/Jakarta","modification_date":"2012-01-21"},{"geonameid":"8046051","name":"Warung Kulon","asciiname":"Warung Kulon","alternatenames":"Warung Kulon","latitude":"-7.3162","longitude":"108.2998","feature_class":"P","feature_code":"PPLA4","country_code":"ID","cc2":"","admin1_code":"30","admin2_code":"","admin3_code":"","admin4_code":"","population":"0","elevation":"","dem":"296","timezone":"Asia/Jakarta","modification_date":"2012-01-21"},{"geonameid":"8046052","name":"Warung Wetan","asciiname":"Warung Wetan","alternatenames":"Warung Wetan","latitude":"-7.3174","longitude":"108.307","feature_class":"P","feature_code":"PPLA4","country_code":"ID","cc2":"","admin1_code":"30","admin2_code":"","admin3_code":"","admin4_code":"","population":"0","elevation":"","dem":"284","timezone":"Asia/Jakarta","modification_date":"2012-01-21"},{"geonameid":"8046068","name":"Desa Sukajadi","asciiname":"Desa Sukajadi","alternatenames":"Desa Sukajadi","latitude":"-7.3092","longitude":"108.3294","feature_class":"P","feature_code":"PPLA4","country_code":"ID","cc2":"","admin1_code":"30","admin2_code":"","admin3_code":"","admin4_code":"","population":"0","elevation":"","dem":"264","timezone":"Asia/Jakarta","modification_date":"2012-01-21"},{"geonameid":"8046070","name":"Cibeureum","asciiname":"Cibeureum","alternatenames":"Cibeureum,Tjibeureum Satu","latitude":"-7.3226","longitude":"108.3268","feature_class":"P","feature_code":"PPLA4","country_code":"ID","cc2":"","admin1_code":"30","admin2_code":"","admin3_code":"","admin4_code":"","population":"0","elevation":"","dem":"251","timezone":"Asia/Jakarta","modification_date":"2012-01-21"},{"geonameid":"8046073","name":"Kreteg","asciiname":"Kreteg","alternatenames":"Kreteg","latitude":"-7.3103","longitude":"108.335","feature_class":"P","feature_code":"PPLA4","country_code":"ID","cc2":"","admin1_code":"30","admin2_code":"","admin3_code":"","admin4_code":"","population":"0","elevation":"","dem":"254","timezone":"Asia/Jakarta","modification_date":"2012-01-21"},{"geonameid":"8046079","name":"Mekarsari","asciiname":"Mekarsari","alternatenames":"Mekarsari","latitude":"-7.3042","longitude":"108.3456","feature_class":"P","feature_code":"PPLA4","country_code":"ID","cc2":"","admin1_code":"30","admin2_code":"","admin3_code":"","admin4_code":"","population":"0","elevation":"","dem":"227","timezone":"Asia/Jakarta","modification_date":"2012-01-21"},{"geonameid":"8046083","name":"Karangsari","asciiname":"Karangsari","alternatenames":"Karangsari","latitude":"-7.3224","longitude":"108.3466","feature_class":"P","feature_code":"PPLA4","country_code":"ID","cc2":"","admin1_code":"30","admin2_code":"","admin3_code":"","admin4_code":"","population":"0","elevation":"","dem":"210","timezone":"Asia/Jakarta","modification_date":"2012-01-21"},{"geonameid":"8046088","name":"Desa Baregbeg","asciiname":"Desa Baregbeg","alternatenames":"Desa Baregbeg","latitude":"-7.3039","longitude":"108.3601","feature_class":"P","feature_code":"PPLA4","country_code":"ID","cc2":"","admin1_code":"30","admin2_code":"","admin3_code":"","admin4_code":"","population":"0","elevation":"","dem":"200","timezone":"Asia/Jakarta","modification_date":"2012-01-21"},{"geonameid":"8046096","name":"Desa Sukamaju","asciiname":"Desa Sukamaju","alternatenames":"Desa Sukamaju","latitude":"-7.3086","longitude":"108.372","feature_class":"P","feature_code":"PPLA4","country_code":"ID","cc2":"","admin1_code":"30","admin2_code":"","admin3_code":"","admin4_code":"","population":"0","elevation":"","dem":"178","timezone":"Asia/Jakarta","modification_date":"2012-01-21"},{"geonameid":"8046100","name":"Desa Kertasari","asciiname":"Desa Kertasari","alternatenames":"Desa Kertasari","latitude":"-7.3268","longitude":"108.369","feature_class":"P","feature_code":"PPLA4","country_code":"ID","cc2":"","admin1_code":"30","admin2_code":"","admin3_code":"","admin4_code":"","population":"0","elevation":"","dem":"179","timezone":"Asia/Jakarta","modification_date":"2012-01-21"},{"geonameid":"8046106","name":"Desa Cigembor","asciiname":"Desa Cigembor","alternatenames":"Desa Cigembor,Tjigembor","latitude":"-7.3409","longitude":"108.3688","feature_class":"P","feature_code":"PPLA4","country_code":"ID","cc2":"","admin1_code":"30","admin2_code":"","admin3_code":"","admin4_code":"","population":"0","elevation":"","dem":"187","timezone":"Asia/Jakarta","modification_date":"2012-01-21"},{"geonameid":"8046110","name":"Cibitung","asciiname":"Cibitung","alternatenames":"Cibitung","latitude":"-7.3335","longitude":"108.3629","feature_class":"P","feature_code":"PPLA3","country_code":"ID","cc2":"","admin1_code":"30","admin2_code":"","admin3_code":"","admin4_code":"","population":"0","elevation":"","dem":"199","timezone":"Asia/Jakarta","modification_date":"2012-01-21"},{"geonameid":"8046123","name":"Desa Benteng","asciiname":"Desa Benteng","alternatenames":"Desa Benteng","latitude":"-7.3404","longitude":"108.3488","feature_class":"P","feature_code":"PPLA4","country_code":"ID","cc2":"","admin1_code":"30","admin2_code":"","admin3_code":"","admin4_code":"","population":"0","elevation":"","dem":"210","timezone":"Asia/Jakarta","modification_date":"2012-01-21"},{"geonameid":"8046129","name":"Ciherang","asciiname":"Ciherang","alternatenames":"Ciherang","latitude":"-7.3365","longitude":"108.3379","feature_class":"P","feature_code":"PPLA4","country_code":"ID","cc2":"","admin1_code":"30","admin2_code":"","admin3_code":"","admin4_code":"","population":"0","elevation":"","dem":"223","timezone":"Asia/Jakarta","modification_date":"2012-01-21"},{"geonameid":"8046134","name":"Bunirasa","asciiname":"Bunirasa","alternatenames":"Boenirasa Dua,Bunirasa","latitude":"-7.3343","longitude":"108.3279","feature_class":"P","feature_code":"PPLA4","country_code":"ID","cc2":"","admin1_code":"30","admin2_code":"","admin3_code":"","admin4_code":"","population":"0","elevation":"","dem":"252","timezone":"Asia/Jakarta","modification_date":"2012-01-21"},{"geonameid":"8046145","name":"Linggamanik","asciiname":"Linggamanik","alternatenames":"Linggamanik","latitude":"-7.3274","longitude":"108.3161","feature_class":"P","feature_code":"PPLA4","country_code":"ID","cc2":"","admin1_code":"30","admin2_code":"","admin3_code":"","admin4_code":"","population":"0","elevation":"","dem":"260","timezone":"Asia/Jakarta","modification_date":"2012-01-21"},{"geonameid":"8046157","name":"Tangsi","asciiname":"Tangsi","alternatenames":"Tangsi","latitude":"-7.348","longitude":"108.3078","feature_class":"P","feature_code":"PPLA4","country_code":"ID","cc2":"","admin1_code":"30","admin2_code":"","admin3_code":"","admin4_code":"","population":"0","elevation":"","dem":"292","timezone":"Asia/Jakarta","modification_date":"2012-01-21"},{"geonameid":"8046165","name":"Desa Gegempalan","asciiname":"Desa Gegempalan","alternatenames":"Desa Gegempalan","latitude":"-7.3269","longitude":"108.2906","feature_class":"P","feature_code":"PPLA4","country_code":"ID","cc2":"","admin1_code":"30","admin2_code":"","admin3_code":"","admin4_code":"","population":"0","elevation":"","dem":"296","timezone":"Asia/Jakarta","modification_date":"2012-01-21"},{"geonameid":"8046168","name":"Gerempay","asciiname":"Gerempay","alternatenames":"Gerempay","latitude":"-7.3379","longitude":"108.2882","feature_class":"P","feature_code":"PPLA4","country_code":"ID","cc2":"","admin1_code":"30","admin2_code":"","admin3_code":"","admin4_code":"","population":"0","elevation":"","dem":"285","timezone":"Asia/Jakarta","modification_date":"2012-01-21"},{"geonameid":"8046178","name":"Kertasari","asciiname":"Kertasari","alternatenames":"Kertasari","latitude":"-7.3461","longitude":"108.2814","feature_class":"P","feature_code":"PPLA4","country_code":"ID","cc2":"","admin1_code":"30","admin2_code":"","admin3_code":"","admin4_code":"","population":"0","elevation":"","dem":"309","timezone":"Asia/Jakarta","modification_date":"2012-01-21"},{"geonameid":"8046192","name":"Lemburwarung","asciiname":"Lemburwarung","alternatenames":"Lemburwarung","latitude":"-7.3351","longitude":"108.2627","feature_class":"P","feature_code":"PPLA4","country_code":"ID","cc2":"","admin1_code":"30","admin2_code":"","admin3_code":"","admin4_code":"","population":"0","elevation":"","dem":"321","timezone":"Asia/Jakarta","modification_date":"2012-01-21"},