{"nextFile":"cities.16.json","rows":[{"geonameid":"1794220","name":"Silidian","asciiname":"Silidian","alternatenames":"Silidian,Ssu-li-tien,si li dian,四里店","latitude":"33.46643","longitude":"112.91573","feature_class":"P","feature_code":"PPLA4","country_code":"CN","cc2":"","admin1_code":"09","admin2_code":"","admin3_code":"","admin4_code":"","population":"0","elevation":"","dem":"195","timezone":"Asia/Shanghai","modification_date":"2012-01-18"},{"geonameid":"1794224","name":"Sili","asciiname":"Sili","alternatenames":"Sili,Sili Zhen,Ssu-li,si li,si li zhen,泗沥,泗沥镇","latitude":"28.4","longitude":"117.16667","feature_class":"P","feature_code":"PPLA4","country_code":"CN","cc2":"","admin1_code":"03","admin2_code":"","admin3_code":"","admin4_code":"","population":"0","elevation":"","dem":"45","timezone":"Asia/Shanghai","modification_date":"2012-01-18"},{"geonameid":"1794227","name":"Dachang Shandao","asciiname":"Dachang Shandao","alternatenames":"Ch'ang-hai-hsien,Ch'ang-shan,Changhai,Ch’ang-hai-hsien,Ch’ang-shan,Dachang Shandao,Dachang Shandao Zhen,Sikuanshi,Ssu-k'uai-shih,Ssu-k’uai-shih,Ta-ch'ang-shan-tao,Ta-ch’ang-shan-tao,da zhang shan dao,da zhang shan dao zhen,大长山岛,大长山岛镇","latitude":"39.27556","longitude":"122.6","feature_class":"P","feature_code":"PPLA4","country_code":"CN","cc2":"","admin1_code":"19","admin2_code":"","admin3_code":"","admin4_code":"","population":"0","elevation":"","dem":"18","timezone":"Asia/Shanghai","modification_date":"2012-12-05"},{"geonameid":"1794229","name":"Sikou","asciiname":"Sikou","alternatenames":"Sikou,Sikou Zhen,Ssu-k'ou,Ssu-k'ou-chi,Ssu-k’ou,Ssu-k’ou-chi,Tung-tz'u-k'ou,Tung-tz’u-k’ou,si kou,si kou zhen,寺口,寺口镇","latitude":"37.31747","longitude":"120.6351","feature_class":"P","feature_code":"PPLA4","country_code":"CN","cc2":"","admin1_code":"25","admin2_code":"","admin3_code":"","admin4_code":"","population":"0","elevation":"","dem":"156","timezone":"Asia/Shanghai","modification_date":"2013-07-05"},{"geonameid":"1794230","name":"Sikou","asciiname":"Sikou","alternatenames":"Sikou,Sikou Zhen,Ssu-k'ou,Ssu-k’ou,si kou,si kou zhen,思口,思口镇","latitude":"29.35427","longitude":"117.81226","feature_class":"P","feature_code":"PPLA4","country_code":"CN","cc2":"","admin1_code":"03","admin2_code":"","admin3_code":"","admin4_code":"","population":"0","elevation":"","dem":"87","timezone":"Asia/Shanghai","modification_date":"2012-01-18"},{"geonameid":"1794231","name":"Sikeshu","asciiname":"Sikeshu","alternatenames":"Sikeshu,Sikeshu Xiang,si ke shu,si ke shu xiang,四棵树,四棵树乡","latitude":"33.28596","longitude":"112.34895","feature_class":"P","feature_code":"PPLA4","country_code":"CN","cc2":"","admin1_code":"09","admin2_code":"","admin3_code":"","admin4_code":"","population":"0","elevation":"","dem":"218","timezone":"Asia/Shanghai","modification_date":"2013-03-05"},{"geonameid":"1794234","name":"Sijiu","asciiname":"Sijiu","alternatenames":"Sijiu,Sijiu Zhen,Ssu-chiu,si jiu,si jiu zhen,四九,四九镇","latitude":"22.20908","longitude":"112.85839","feature_class":"P","feature_code":"PPLA4","country_code":"CN","cc2":"","admin1_code":"30","admin2_code":"","admin3_code":"","admin4_code":"","population":"0","elevation":"","dem":"16","timezone":"Asia/Shanghai","modification_date":"2012-06-05"},{"geonameid":"1794235","name":"Sijiqing","asciiname":"Sijiqing","alternatenames":"Sijiqing,Sijiqing Zhen,si ji qing,si ji qing zhen,四季青,四季青镇","latitude":"39.95072","longitude":"116.26545","feature_class":"P","feature_code":"PPLA4","country_code":"CN","cc2":"","admin1_code":"22","admin2_code":"","admin3_code":"","admin4_code":"","population":"0","elevation":"","dem":"55","timezone":"Asia/Shanghai","modification_date":"2012-09-06"},{"geonameid":"1794236","name":"Sijing","asciiname":"Sijing","alternatenames":"Sijing,Sijing Zhen,Ssu-ching,Ssu-ching-chen,Szeking,si jing,si jing zhen,泗泾,泗泾镇","latitude":"31.11444","longitude":"121.26833","feature_class":"P","feature_code":"PPLA4","country_code":"CN","cc2":"","admin1_code":"23","admin2_code":"","admin3_code":"","admin4_code":"","population":"0","elevation":"","dem":"8","timezone":"Asia/Shanghai","modification_date":"2012-06-05"},{"geonameid":"1794247","name":"Sijia","asciiname":"Sijia","alternatenames":"Sijia,Sijia Zhen,Sijiaba,Ssu-chia,Ssu-chia-pa,si jia,si jia zhen,四甲,四甲镇","latitude":"32.01429","longitude":"121.27583","feature_class":"P","feature_code":"PPLA4","country_code":"CN","cc2":"","admin1_code":"04","admin2_code":"","admin3_code":"","admin4_code":"","population":"0","elevation":"","dem":"4","timezone":"Asia/Shanghai","modification_date":"2012-01-18"},{"geonameid":"1794266","name":"Sigu","asciiname":"Sigu","alternatenames":"Sigu,Sigu Zhen,si gu,si gu zhen,四姑,四姑镇","latitude":"31.4178","longitude":"114.40252","feature_class":"P","feature_code":"PPLA4","country_code":"CN","cc2":"","admin1_code":"12","admin2_code":"","admin3_code":"","admin4_code":"","population":"0","elevation":"","dem":"64","timezone":"Asia/Shanghai","modification_date":"2013-07-05"},{"geonameid":"1794274","name":"Sigaozhuang","asciiname":"Sigaozhuang","alternatenames":"Sigaozhuang,Ssu-kao-chuang","latitude":"39.46778","longitude":"117.25028","feature_class":"P","feature_code":"PPL","country_code":"CN","cc2":"CN","admin1_code":"28","admin2_code":"","admin3_code":"","admin4_code":"","population":"1246","elevation":"","dem":"4","timezone":"Asia/Shanghai","modification_date":"2012-01-18"},{"geonameid":"1794283","name":"Si’en","asciiname":"Si'en","alternatenames":"Huan-chiang,Huanjiang,Si'en,Si’en,Ssu-en,Sze-ngen-hsien,Szeenhsien,Szengen,si en,思恩","latitude":"24.84198","longitude":"108.27162","feature_class":"P","feature_code":"PPLA3","country_code":"CN","cc2":"","admin1_code":"16","admin2_code":"","admin3_code":"","admin4_code":"","population":"0","elevation":"","dem":"233","timezone":"Asia/Shanghai","modification_date":"2012-01-18"},{"geonameid":"1794284","name":"Sidui","asciiname":"Sidui","alternatenames":"Nan-ssu-tui,Sidui,Sidui Zhen,Siduijie,Ssu-tui,Ssu-tui-chieh,si dui,si dui zhen,四队,四队镇","latitude":"34.41667","longitude":"119.46667","feature_class":"P","feature_code":"PPLA4","country_code":"CN","cc2":"","admin1_code":"04","admin2_code":"","admin3_code":"","admin4_code":"","population":"0","elevation":"","dem":"2","timezone":"Asia/Shanghai","modification_date":"2012-01-18"},{"geonameid":"1794286","name":"Sidu","asciiname":"Sidu","alternatenames":"Sidu,Sidu Zhen,Ssu-tu,si dou,si dou zhen,四都,四都镇","latitude":"29.15154","longitude":"114.59024","feature_class":"P","feature_code":"PPLA4","country_code":"CN","cc2":"","admin1_code":"03","admin2_code":"","admin3_code":"","admin4_code":"","population":"0","elevation":"","dem":"93","timezone":"Asia/Shanghai","modification_date":"2012-01-18"},{"geonameid":"1794290","name":"Sidu","asciiname":"Sidu","alternatenames":"Sidu,Sidu Zhen,Ssu-tu,si dou,si dou zhen,四都,四都镇","latitude":"25.65518","longitude":"116.19871","feature_class":"P","feature_code":"PPLA4","country_code":"CN","cc2":"","admin1_code":"07","admin2_code":"","admin3_code":"","admin4_code":"","population":"0","elevation":"","dem":"342","timezone":"Asia/Shanghai","modification_date":"2012-01-18"},{"geonameid":"1794291","name":"Sidu","asciiname":"Sidu","alternatenames":"Sidu,Sidu Zhen,Ssu-tu,si dou,四都","latitude":"23.78356","longitude":"117.27351","feature_class":"P","feature_code":"PPLA4","country_code":"CN","cc2":"","admin1_code":"07","admin2_code":"","admin3_code":"","admin4_code":"","population":"0","elevation":"","dem":"13","timezone":"Asia/Shanghai","modification_date":"2012-01-18"},{"geonameid":"1794302","name":"Sicheng","asciiname":"Sicheng","alternatenames":"Ling-lo,Ling-lo-hsien,Ling-yun-chen,Ling-yun-hsien,Ling-yün-chen,Ling-yün-hsien,Lingyun,Sicheng,Ssu-ch'eng,Ssu-ch’eng,Sze-cheng-fu,Sze-chêng-fu,Szecheng,si cheng,泗城","latitude":"24.4054","longitude":"106.58154","feature_class":"P","feature_code":"PPLA3","country_code":"CN","cc2":"","admin1_code":"16","admin2_code":"","admin3_code":"","admin4_code":"","population":"0","elevation":"","dem":"1047","timezone":"Asia/Shanghai","modification_date":"2012-01-18"},{"geonameid":"1794307","name":"Si’an","asciiname":"Si'an","alternatenames":"Ch'en-chiu-tien,Ch'en-chiu-tien-chen,Chiu-tien,Chiu-tien-chen,Ch’en-chiu-tien,Ch’en-chiu-tien-chen,Si'an,Si'an Zhen,Si’an,Si’an Zhen,Ssu-an,si an,si an zhen,四安,四安镇","latitude":"32.13636","longitude":"120.94101","feature_class":"P","feature_code":"PPLA4","country_code":"CN","cc2":"","admin1_code":"04","admin2_code":"","admin3_code":"","admin4_code":"","population":"0","elevation":"","dem":"7","timezone":"Asia/Shanghai","modification_date":"2012-08-04"},{"geonameid":"1794308","name":"Si’an","asciiname":"Si'an","alternatenames":"Si'an,Si'an Zhen,Si’an,Si’an Zhen,Ssu-an,Ssu-an-chen,Szean,si an,si an zhen,泗安,泗安镇","latitude":"30.89833","longitude":"119.65361","feature_class":"P","feature_code":"PPLA4","country_code":"CN","cc2":"","admin1_code":"02","admin2_code":"","admin3_code":"","admin4_code":"","population":"0","elevation":"","dem":"16","timezone":"Asia/Shanghai","modification_date":"2012-01-18"},{"geonameid":"1794310","name":"Shuyuan","asciiname":"Shuyuan","alternatenames":"Shuyuan,Shuyuan Zhen,shu yuan,shu yuan zhen,书院,书院镇","latitude":"30.93127","longitude":"121.8601","feature_class":"P","feature_code":"PPLA4","country_code":"CN","cc2":"","admin1_code":"23","admin2_code":"","admin3_code":"","admin4_code":"","population":"0","elevation":"","dem":"5","timezone":"Asia/Shanghai","modification_date":"2012-01-18"},{"geonameid":"1794314","name":"Shucheng","asciiname":"Shucheng","alternatenames":"Mu-yang,Shu-ch'eng-chen,Shu-ch’eng-chen,Shu-yang-ch'eng,Shu-yang-ch’eng,Shu-yang-hsien,Shucheng,Shucheng Zhen,Shuyang,Shuyang Xian,shu cheng,shu cheng zhen,shu yang xian,术城,术城镇,沭阳县","latitude":"34.12128","longitude":"118.78078","feature_class":"P","feature_code":"PPLA3","country_code":"CN","cc2":"","admin1_code":"04","admin2_code":"","admin3_code":"","admin4_code":"","population":"0","elevation":"","dem":"8","timezone":"Asia/Shanghai","modification_date":"2015-08-07"},{"geonameid":"1794328","name":"Shuozhou","asciiname":"Shuozhou","alternatenames":"Shohchow,Shohsien,Shosyan',Shosyan’,Shou-hsien,Shuo,Shuo-hsien,Shuoxian,Shuozhou,shuo zhou,朔州","latitude":"39.31583","longitude":"112.4225","feature_class":"P","feature_code":"PPLA2","country_code":"CN","cc2":"","admin1_code":"24","admin2_code":"","admin3_code":"","admin4_code":"","population":"0","elevation":"","dem":"1098","timezone":"Asia/Shanghai","modification_date":"2012-01-18"},{"geonameid":"1794334","name":"Shuofang","asciiname":"Shuofang","alternatenames":"Shih-fang,Shuofang,Shuofang Jiedao,shuo fang,shuo fang jie dao,硕放,硕放街道","latitude":"31.48857","longitude":"120.43994","feature_class":"P","feature_code":"PPLA4","country_code":"CN","cc2":"","admin1_code":"04","admin2_code":"","admin3_code":"","admin4_code":"","population":"0","elevation":"","dem":"7","timezone":"Asia/Shanghai","modification_date":"2013-06-04"},{"geonameid":"1794371","name":"Shuizhai","asciiname":"Shuizhai","alternatenames":"Shui-chai,Shui-chai-chen,Shui-chai-hsu,Shui-chai-hsü,Shuizhai,Shuizhai Zhen,Wuhua,shui zhai,shui zhai zhen,水寨,水寨镇","latitude":"23.92961","longitude":"115.76499","feature_class":"P","feature_code":"PPLA4","country_code":"CN","cc2":"","admin1_code":"30","admin2_code":"","admin3_code":"","admin4_code":"","population":"0","elevation":"","dem":"106","timezone":"Asia/Shanghai","modification_date":"2012-06-05"},{"geonameid":"1794374","name":"Shuiyuesi","asciiname":"Shuiyuesi","alternatenames":"Shui-yueh-ssu,Shui-yüeh-ssu,Shuiyuesi,Shuiyuesi Zhen,shui yue si,shui yue si zhen,水月寺,水月寺镇","latitude":"31.23853","longitude":"111.01406","feature_class":"P","feature_code":"PPLA4","country_code":"CN","cc2":"","admin1_code":"12","admin2_code":"","admin3_code":"","admin4_code":"","population":"0","elevation":"","dem":"857","timezone":"Asia/Shanghai","modification_date":"2013-04-03"},{"geonameid":"1794382","name":"Shuiyang","asciiname":"Shuiyang","alternatenames":"Shui-yang-chen,Shuiyang,Shuiyang Zhen,shui yang,shui yang zhen,水阳,水阳镇","latitude":"31.22978","longitude":"118.78889","feature_class":"P","feature_code":"PPLA4","country_code":"CN","cc2":"","admin1_code":"01","admin2_code":"","admin3_code":"","admin4_code":"","population":"0","elevation":"","dem":"11","timezone":"Asia/Shanghai","modification_date":"2012-10-06"},{"geonameid":"1794387","name":"Shuixi","asciiname":"Shuixi","alternatenames":"Shui-hsi,Shui-hsi-chieh,Shuixi,Shuixi Zhen,shui xi,shui xi zhen,水西,水西镇","latitude":"27.82305","longitude":"115.02986","feature_class":"P","feature_code":"PPLA4","country_code":"CN","cc2":"","admin1_code":"03","admin2_code":"","admin3_code":"","admin4_code":"","population":"0","elevation":"","dem":"45","timezone":"Asia/Shanghai","modification_date":"2012-01-18"},{"geonameid":"1794395","name":"Shuitu","asciiname":"Shuitu","alternatenames":"Chiang-pei,Chiang-pei-hsien,Shui-t'u-chen,Shui-t'u-t'o,Shui-t’u-chen,Shui-t’u-t’o,Shuitu,Shuitu Zhen,Shuitutuo,T'u-t'o,T'u-t'o-chen,T’u-t’o,T’u-t’o-chen,shui tu,shui tu zhen,水土,水土镇","latitude":"29.78221","longitude":"106.4974","feature_class":"P","feature_code":"PPLA4","country_code":"CN","cc2":"","admin1_code":"33","admin2_code":"","admin3_code":"","admin4_code":"","population":"0","elevation":"","dem":"209","timezone":"Asia/Shanghai","modification_date":"2012-11-08"},{"geonameid":"1794401","name":"Shuitou","asciiname":"Shuitou","alternatenames":"Jiaokou Xian,Shui-t'ou-chen,Shui-t’ou-chen,Shuitou,Shuitou Zhen,jiao kou xian,shui tou,shui tou zhen,交口县,水头,水头镇","latitude":"36.97306","longitude":"111.2091","feature_class":"P","feature_code":"PPLA3","country_code":"CN","cc2":"","admin1_code":"24","admin2_code":"","admin3_code":"","admin4_code":"","population":"0","elevation":"","dem":"1421","timezone":"Asia/Shanghai","modification_date":"2012-01-18"},{"geonameid":"1794405","name":"Shuitianzhuang","asciiname":"Shuitianzhuang","alternatenames":"Shuitianzhuang,Shuitianzhuang Xiang,shui tian zhuang,shui tian zhuang xiang,水田庄,水田庄乡","latitude":"28.05194","longitude":"110.81222","feature_class":"P","feature_code":"PPLA4","country_code":"CN","cc2":"","admin1_code":"11","admin2_code":"","admin3_code":"","admin4_code":"","population":"0","elevation":"","dem":"341","timezone":"Asia/Shanghai","modification_date":"2013-06-04"},{"geonameid":"1794408","name":"Shuitianhe","asciiname":"Shuitianhe","alternatenames":"Shui-t'ien-ho,Shui-t’ien-ho,Shuitianhe,Shuitianhe Zhen,shui tian he,shui tian he zhen,水田河,水田河镇","latitude":"28.53246","longitude":"109.58385","feature_class":"P","feature_code":"PPLA4","country_code":"CN","cc2":"","admin1_code":"11","admin2_code":"","admin3_code":"","admin4_code":"","population":"0","elevation":"","dem":"347","timezone":"Asia/Shanghai","modification_date":"2013-05-07"},{"geonameid":"1794409","name":"Shuitianba","asciiname":"Shuitianba","alternatenames":"Shuitianba,Shuitianba Xiang,shui tian ba,shui tian ba xiang,水田坝,水田坝乡","latitude":"31.05919","longitude":"110.67726","feature_class":"P","feature_code":"PPLA4","country_code":"CN","cc2":"","admin1_code":"12","admin2_code":"","admin3_code":"","admin4_code":"","population":"0","elevation":"","dem":"174","timezone":"Asia/Shanghai","modification_date":"2013-04-03"},{"geonameid":"1794410","name":"Shuitianba","asciiname":"Shuitianba","alternatenames":"Shui-t'ien-pa,Shui-t’ien-pa,Shuitianba,Shuitianba Xiang,shui tian ba,shui tian ba xiang,水田坝,水田坝乡","latitude":"29.45291","longitude":"109.72055","feature_class":"P","feature_code":"PPLA4","country_code":"CN","cc2":"","admin1_code":"11","admin2_code":"","admin3_code":"","admin4_code":"","population":"0","elevation":"","dem":"644","timezone":"Asia/Shanghai","modification_date":"2012-01-18"},{"geonameid":"1794412","name":"Shuidatian","asciiname":"Shuidatian","alternatenames":"Shui-t'ien,Shui-t’ien,Shuidatian,Shuitian","latitude":"27.85222","longitude":"109.60472","feature_class":"P","feature_code":"PPL","country_code":"CN","cc2":"CN","admin1_code":"11","admin2_code":"","admin3_code":"","admin4_code":"","population":"1080","elevation":"","dem":"256","timezone":"Asia/Shanghai","modification_date":"2012-01-18"},{"geonameid":"1794426","name":"Shuiqian","asciiname":"Shuiqian","alternatenames":"Shui-ch'ien,Shui-ch’ien,Shuiqian,Shuiqian Xiang,shui qian,shui qian xiang,水茜,水茜乡","latitude":"26.46659","longitude":"116.74315","feature_class":"P","feature_code":"PPLA4","country_code":"CN","cc2":"","admin1_code":"07","admin2_code":"","admin3_code":"","admin4_code":"","population":"0","elevation":"","dem":"375","timezone":"Asia/Shanghai","modification_date":"2012-01-18"},{"geonameid":"1794428","name":"Shuiping","asciiname":"Shuiping","alternatenames":"Shuiping,Shuiping Zhen,shui ping,shui ping zhen,水坪,水坪镇","latitude":"32.30512","longitude":"109.81078","feature_class":"P","feature_code":"PPLA4","country_code":"CN","cc2":"","admin1_code":"12","admin2_code":"","admin3_code":"","admin4_code":"","population":"0","elevation":"","dem":"410","timezone":"Asia/Shanghai","modification_date":"2013-06-04"},{"geonameid":"1794433","name":"Shuinan","asciiname":"Shuinan","alternatenames":"Shui-nan-shih,Shuinan,Shuinan Zhen,shui nan,shui nan zhen,水南,水南镇","latitude":"26.95787","longitude":"115.30066","feature_class":"P","feature_code":"PPLA4","country_code":"CN","cc2":"","admin1_code":"03","admin2_code":"","admin3_code":"","admin4_code":"","population":"0","elevation":"","dem":"82","timezone":"Asia/Shanghai","modification_date":"2012-01-18"},{"geonameid":"1794434","name":"Shuinanxu","asciiname":"Shuinanxu","alternatenames":"Shuinanxu,Shuinanxu Xiang,shui nan wei,shui nan wei xiang,水南圩,水南圩乡","latitude":"26.83558","longitude":"116.48561","feature_class":"P","feature_code":"PPLA4","country_code":"CN","cc2":"","admin1_code":"03","admin2_code":"","admin3_code":"","admin4_code":"","population":"0","elevation":"","dem":"262","timezone":"Asia/Shanghai","modification_date":"2012-01-18"},{"geonameid":"1794441","name":"Shuimen","asciiname":"Shuimen","alternatenames":"Shui-men-k'eng,Shui-men-k’eng,Shuimen,Shuimen Shezuxiang,shui men,shui men she zu xiang,水门,水门畲族乡","latitude":"26.97173","longitude":"120.06897","feature_class":"P","feature_code":"PPLA4","country_code":"CN","cc2":"","admin1_code":"07","admin2_code":"","admin3_code":"","admin4_code":"","population":"0","elevation":"","dem":"354","timezone":"Asia/Shanghai","modification_date":"2012-01-18"},{"geonameid":"1794448","name":"Shuikou","asciiname":"Shuikou","alternatenames":"Shui-k'ou-hsu,Shui-k’ou-hsu,Shuikou,Shuikou Zhen,Shuikouxu,shui kou,shui kou zhen,水口,水口镇","latitude":"25.14208","longitude":"114.47931","feature_class":"P","feature_code":"PPLA4","country_code":"CN","cc2":"","admin1_code":"30","admin2_code":"","admin3_code":"","admin4_code":"","population":"0","elevation":"","dem":"157","timezone":"Asia/Shanghai","modification_date":"2012-08-04"},{"geonameid":"1794455","name":"Shuikou","asciiname":"Shuikou","alternatenames":"Shuikou,Shuikou Zhen,shui kou,shui kou zhen,水口,水口镇","latitude":"34.97179","longitude":"107.99847","feature_class":"P","feature_code":"PPLA4","country_code":"CN","cc2":"","admin1_code":"26","admin2_code":"","admin3_code":"","admin4_code":"","population":"0","elevation":"","dem":"1273","timezone":"Asia/Shanghai","modification_date":"2012-01-18"},{"geonameid":"1794459","name":"Shuikou","asciiname":"Shuikou","alternatenames":"Shiakou,Shui-kow,Shuikou,Shuikou Zhen,shui kou,shui kou zhen,水口,水口镇","latitude":"26.3836","longitude":"118.73027","feature_class":"P","feature_code":"PPLA4","country_code":"CN","cc2":"","admin1_code":"07","admin2_code":"","admin3_code":"","admin4_code":"","population":"3760","elevation":"","dem":"68","timezone":"Asia/Shanghai","modification_date":"2012-01-18"},{"geonameid":"1794462","name":"Shuikou","asciiname":"Shuikou","alternatenames":"Shuikou,Shuikou Zhen,shui kou,shui kou zhen,水口,水口镇","latitude":"25.71176","longitude":"118.43071","feature_class":"P","feature_code":"PPLA4","country_code":"CN","cc2":"","admin1_code":"07","admin2_code":"","admin3_code":"","admin4_code":"","population":"0","elevation":"","dem":"248","timezone":"Asia/Shanghai","modification_date":"2013-07-05"},{"geonameid":"1794465","name":"Shuikou","asciiname":"Shuikou","alternatenames":"Shui-k'ou-hsu,Shui-k’ou-hsü,Shuikou,Shuikou Zhen,shui kou,shui kou zhen,水口,水口镇","latitude":"23.98372","longitude":"115.89581","feature_class":"P","feature_code":"PPLA4","country_code":"CN","cc2":"","admin1_code":"30","admin2_code":"","admin3_code":"","admin4_code":"","population":"0","elevation":"","dem":"114","timezone":"Asia/Shanghai","modification_date":"2012-06-05"},{"geonameid":"1794468","name":"Shuikou","asciiname":"Shuikou","alternatenames":"Shuikou,Shuikou Zhen,shui kou,shui kou zhen,水口,水口镇","latitude":"22.45474","longitude":"112.76396","feature_class":"P","feature_code":"PPLA4","country_code":"CN","cc2":"","admin1_code":"30","admin2_code":"","admin3_code":"","admin4_code":"","population":"0","elevation":"","dem":"9","timezone":"Asia/Shanghai","modification_date":"2012-06-05"},{"geonameid":"1794469","name":"Shuikou","asciiname":"Shuikou","alternatenames":"Shuikou,Shuikou Zhen,shui kou,shui kou zhen,水口,水口镇","latitude":"22.25","longitude":"110.91391","feature_class":"P","feature_code":"PPLA4","country_code":"CN","cc2":"","admin1_code":"30","admin2_code":"","admin3_code":"","admin4_code":"","population":"0","elevation":"","dem":"68","timezone":"Asia/Urumqi","modification_date":"2012-06-05"},{"geonameid":"1794478","name":"Shuijiang","asciiname":"Shuijiang","alternatenames":"Shui-chiang,Shui-chiang-shih,Shuijiang,Shuijiang Zhen,shui jiang,shui jiang zhen,水江,水江镇","latitude":"29.2476","longitude":"107.28443","feature_class":"P","feature_code":"PPLA4","country_code":"CN","cc2":"","admin1_code":"33","admin2_code":"","admin3_code":"","admin4_code":"","population":"0","elevation":"","dem":"573","timezone":"Asia/Shanghai","modification_date":"2013-05-07"},{"geonameid":"1794479","name":"Laixi","asciiname":"Laixi","alternatenames":"Lai-hsi,Laixi,Laixi Shi,Shui-chi,Shui-kou-t'ou,Shui-kou-t’ou,Shuiji,Shuikowtow","latitude":"36.85917","longitude":"120.52694","feature_class":"P","feature_code":"PPL","country_code":"CN","cc2":"","admin1_code":"25","admin2_code":"","admin3_code":"","admin4_code":"","population":"75849","elevation":"","dem":"54","timezone":"Asia/Shanghai","modification_date":"2012-01-18"},{"geonameid":"1794480","name":"Shuiji","asciiname":"Shuiji","alternatenames":"Shui-chi,Shui-chi-hsien,Shuiji,Shuiji Zhen,Shuiki,Shuiki-hsien,shui ji,shui ji zhen,水吉,水吉镇","latitude":"27.42139","longitude":"118.34502","feature_class":"P","feature_code":"PPLA4","country_code":"CN","cc2":"","admin1_code":"07","admin2_code":"","admin3_code":"","admin4_code":"","population":"0","elevation":"","dem":"153","timezone":"Asia/Shanghai","modification_date":"2012-01-18"},{"geonameid":"1794481","name":"Shuihu","asciiname":"Shuihu","alternatenames":"Changfeng,Shui-chia-hu,Shuihu,Shuijiahu,Sui-chia-hu,shui hu,水湖","latitude":"32.47667","longitude":"117.15778","feature_class":"P","feature_code":"PPLA3","country_code":"CN","cc2":"","admin1_code":"01","admin2_code":"","admin3_code":"","admin4_code":"","population":"0","elevation":"","dem":"30","timezone":"Asia/Shanghai","modification_date":"2012-01-18"},{"geonameid":"1794486","name":"Shuigou","asciiname":"Shuigou","alternatenames":"Shui-kou,Shuigou,Shuigou Zhen,shui gou,shui gou zhen,水沟,水沟镇","latitude":"34.74858","longitude":"107.01279","feature_class":"P","feature_code":"PPLA4","country_code":"CN","cc2":"","admin1_code":"26","admin2_code":"","admin3_code":"","admin4_code":"","population":"0","elevation":"","dem":"804","timezone":"Asia/Shanghai","modification_date":"2012-01-18"},{"geonameid":"1794496","name":"Shuidong","asciiname":"Shuidong","alternatenames":"Shui-tung,Shui-tung-chen,Shuidong,Shuidong Zhen,shui dong,shui dong zhen,水东,水东镇","latitude":"30.78833","longitude":"118.95444","feature_class":"P","feature_code":"PPLA4","country_code":"CN","cc2":"","admin1_code":"01","admin2_code":"","admin3_code":"","admin4_code":"","population":"0","elevation":"","dem":"36","timezone":"Asia/Shanghai","modification_date":"2012-01-18"},{"geonameid":"1794499","name":"Shuidong","asciiname":"Shuidong","alternatenames":"Shui-tang-shih,Shui-tung,Shui-tung-chen,Shuidong,Shuidong Zhen,Sui-tung,Tien-pai,shui dong,shui dong zhen,水东,水东镇","latitude":"21.5134","longitude":"111.00184","feature_class":"P","feature_code":"PPLA3","country_code":"CN","cc2":"","admin1_code":"30","admin2_code":"","admin3_code":"","admin4_code":"","population":"0","elevation":"","dem":"12","timezone":"Asia/Urumqi","modification_date":"2013-10-05"},{"geonameid":"1794503","name":"Shuidao","asciiname":"Shuidao","alternatenames":"Shui-tao,Shui-tao-chi,Shuidao,Shuidao Zhen,shui dao,shui dao zhen,水道,水道镇","latitude":"37.17072","longitude":"121.57825","feature_class":"P","feature_code":"PPLA4","country_code":"CN","cc2":"","admin1_code":"25","admin2_code":"","admin3_code":"","admin4_code":"","population":"0","elevation":"","dem":"87","timezone":"Asia/Shanghai","modification_date":"2012-12-05"},{"geonameid":"1794506","name":"Shuichun","asciiname":"Shuichun","alternatenames":"Shuichun,Shuichun Zhen,Shuicun,shui chun,shui chun zhen,水唇,水唇镇","latitude":"23.31524","longitude":"115.73758","feature_class":"P","feature_code":"PPLA4","country_code":"CN","cc2":"","admin1_code":"30","admin2_code":"","admin3_code":"","admin4_code":"","population":"0","elevation":"","dem":"99","timezone":"Asia/Shanghai","modification_date":"2012-06-05"},{"geonameid":"1794511","name":"Shuiche","asciiname":"Shuiche","alternatenames":"","latitude":"27.68694","longitude":"110.99972","feature_class":"P","feature_code":"PPL","country_code":"CN","cc2":"","admin1_code":"11","admin2_code":"","admin3_code":"","admin4_code":"","population":"3550","elevation":"","dem":"447","timezone":"Asia/Shanghai","modification_date":"2004-06-29"},{"geonameid":"1794513","name":"Shuiche","asciiname":"Shuiche","alternatenames":"Shui-ch'e-hsu,Shui-ch’e-hsü,Shuiche,Shuiche Zhen,shui che,shui che zhen,水车,水车镇","latitude":"24.08898","longitude":"116.01874","feature_class":"P","feature_code":"PPLA4","country_code":"CN","cc2":"","admin1_code":"30","admin2_code":"","admin3_code":"","admin4_code":"","population":"0","elevation":"","dem":"116","timezone":"Asia/Shanghai","modification_date":"2012-06-05"},{"geonameid":"1794518","name":"Shuibu","asciiname":"Shuibu","alternatenames":"Shuibu,Shuibu Zhen,shui bu,shui bu zhen,水步,水步镇","latitude":"22.33523","longitude":"112.80176","feature_class":"P","feature_code":"PPLA4","country_code":"CN","cc2":"","admin1_code":"30","admin2_code":"","admin3_code":"","admin4_code":"","population":"0","elevation":"","dem":"11","timezone":"Asia/Shanghai","modification_date":"2012-06-05"},{"geonameid":"1794521","name":"Shuibian","asciiname":"Shuibian","alternatenames":"Shui-pien,Shuibian,Shuibian Zhen,Xiajiang Xian,shui bian,shui bian zhen,xia jiang xian,峡江县,水边,水边镇","latitude":"27.60805","longitude":"115.32636","feature_class":"P","feature_code":"PPLA3","country_code":"CN","cc2":"","admin1_code":"03","admin2_code":"","admin3_code":"","admin4_code":"","population":"0","elevation":"","dem":"45","timezone":"Asia/Shanghai","modification_date":"2012-01-18"},{"geonameid":"1794524","name":"Shuibei","asciiname":"Shuibei","alternatenames":"Shui-pei,Shui-pei-chieh,Shuibei,Shuibei Zhen,shui bei,shui bei zhen,水北,水北镇","latitude":"28.04118","longitude":"115.05725","feature_class":"P","feature_code":"PPLA4","country_code":"CN","cc2":"","admin1_code":"03","admin2_code":"","admin3_code":"","admin4_code":"","population":"0","elevation":"","dem":"52","timezone":"Asia/Shanghai","modification_date":"2012-01-18"},{"geonameid":"1794525","name":"Shuibeijie","asciiname":"Shuibeijie","alternatenames":"Shui-pei,Shuibei,Shuibeijie,Shuibeijie Zhen,shui bei jie,shui bei jie zhen,水北街,水北街镇","latitude":"27.69448","longitude":"118.56974","feature_class":"P","feature_code":"PPLA4","country_code":"CN","cc2":"","admin1_code":"07","admin2_code":"","admin3_code":"","admin4_code":"","population":"0","elevation":"","dem":"225","timezone":"Asia/Shanghai","modification_date":"2012-08-04"},{"geonameid":"1794528","name":"Shuibatang","asciiname":"Shuibatang","alternatenames":"Shixi,Shui-pa-t'ang,Shui-pa-t’ang,Shuibatang,Shuibatang Zhen,shui ba tang,shui ba tang zhen,水坝塘,水坝塘镇","latitude":"28.73671","longitude":"107.07466","feature_class":"P","feature_code":"PPLA4","country_code":"CN","cc2":"","admin1_code":"18","admin2_code":"","admin3_code":"","admin4_code":"","population":"0","elevation":"","dem":"459","timezone":"Asia/Shanghai","modification_date":"2013-05-07"},{"geonameid":"1794531","name":"Shuhong","asciiname":"Shuhong","alternatenames":"Shu-hung,Shu-hung-shih,Shuhong,Shuhong Zhen,shu hong,shu hong zhen,舒洪,舒洪镇","latitude":"28.64638","longitude":"120.1561","feature_class":"P","feature_code":"PPLA4","country_code":"CN","cc2":"","admin1_code":"02","admin2_code":"","admin3_code":"","admin4_code":"","population":"0","elevation":"","dem":"183","timezone":"Asia/Shanghai","modification_date":"2012-10-06"},{"geonameid":"1794532","name":"Shuhe","asciiname":"Shuhe","alternatenames":"Shih-ho-chen,Shu-ho-chen,Shuhe,Shuhezhen,Zhiliang,shu he,shu he zhen,zhi liang,志良,竖河,竖河镇","latitude":"31.9925","longitude":"121.61417","feature_class":"P","feature_code":"PPLA4","country_code":"CN","cc2":"","admin1_code":"04","admin2_code":"","admin3_code":"","admin4_code":"","population":"0","elevation":"","dem":"6","timezone":"Asia/Shanghai","modification_date":"2012-01-18"},{"geonameid":"1794545","name":"Shucheng Chengguanzhen","asciiname":"Shucheng Chengguanzhen","alternatenames":"Shu-ch'eng-hsien,Shu-ch’eng-hsien,Shucheng,Shucheng Chengguanzhen,Shucheng Xian,shu cheng cheng guan zhen,shu cheng xian,舒城县,舒城城关镇","latitude":"31.47448","longitude":"116.95207","feature_class":"P","feature_code":"PPLA3","country_code":"CN","cc2":"","admin1_code":"01","admin2_code":"","admin3_code":"","admin4_code":"","population":"0","elevation":"","dem":"22","timezone":"Asia/Shanghai","modification_date":"2013-09-06"},{"geonameid":"1794550","name":"Shuangzhong","asciiname":"Shuangzhong","alternatenames":"Hu-k'ou-hsien,Hu-k'ou-hsien-ch'eng,Hu-k’ou-hsien,Hu-k’ou-hsien-ch’eng,Hukau,Hukou,Hukou Xian,Hukow,Hukow-hsien,Shuangzhong,Shuangzhong Zhen,hu kou,hu kou xian,shuang zhong,shuang zhong zhen,双钟,双钟镇,湖口,湖口县","latitude":"29.74296","longitude":"116.22426","feature_class":"P","feature_code":"PPLA3","country_code":"CN","cc2":"","admin1_code":"03","admin2_code":"","admin3_code":"","admin4_code":"","population":"0","elevation":"","dem":"41","timezone":"Asia/Shanghai","modification_date":"2014-12-01"},{"geonameid":"1794551","name":"Shuangzhao","asciiname":"Shuangzhao","alternatenames":"Shuang-chao,Shuang-chao-chen,Shuang-chao-ling,Shuang-chao-p'u,Shuang-chao-p’u,Shuangzhao,Shuangzhao Zhen,shuang zhao,shuang zhao zhen,双照,双照镇","latitude":"34.40222","longitude":"108.61722","feature_class":"P","feature_code":"PPLA4","country_code":"CN","cc2":"","admin1_code":"26","admin2_code":"","admin3_code":"","admin4_code":"","population":"0","elevation":"","dem":"500","timezone":"Asia/Shanghai","modification_date":"2012-01-18"},{"geonameid":"1794560","name":"Shuangyang","asciiname":"Shuangyang","alternatenames":"Chengnei,Shuangyang,Shuangyang Zhen,cheng nei,shuang yang,shuang yang zhen,双洋,双洋镇,城内","latitude":"25.6075","longitude":"117.36","feature_class":"P","feature_code":"PPLA4","country_code":"CN","cc2":"","admin1_code":"07","admin2_code":"","admin3_code":"","admin4_code":"","population":"0","elevation":"","dem":"312","timezone":"Asia/Shanghai","modification_date":"2012-06-05"},{"geonameid":"1794561","name":"Shuangxikou","asciiname":"Shuangxikou","alternatenames":"Shuang-ch'i-k'ou,Shuang-ch’i-k’ou,Shuangxikou,Shuangxikou Xiang,shuang xi kou,shuang xi kou xiang,双溪口,双溪口乡","latitude":"29.25","longitude":"111.36667","feature_class":"P","feature_code":"PPLA4","country_code":"CN","cc2":"","admin1_code":"11","admin2_code":"","admin3_code":"","admin4_code":"","population":"0","elevation":"","dem":"63","timezone":"Asia/Shanghai","modification_date":"2012-01-18"},{"geonameid":"1794565","name":"Shuangxiqiao","asciiname":"Shuangxiqiao","alternatenames":"Shuangxi,Shuangxiqiao,Shuangxiqiao Zhen,shuang xi,shuang xi qiao,shuang xi qiao zhen,双溪,双溪桥,双溪桥镇","latitude":"29.927","longitude":"114.48085","feature_class":"P","feature_code":"PPLA4","country_code":"CN","cc2":"","admin1_code":"12","admin2_code":"","admin3_code":"","admin4_code":"","population":"0","elevation":"","dem":"66","timezone":"Asia/Shanghai","modification_date":"2012-01-18"},{"geonameid":"1794567","name":"Shuangxi","asciiname":"Shuangxi","alternatenames":"Ching-an,Ching-an-ch'eng,Ching-an-ch’eng,Ching-an-hsien,Jing'an Xian,Jing’an Xian,Shuangxi,Shuangxi Zhen,Tsingan,Tsingan-hsien,Tsingonhsien,jing an xian,shuang xi,shuang xi zhen,双溪,双溪镇,靖安县","latitude":"28.86295","longitude":"115.35194","feature_class":"P","feature_code":"PPLA3","country_code":"CN","cc2":"","admin1_code":"03","admin2_code":"","admin3_code":"","admin4_code":"","population":"0","elevation":"","dem":"68","timezone":"Asia/Shanghai","modification_date":"2012-02-02"},{"geonameid":"1794568","name":"Shuangxi","asciiname":"Shuangxi","alternatenames":"Shuang-ch'i,Shuang-ch’i,Shuang-hsi,Shuangxi,Shuangxi Zhen,shuang xi,shuang xi zhen,双溪,双溪镇","latitude":"28.59376","longitude":"119.87291","feature_class":"P","feature_code":"PPLA4","country_code":"CN","cc2":"","admin1_code":"02","admin2_code":"","admin3_code":"","admin4_code":"","population":"0","elevation":"","dem":"162","timezone":"Asia/Shanghai","modification_date":"2013-03-05"},{"geonameid":"1794569","name":"Shuangxi","asciiname":"Shuangxi","alternatenames":"Shuang-hsi,Shuangxi","latitude":"27.22833","longitude":"109.85583","feature_class":"P","feature_code":"PPL","country_code":"CN","cc2":"CN","admin1_code":"11","admin2_code":"","admin3_code":"","admin4_code":"","population":"1040","elevation":"","dem":"238","timezone":"Asia/Shanghai","modification_date":"2012-01-18"},{"geonameid":"1794570","name":"Shuangxi","asciiname":"Shuangxi","alternatenames":"Ch'iu-p'ing-nan,Ch’iu-p’ing-nan,P'ing-nam,P’ing-nam,Shuang-hsi,Shuangxi,Shuangxi Zhen,shuang xi,shuang xi zhen,双溪,双溪镇","latitude":"27.02248","longitude":"119.0414","feature_class":"P","feature_code":"PPLA4","country_code":"CN","cc2":"","admin1_code":"07","admin2_code":"","admin3_code":"","admin4_code":"","population":"3980","elevation":"","dem":"843","timezone":"Asia/Shanghai","modification_date":"2012-08-04"},{"geonameid":"1794576","name":"Shuangwang","asciiname":"Shuangwang","alternatenames":"Shuangwang,Shuangwang Xiang,shuang wang,双王","latitude":"34.52649","longitude":"109.48977","feature_class":"P","feature_code":"PPLA4","country_code":"CN","cc2":"","admin1_code":"26","admin2_code":"","admin3_code":"","admin4_code":"","population":"0","elevation":"","dem":"347","timezone":"Asia/Shanghai","modification_date":"2012-01-18"},{"geonameid":"1794584","name":"Shuangtang","asciiname":"Shuangtang","alternatenames":"Hsi-shuang-t'ang,Hsi-shuang-t’ang,Shuangtang,Shuangtang Zhen,shuang tang,shuang tang zhen,双塘,双塘镇","latitude":"38.87094","longitude":"116.90421","feature_class":"P","feature_code":"PPLA4","country_code":"CN","cc2":"","admin1_code":"28","admin2_code":"","admin3_code":"","admin4_code":"","population":"0","elevation":"","dem":"8","timezone":"Asia/Shanghai","modification_date":"2012-11-08"},{"geonameid":"1794585","name":"Shuangtang","asciiname":"Shuangtang","alternatenames":"Shuangtang,Shuangtang Zhen,shuang tang,shuang tang zhen,双塘,双塘镇","latitude":"28.03596","longitude":"116.73216","feature_class":"P","feature_code":"PPLA4","country_code":"CN","cc2":"","admin1_code":"03","admin2_code":"","admin3_code":"","admin4_code":"","population":"0","elevation":"","dem":"81","timezone":"Asia/Shanghai","modification_date":"2012-01-18"},{"geonameid":"1794590","name":"Shuangshui","asciiname":"Shuangshui","alternatenames":"Shuangshui,Shuangshui Zhen,shuang shui,shuang shui zhen,双水,双水镇","latitude":"22.43501","longitude":"112.99445","feature_class":"P","feature_code":"PPLA4","country_code":"CN","cc2":"","admin1_code":"30","admin2_code":"","admin3_code":"","admin4_code":"","population":"0","elevation":"","dem":"2","timezone":"Asia/Shanghai","modification_date":"2012-06-05"},{"geonameid":"1794591","name":"Shuangshu","asciiname":"Shuangshu","alternatenames":"","latitude":"39.56389","longitude":"117.02444","feature_class":"P","feature_code":"PPL","country_code":"CN","cc2":"","admin1_code":"28","admin2_code":"","admin3_code":"","admin4_code":"","population":"2134","elevation":"","dem":"12","timezone":"Asia/Shanghai","modification_date":"2000-11-21"},{"geonameid":"1794592","name":"Shuangshi","asciiname":"Shuangshi","alternatenames":"Shuang-shih-ch'iao,Shuang-shih-ch’iao,Shuangshi,Shuangshi Zhen,Shuangshiqiao,shuang shi,shuang shi zhen,双石,双石镇","latitude":"29.40031","longitude":"105.83781","feature_class":"P","feature_code":"PPLA4","country_code":"CN","cc2":"","admin1_code":"33","admin2_code":"","admin3_code":"","admin4_code":"","population":"0","elevation":"","dem":"315","timezone":"Asia/Shanghai","modification_date":"2012-11-08"},{"geonameid":"1794593","name":"Shuangshipu","asciiname":"Shuangshipu","alternatenames":"Feng,Feng-hsien,Fengxian,Shuang-shi-chen,Shuang-shih-chen,Shuang-shih-p'u,Shuang-shih-p’u,Shuangshipu,Shuangshipu Zhen,Shwangshih-chen,feng xian,shuang shi pu,shuang shi pu zhen,凤县,双石铺,双石铺镇","latitude":"33.91705","longitude":"106.52466","feature_class":"P","feature_code":"PPLA3","country_code":"CN","cc2":"","admin1_code":"26","admin2_code":"","admin3_code":"","admin4_code":"","population":"0","elevation":"","dem":"962","timezone":"Asia/Shanghai","modification_date":"2012-01-18"},{"geonameid":"1794605","name":"Shuangqiaoping","asciiname":"Shuangqiaoping","alternatenames":"Shuangqiaoping,Shuangqiaoping Zhen,shuang qiao ping,shuang qiao ping zhen,双桥坪,双桥坪镇","latitude":"29.2662","longitude":"111.77283","feature_class":"P","feature_code":"PPLA4","country_code":"CN","cc2":"","admin1_code":"11","admin2_code":"","admin3_code":"","admin4_code":"","population":"0","elevation":"","dem":"53","timezone":"Asia/Shanghai","modification_date":"2012-01-18"},{"geonameid":"1794626","name":"Longbo","asciiname":"Longbo","alternatenames":"Longbo,Longbozhen,Shuangpai,long po,泷泊","latitude":"25.92922","longitude":"111.6222","feature_class":"P","feature_code":"PPLA3","country_code":"CN","cc2":"","admin1_code":"11","admin2_code":"","admin3_code":"","admin4_code":"","population":"0","elevation":"","dem":"557","timezone":"Asia/Shanghai","modification_date":"2012-01-18"},{"geonameid":"1794627","name":"Shuangnian","asciiname":"Shuangnian","alternatenames":"Shuang-nien,Shuang-nien-ts'un,Shuang-nien-ts’un,Shuangnian,Shuangnian Xiang,shuang nian,shuang nian xiang,双碾,双碾乡","latitude":"39.63547","longitude":"112.10074","feature_class":"P","feature_code":"PPLA4","country_code":"CN","cc2":"","admin1_code":"24","admin2_code":"","admin3_code":"","admin4_code":"","population":"0","elevation":"","dem":"1598","timezone":"Asia/Shanghai","modification_date":"2012-01-18"},{"geonameid":"1794633","name":"Shuangmiao","asciiname":"Shuangmiao","alternatenames":"Shuang-miao-chieh,Shuangmiao,shuang miao,双庙","latitude":"33.9075","longitude":"113.63424","feature_class":"P","feature_code":"PPLA4","country_code":"CN","cc2":"","admin1_code":"09","admin2_code":"","admin3_code":"","admin4_code":"","population":"0","elevation":"","dem":"82","timezone":"Asia/Shanghai","modification_date":"2012-01-18"},{"geonameid":"1794641","name":"Shuanglu","asciiname":"Shuanglu","alternatenames":"Shuanglu,Shuanglu Zhen,Shuanglukou,shuang lu,shuang lu zhen,双路,双路镇","latitude":"29.86429","longitude":"107.77483","feature_class":"P","feature_code":"PPLA4","country_code":"CN","cc2":"","admin1_code":"33","admin2_code":"","admin3_code":"","admin4_code":"","population":"0","elevation":"","dem":"471","timezone":"Asia/Shanghai","modification_date":"2012-10-06"},{"geonameid":"1794650","name":"Shuanglong","asciiname":"Shuanglong","alternatenames":"Shuang-lung,Shuanglong,Shuanglong Zhen,shuang long,shuang long zhen,双龙,双龙镇","latitude":"29.95972","longitude":"107.20356","feature_class":"P","feature_code":"PPLA4","country_code":"CN","cc2":"","admin1_code":"33","admin2_code":"","admin3_code":"","admin4_code":"","population":"0","elevation":"","dem":"418","timezone":"Asia/Shanghai","modification_date":"2012-11-08"},{"geonameid":"1794653","name":"Dongsheng","asciiname":"Dongsheng","alternatenames":"Dongsheng,Shuang-liu-ch'eng-kuan-chen,Shuang-liu-ch’eng-kuan-chen,Shuang-liu-hsien,Shuangliu,Shuanlyu,Shwangliu,Shwangliu-hsien,dong sheng,东升","latitude":"30.57383","longitude":"103.92127","feature_class":"P","feature_code":"PPLA3","country_code":"CN","cc2":"","admin1_code":"32","admin2_code":"","admin3_code":"","admin4_code":"","population":"0","elevation":"","dem":"509","timezone":"Asia/Shanghai","modification_date":"2012-01-18"},{"geonameid":"1794654","name":"Shuangliu","asciiname":"Shuangliu","alternatenames":"Shuangliu,Shuangliu Jiedao,shuang liu,shuang liu jie dao,双柳,双柳街道","latitude":"30.5922","longitude":"114.64179","feature_class":"P","feature_code":"PPLA4","country_code":"CN","cc2":"","admin1_code":"12","admin2_code":"","admin3_code":"","admin4_code":"","population":"0","elevation":"","dem":"27","timezone":"Asia/Shanghai","modification_date":"2012-01-18"},{"geonameid":"1794658","name":"Shuanglin","asciiname":"Shuanglin","alternatenames":"Shuang-lin-chen,Shuanglin,Shuanglin Zhen,Songlin,shuang lin,shuang lin zhen,双林,双林镇","latitude":"30.78117","longitude":"120.3144","feature_class":"P","feature_code":"PPLA4","country_code":"CN","cc2":"","admin1_code":"02","admin2_code":"","admin3_code":"","admin4_code":"","population":"0","elevation":"","dem":"6","timezone":"Asia/Shanghai","modification_date":"2012-01-18"},{"geonameid":"1794659","name":"Shuanglin","asciiname":"Shuanglin","alternatenames":"Shuanglin,Shuanglin Zhen,shuang lin,shuang lin zhen,双林,双林镇","latitude":"27.93996","longitude":"114.75533","feature_class":"P","feature_code":"PPLA4","country_code":"CN","cc2":"","admin1_code":"03","admin2_code":"","admin3_code":"","admin4_code":"","population":"0","elevation":"","dem":"90","timezone":"Asia/Shanghai","modification_date":"2012-01-18"},{"geonameid":"1794665","name":"Shuangkou","asciiname":"Shuangkou","alternatenames":"Shuang-k'ou-chen,Shuang-k’ou-chen,Shuangkou,Shuangkou Zhen,shuang kou,shuang kou zhen,双口,双口镇","latitude":"39.23894","longitude":"117.02576","feature_class":"P","feature_code":"PPLA4","country_code":"CN","cc2":"","admin1_code":"28","admin2_code":"","admin3_code":"","admin4_code":"","population":"0","elevation":"","dem":"12","timezone":"Asia/Shanghai","modification_date":"2012-11-08"},{"geonameid":"1794673","name":"Shuangjie","asciiname":"Shuangjie","alternatenames":"Shuang-chieh,Shuangjie,Shuangjie Zhen,shuang jie,shuang jie zhen,双捷,双捷镇","latitude":"21.94376","longitude":"111.78146","feature_class":"P","feature_code":"PPLA4","country_code":"CN","cc2":"","admin1_code":"30","admin2_code":"","admin3_code":"","admin4_code":"","population":"0","elevation":"","dem":"7","timezone":"Asia/Shanghai","modification_date":"2012-06-05"},{"geonameid":"1794677","name":"Shuangjiao","asciiname":"Shuangjiao","alternatenames":"Shuang-chiao,Shuang-chiao-hsu,Shuang-chiao-hsü,Shuangjiao,Shuangjiao Zhen,shuang jiao,shuang jiao zhen,双滘,双窖镇","latitude":"22.09874","longitude":"111.35908","feature_class":"P","feature_code":"PPLA4","country_code":"CN","cc2":"","admin1_code":"30","admin2_code":"","admin3_code":"","admin4_code":"","population":"0","elevation":"","dem":"92","timezone":"Asia/Shanghai","modification_date":"2012-06-05"},{"geonameid":"1794681","name":"Shuangjiang","asciiname":"Shuangjiang","alternatenames":"Shuang-chiang,Shuang-chiang-chen,Shuangjiang,Shuangjiang Jiedao,Yunyang Xian,shuang jiang,shuang jiang jie dao,yun yang xian,云阳县,双江,双江街道","latitude":"30.9424","longitude":"108.68129","feature_class":"P","feature_code":"PPLA3","country_code":"CN","cc2":"","admin1_code":"33","admin2_code":"","admin3_code":"","admin4_code":"","population":"0","elevation":"","dem":"224","timezone":"Asia/Shanghai","modification_date":"2012-10-06"},{"geonameid":"1794682","name":"Shuangjiang","asciiname":"Shuangjiang","alternatenames":"Shuang-chiang,Shuang-chiang-chen,Shuangjiang,Shuangjiang Zhen,Shuantszyanchzhen',Shuantszyanchzhen’,Xiangjiaba,shuang jiang,shuang jiang zhen,xiang jia ba,双江,双江镇,向家坝","latitude":"30.21754","longitude":"105.7452","feature_class":"P","feature_code":"PPLA4","country_code":"CN","cc2":"","admin1_code":"33","admin2_code":"","admin3_code":"","admin4_code":"","population":"0","elevation":"","dem":"263","timezone":"Asia/Shanghai","modification_date":"2012-11-08"},{"geonameid":"1794685","name":"Shuangjiang","asciiname":"Shuangjiang","alternatenames":"Shuang-chiang,Shuang-chiang-k'ou,Shuang-chiang-k’ou,Shuangjiang,T'ung-tao,T'ung-tao-t'ung-tsu-tzu-chih-hsien,Tongdao,T’ung-tao,T’ung-tao-t’ung-tsu-tzu-chih-hsien,shuang jiang,双江","latitude":"26.15467","longitude":"109.7138","feature_class":"P","feature_code":"PPLA3","country_code":"CN","cc2":"","admin1_code":"11","admin2_code":"","admin3_code":"","admin4_code":"","population":"8320","elevation":"","dem":"525","timezone":"Asia/Shanghai","modification_date":"2012-01-18"},{"geonameid":"1794688","name":"Shuangjiang","asciiname":"Shuangjiang","alternatenames":"Eshan,Eshan Yizu Zizhixian,Hsi-o,Ngeshan-hsien,O-shan,O-shan-hsien,O-shan-hsien-i-tsu-tzu-chih-ch'u,O-shan-hsien-i-tsu-tzu-chih-ch’ü,O-shan-i-tsu-tzu-chih-hsien,Shuangjiang,Shuangjiang Zhen,Sihohsien,e shan yi zu zi zhi xian,shuang jiang,shuang jiang zhen,双江,双江镇,峨山彝族自治县","latitude":"24.17261","longitude":"102.40049","feature_class":"P","feature_code":"PPLA3","country_code":"CN","cc2":"","admin1_code":"29","admin2_code":"","admin3_code":"","admin4_code":"","population":"0","elevation":"","dem":"1544","timezone":"Asia/Shanghai","modification_date":"2012-01-18"},{"geonameid":"1794700","name":"Shuanghe","asciiname":"Shuanghe","alternatenames":"Shuang-ho-ch'ang,Shuang-ho-ch’ang,Shuanghe,Shuanghe Zhen,Shuanghechang,shuang he,shuang he zhen,双河,双河镇","latitude":"29.32074","longitude":"105.56942","feature_class":"P","feature_code":"PPLA4","country_code":"CN","cc2":"","admin1_code":"33","admin2_code":"","admin3_code":"","admin4_code":"","population":"0","elevation":"","dem":"320","timezone":"Asia/Shanghai","modification_date":"2012-11-08"},{"geonameid":"1794712","name":"Shuanghe","asciiname":"Shuanghe","alternatenames":"Shuang-ho,Shuanghe,Shuanghe Xiang,shuang he,shuang he xiang,双河,双河乡","latitude":"31.6744","longitude":"112.81486","feature_class":"P","feature_code":"PPLA4","country_code":"CN","cc2":"","admin1_code":"12","admin2_code":"","admin3_code":"","admin4_code":"","population":"0","elevation":"","dem":"167","timezone":"Asia/Shanghai","modification_date":"2012-01-18"},{"geonameid":"1794715","name":"Shuanghe","asciiname":"Shuanghe","alternatenames":"Shuang-ho,Shuang-ho-k'ou,Shuang-ho-k’ou,Shuanghe,Shuanghe Zhen,shuang he,shuang he zhen,双河,双河镇","latitude":"31.28079","longitude":"112.27057","feature_class":"P","feature_code":"PPLA4","country_code":"CN","cc2":"","admin1_code":"12","admin2_code":"","admin3_code":"","admin4_code":"","population":"0","elevation":"","dem":"58","timezone":"Asia/Shanghai","modification_date":"2012-01-18"},{"geonameid":"1794720","name":"Shuanghekou","asciiname":"Shuanghekou","alternatenames":"Shuang-ho,Shuanghe,Shuanghekou,Shuanghekou Zhen,shuang he kou,shuang he kou zhen,双河口,双河口镇","latitude":"29.61861","longitude":"106.91833","feature_class":"P","feature_code":"PPLA4","country_code":"CN","cc2":"","admin1_code":"33","admin2_code":"","admin3_code":"","admin4_code":"","population":"0","elevation":"","dem":"224","timezone":"Asia/Shanghai","modification_date":"2013-06-04"},{"geonameid":"1794721","name":"Shuanghe","asciiname":"Shuanghe","alternatenames":"Lanbazi,Shuanghe,Shuanghe Xiang,lan ba zi,shuang he,shuang he xiang,双河,双河乡,烂坝子","latitude":"29.54932","longitude":"107.71841","feature_class":"P","feature_code":"PPLA4","country_code":"CN","cc2":"","admin1_code":"33","admin2_code":"","admin3_code":"","admin4_code":"","population":"0","elevation":"","dem":"1350","timezone":"Asia/Shanghai","modification_date":"2012-11-08"},{"geonameid":"1794730","name":"Shuanggou","asciiname":"Shuanggou","alternatenames":"Shuang-kou,Shuang-kou-chen,Shuanggou,Shuanggou Zhen,Shwangkow,shuang gou,shuang gou zhen,双沟,双沟镇","latitude":"32.18957","longitude":"112.38053","feature_class":"P","feature_code":"PPLA4","country_code":"CN","cc2":"","admin1_code":"12","admin2_code":"","admin3_code":"","admin4_code":"","population":"0","elevation":"","dem":"79","timezone":"Asia/Shanghai","modification_date":"2013-05-07"},{"geonameid":"1794732","name":"Shuanggang","asciiname":"Shuanggang","alternatenames":"Shuang-lin,Shuanggang,Shuanggang Zhen,Shuangjiang,shuang gang,shuang gang zhen,双港,双港镇","latitude":"39.04395","longitude":"117.31014","feature_class":"P","feature_code":"PPLA4","country_code":"CN","cc2":"","admin1_code":"28","admin2_code":"","admin3_code":"","admin4_code":"","population":"3914","elevation":"","dem":"6","timezone":"Asia/Shanghai","modification_date":"2012-11-08"},{"geonameid":"1794733","name":"Shuanggang","asciiname":"Shuanggang","alternatenames":"Shuang-chiang,Shuang-kang,Shuanggang,Shuanggang Zhen,shuang gang,shuang gang zhen,双港,双港镇","latitude":"34.26667","longitude":"119.66667","feature_class":"P","feature_code":"PPLA4","country_code":"CN","cc2":"","admin1_code":"04","admin2_code":"","admin3_code":"","admin4_code":"","population":"0","elevation":"","dem":"2","timezone":"Asia/Shanghai","modification_date":"2012-01-18"},{"geonameid":"1794747","name":"Shuangfeng","asciiname":"Shuangfeng","alternatenames":"Shuang-feng-chen,Shuangfeng,Shuangfeng Zhen,shuang feng,shuang feng zhen,双凤,双凤镇","latitude":"31.51663","longitude":"121.02524","feature_class":"P","feature_code":"PPLA4","country_code":"CN","cc2":"","admin1_code":"04","admin2_code":"","admin3_code":"","admin4_code":"","population":"0","elevation":"","dem":"5","timezone":"Asia/Shanghai","modification_date":"2012-06-05"},{"geonameid":"1794757","name":"Shuangdian","asciiname":"Shuangdian","alternatenames":"Shuang-tien,Shuang-tien-chen,Shuangdian,Shuangdian Zhen,shuang dian,shuang dian zhen,双甸,双甸镇","latitude":"32.35184","longitude":"120.82031","feature_class":"P","feature_code":"PPLA4","country_code":"CN","cc2":"","admin1_code":"04","admin2_code":"","admin3_code":"","admin4_code":"","population":"0","elevation":"","dem":"5","timezone":"Asia/Shanghai","modification_date":"2012-08-04"},{"geonameid":"1794762","name":"Shuangcheng","asciiname":"Shuangcheng","alternatenames":"Che-jung,Che-jung-hsien,Che-jung-hsien-ch'eng,Che-jung-hsien-ch’eng,Che-yang,Shuangcheng,Shuangcheng Zhen,Zherong,Zherong Xian,shuang cheng,shuang cheng zhen,zhe rong,zhe rong xian,双城,双城镇,柘荣,柘荣县","latitude":"27.24","longitude":"119.89444","feature_class":"P","feature_code":"PPLA3","country_code":"CN","cc2":"","admin1_code":"07","admin2_code":"","admin3_code":"","admin4_code":"","population":"0","elevation":"","dem":"666","timezone":"Asia/Shanghai","modification_date":"2012-08-04"},{"geonameid":"1794766","name":"Shuangbaiyang","asciiname":"Shuangbaiyang","alternatenames":"Shuang-pai-yang,Shuangbaiyang,shuang bai yang,双白杨","latitude":"34.57408","longitude":"107.03073","feature_class":"P","feature_code":"PPLA4","country_code":"CN","cc2":"","admin1_code":"26","admin2_code":"","admin3_code":"","admin4_code":"","population":"0","elevation":"","dem":"800","timezone":"Asia/Shanghai","modification_date":"2012-01-18"},{"geonameid":"1794775","name":"Shouzhan","asciiname":"Shouzhan","alternatenames":"Shou-chan,Shouzhan,Shouzhan Zhen,shou zhan,shou zhan zhen,首占,首占镇","latitude":"25.93821","longitude":"119.47973","feature_class":"P","feature_code":"PPLA4","country_code":"CN","cc2":"","admin1_code":"07","admin2_code":"","admin3_code":"","admin4_code":"","population":"0","elevation":"","dem":"8","timezone":"Asia/Shanghai","modification_date":"2013-07-05"},{"geonameid":"1794779","name":"Chaoyang","asciiname":"Chaoyang","alternatenames":"Chaoyang,Chaoyang Zhen,Shaoyang,Shou-yang-hsien,Shouyang,Shouyang Xian,Showyang,chao yang,chao yang zhen,shou yang xian,寿阳县,朝阳,朝阳镇","latitude":"37.90801","longitude":"113.15044","feature_class":"P","feature_code":"PPLA3","country_code":"CN","cc2":"","admin1_code":"24","admin2_code":"","admin3_code":"","admin4_code":"","population":"0","elevation":"","dem":"1062","timezone":"Asia/Shanghai","modification_date":"2012-02-02"},{"geonameid":"1794781","name":"Shouchun","asciiname":"Shouchun","alternatenames":"Shou,Shou-hsien,Shouchun,Shouxian,Shouyang,Showchow,Showhsien,Shuo-hsien,shou chun,寿春","latitude":"32.58162","longitude":"116.79291","feature_class":"P","feature_code":"PPLA3","country_code":"CN","cc2":"","admin1_code":"01","admin2_code":"","admin3_code":"","admin4_code":"","population":"0","elevation":"","dem":"18","timezone":"Asia/Shanghai","modification_date":"2012-01-18"},{"geonameid":"1794788","name":"Shoushan","asciiname":"Shoushan","alternatenames":"","latitude":"26.96444","longitude":"119.16167","feature_class":"P","feature_code":"PPL","country_code":"CN","cc2":"","admin1_code":"07","admin2_code":"","admin3_code":"","admin4_code":"","population":"1470","elevation":"","dem":"940","timezone":"Asia/Shanghai","modification_date":"2001-01-05"},{"geonameid":"1794789","name":"Shoushan","asciiname":"Shoushan","alternatenames":"Shoushan,Shoushan Xiang,shou shan,shou shan xiang,寿山,寿山乡","latitude":"26.24382","longitude":"119.23636","feature_class":"P","feature_code":"PPLA4","country_code":"CN","cc2":"","admin1_code":"07","admin2_code":"","admin3_code":"","admin4_code":"","population":"0","elevation":"","dem":"388","timezone":"Asia/Shanghai","modification_date":"2013-07-05"},{"geonameid":"1794794","name":"Shouguang","asciiname":"Shouguang","alternatenames":"Chiu-shou-kuang,Shou-kuang,Shou-kuang-hsien,Shouguan,Shouguang,Showkwang,Шоугуан","latitude":"36.88","longitude":"118.7375","feature_class":"P","feature_code":"PPL","country_code":"CN","cc2":"","admin1_code":"25","admin2_code":"","admin3_code":"","admin4_code":"","population":"79212","elevation":"","dem":"26","timezone":"Asia/Shanghai","modification_date":"2012-01-18"},{"geonameid":"1794800","name":"Shouchang","asciiname":"Shouchang","alternatenames":"Shou-ch'ang-hsien,Shou-ch'ang-hsien-chih,Shou-ch’ang-hsien,Shou-ch’ang-hsien-chih,Shouchang,Shouchang Zhen,Showchang,Showchang-hsien,shou chang,shou chang zhen,寿昌,寿昌镇","latitude":"29.36014","longitude":"119.21796","feature_class":"P","feature_code":"PPLA4","country_code":"CN","cc2":"","admin1_code":"02","admin2_code":"","admin3_code":"","admin4_code":"","population":"0","elevation":"","dem":"58","timezone":"Asia/Shanghai","modification_date":"2012-08-04"},{"geonameid":"1794806","name":"Shizuishan","asciiname":"Shizuishan","alternatenames":"Shih-tsui,Shih-tsui-shan,Shih-tsui-shan-shih,Shih-tsui-tzu,Shitszuyshan',Shitszuyshan’,Shizuishan","latitude":"39.23333","longitude":"106.76944","feature_class":"P","feature_code":"PPL","country_code":"CN","cc2":"","admin1_code":"21","admin2_code":"","admin3_code":"","admin4_code":"","population":"136570","elevation":"","dem":"1103","timezone":"Asia/Shanghai","modification_date":"2012-01-18"},{"geonameid":"1794810","name":"Shizong","asciiname":"Shizong","alternatenames":"Shih-tsung,Shih-tsung-tien,Shizong,Shizong Zhen,shi zong,shi zong zhen,十总,十总镇","latitude":"32.19303","longitude":"121.12161","feature_class":"P","feature_code":"PPLA4","country_code":"CN","cc2":"","admin1_code":"04","admin2_code":"","admin3_code":"","admin4_code":"","population":"0","elevation":"","dem":"5","timezone":"Asia/Shanghai","modification_date":"2012-08-04"},{"geonameid":"1794819","name":"Shizi","asciiname":"Shizi","alternatenames":"Shih-tzu-p'u,Shih-tzu-p’u,Shizi,Shizi Zhen,Shizipu,shi zi,shi zi zhen,十字,十字镇","latitude":"30.98056","longitude":"119.12806","feature_class":"P","feature_code":"PPLA4","country_code":"CN","cc2":"","admin1_code":"01","admin2_code":"","admin3_code":"","admin4_code":"","population":"0","elevation":"","dem":"32","timezone":"Asia/Shanghai","modification_date":"2012-01-18"},{"geonameid":"1794825","name":"Shizilu","asciiname":"Shizilu","alternatenames":"Chu-nan,Chü-nan,Junan,Shih-tzu-lu,Shizilu","latitude":"35.17111","longitude":"118.82889","feature_class":"P","feature_code":"PPL","country_code":"CN","cc2":"","admin1_code":"25","admin2_code":"","admin3_code":"","admin4_code":"","population":"86749","elevation":"","dem":"101","timezone":"Asia/Shanghai","modification_date":"2012-01-18"},{"geonameid":"1794831","name":"Shizikou","asciiname":"Shizikou","alternatenames":"Shih-tzu-k'ou,Shih-tzu-k’ou,Shizikou,Shizikou Zhen,shi zi kou,shi zi kou zhen,狮子口,狮子口镇","latitude":"29.9872","longitude":"112.01302","feature_class":"P","feature_code":"PPLA4","country_code":"CN","cc2":"","admin1_code":"12","admin2_code":"","admin3_code":"","admin4_code":"","population":"0","elevation":"","dem":"32","timezone":"Asia/Shanghai","modification_date":"2012-01-18"},{"geonameid":"1794855","name":"Shizhuang","asciiname":"Shizhuang","alternatenames":"Shih-chuang,Shih-chuang-chen,Shizhuang,Shizhuang Zhen,shi zhuang,shi zhuang zhen,石庄,石庄镇","latitude":"32.14702","longitude":"120.51747","feature_class":"P","feature_code":"PPLA4","country_code":"CN","cc2":"","admin1_code":"04","admin2_code":"","admin3_code":"","admin4_code":"","population":"0","elevation":"","dem":"5","timezone":"Asia/Shanghai","modification_date":"2012-08-04"},{"geonameid":"1794856","name":"Shizhuang","asciiname":"Shizhuang","alternatenames":"Shih-chuang,Shih-chuang-chen,Shizhuang,Shizhuang Zhen,shi zhuang,shi zhuang zhen,石庄,石庄镇","latitude":"31.91843","longitude":"120.0246","feature_class":"P","feature_code":"PPLA4","country_code":"CN","cc2":"","admin1_code":"04","admin2_code":"","admin3_code":"","admin4_code":"","population":"0","elevation":"","dem":"6","timezone":"Asia/Shanghai","modification_date":"2012-01-18"},{"geonameid":"1794860","name":"Shizhu","asciiname":"Shizhu","alternatenames":"Shih-chu,Shih-chu-chieh,Shizhu,Shizhu Zhen,shi zhu,shi zhu zhen,石柱,石柱镇","latitude":"28.84567","longitude":"120.09596","feature_class":"P","feature_code":"PPLA4","country_code":"CN","cc2":"","admin1_code":"02","admin2_code":"","admin3_code":"","admin4_code":"","population":"0","elevation":"","dem":"109","timezone":"Asia/Shanghai","modification_date":"2012-10-06"},{"geonameid":"1794865","name":"Shizhen","asciiname":"Shizhen","alternatenames":"Shih-chen,Shih-chen-chieh,Shizhen,Shizhen Zhen,Shizhenjie,shi zhen,shi zhen zhen,石镇,石镇镇","latitude":"28.85425","longitude":"116.96622","feature_class":"P","feature_code":"PPLA4","country_code":"CN","cc2":"","admin1_code":"03","admin2_code":"","admin3_code":"","admin4_code":"","population":"0","elevation":"","dem":"27","timezone":"Asia/Shanghai","modification_date":"2012-01-18"},{"geonameid":"1794866","name":"Shizheng","asciiname":"Shizheng","alternatenames":"Shih-cheng,Shih-cheng-hsu,Shih-cheng-hsü,Shizheng,Shizheng Zhen,shi zheng,shi zheng zhen,石正,石正镇","latitude":"24.51537","longitude":"115.82677","feature_class":"P","feature_code":"PPLA4","country_code":"CN","cc2":"","admin1_code":"30","admin2_code":"","admin3_code":"","admin4_code":"","population":"0","elevation":"","dem":"208","timezone":"Asia/Shanghai","modification_date":"2012-06-05"},{"geonameid":"1794875","name":"Shiyun","asciiname":"Shiyun","alternatenames":"Shiyun,Shiyun Xiang,shen yun,shen yun xiang,什运,什运乡","latitude":"18.99482","longitude":"109.6008","feature_class":"P","feature_code":"PPLA4","country_code":"CN","cc2":"","admin1_code":"31","admin2_code":"","admin3_code":"","admin4_code":"","population":"0","elevation":"","dem":"248","timezone":"Asia/Shanghai","modification_date":"2012-01-18"},{"geonameid":"1794886","name":"Shiye","asciiname":"Shiye","alternatenames":"Shi-yasi,Shih-yeh,Shih-yeh-ssu,Shiye,Shiye Zhen,shi ye,shi ye zhen,石耶,石耶镇","latitude":"28.38168","longitude":"109.05747","feature_class":"P","feature_code":"PPLA4","country_code":"CN","cc2":"","admin1_code":"33","admin2_code":"","admin3_code":"","admin4_code":"","population":"0","elevation":"","dem":"379","timezone":"Asia/Shanghai","modification_date":"2012-10-06"},{"geonameid":"1794900","name":"Shiyang","asciiname":"Shiyang","alternatenames":"Shih-yang,Shiyang,Shiyang Zhen,shi yang,shi yang zhen,仕阳,仕阳镇","latitude":"27.36845","longitude":"119.89668","feature_class":"P","feature_code":"PPLA4","country_code":"CN","cc2":"","admin1_code":"02","admin2_code":"","admin3_code":"","admin4_code":"","population":"0","elevation":"","dem":"298","timezone":"Asia/Shanghai","modification_date":"2012-08-04"},{"geonameid":"1794902","name":"Shiyan","asciiname":"Shiyan","alternatenames":"Shih-tien,Shih-yen,Shih-yen-chen,Shiyan,Shiyan Zhen,shi yan,shi yan zhen,时堰,时堰镇","latitude":"32.72255","longitude":"120.18322","feature_class":"P","feature_code":"PPLA4","country_code":"CN","cc2":"","admin1_code":"04","admin2_code":"","admin3_code":"","admin4_code":"","population":"0","elevation":"","dem":"5","timezone":"Asia/Shanghai","modification_date":"2012-08-04"},{"geonameid":"1794903","name":"Shiyan","asciiname":"Shiyan","alternatenames":"Chap-ian-chhi,Cha̍p-ián-chhī,S-jen,Sek-ieng,Shih-yen,Shih-yen-chen,Shih-yen-shih,Shijan',Shijen,Shiyan,Shiyan Shi,Shujen,Sĕk-iēng,Thap Yen,Thập Yển,WDS,seuyen si,shi yan,shi yan shi,shyyan,Š-jen,Шиянь,Шијен,Шъйен,شییان,十堰,十堰市,스옌 시","latitude":"32.6475","longitude":"110.77806","feature_class":"P","feature_code":"PPLA2","country_code":"CN","cc2":"","admin1_code":"12","admin2_code":"1794892","admin3_code":"","admin4_code":"","population":"3460000","elevation":"","dem":"247","timezone":"Asia/Shanghai","modification_date":"2016-03-25"},{"geonameid":"1794904","name":"Shiyan","asciiname":"Shiyan","alternatenames":"Shih-yen,Shijan,Shiyan,Шиян","latitude":"32.56667","longitude":"110.78333","feature_class":"P","feature_code":"PPL","country_code":"CN","cc2":"","admin1_code":"12","admin2_code":"","admin3_code":"","admin4_code":"","population":"408055","elevation":"","dem":"318","timezone":"Asia/Shanghai","modification_date":"2011-08-07"},{"geonameid":"1794920","name":"Shijiang","asciiname":"Shijiang","alternatenames":"Shih-hsia-chiang,Shijiang,Shixiajiang,Yu-hsia-chiang","latitude":"27.08194","longitude":"110.79333","feature_class":"P","feature_code":"PPL","country_code":"CN","cc2":"CN","admin1_code":"11","admin2_code":"","admin3_code":"","admin4_code":"","population":"9330","elevation":"","dem":"277","timezone":"Asia/Shanghai","modification_date":"2012-01-18"},{"geonameid":"1794923","name":"Shixia","asciiname":"Shixia","alternatenames":"Shih-hsia,Shixia,shi xia,石峡","latitude":"33.7834","longitude":"105.38769","feature_class":"P","feature_code":"PPLA4","country_code":"CN","cc2":"","admin1_code":"15","admin2_code":"","admin3_code":"","admin4_code":"","population":"0","elevation":"","dem":"1409","timezone":"Asia/Shanghai","modification_date":"2012-01-18"},{"geonameid":"1794925","name":"Shixia","asciiname":"Shixia","alternatenames":"Shih-hsia,Shixia,Shixia Xiang,shi xia,shi xia xiang,石峡,石峡乡","latitude":"27.67312","longitude":"116.90212","feature_class":"P","feature_code":"PPLA4","country_code":"CN","cc2":"","admin1_code":"03","admin2_code":"","admin3_code":"","admin4_code":"","population":"0","elevation":"","dem":"175","timezone":"Asia/Shanghai","modification_date":"2012-01-18"},{"geonameid":"1794929","name":"Shixi","asciiname":"Shixi","alternatenames":"Shixi,Shixi Zhen,Shixikou,shi xi,shi xi kou,shi xi zhen,狮溪,狮溪口,狮溪镇","latitude":"28.83914","longitude":"107.11754","feature_class":"P","feature_code":"PPLA4","country_code":"CN","cc2":"","admin1_code":"18","admin2_code":"","admin3_code":"","admin4_code":"","population":"0","elevation":"","dem":"661","timezone":"Asia/Shanghai","modification_date":"2013-05-07"},{"geonameid":"1794931","name":"Shixi","asciiname":"Shixi","alternatenames":"Shixi,Shixi Xiang,shi xi,shi xi xiang,石溪,石溪乡","latitude":"28.19542","longitude":"120.24324","feature_class":"P","feature_code":"PPLA4","country_code":"CN","cc2":"","admin1_code":"02","admin2_code":"","admin3_code":"","admin4_code":"","population":"0","elevation":"","dem":"28","timezone":"Asia/Shanghai","modification_date":"2012-11-08"},{"geonameid":"1794936","name":"Dashiwo","asciiname":"Dashiwo","alternatenames":"Dashiwo,Dashiwo Zhen,da shi wo,da shi wo zhen,大石窝,大石窝镇","latitude":"39.55423","longitude":"115.81369","feature_class":"P","feature_code":"PPLA4","country_code":"CN","cc2":"","admin1_code":"22","admin2_code":"","admin3_code":"","admin4_code":"","population":"0","elevation":"","dem":"75","timezone":"Asia/Shanghai","modification_date":"2012-09-06"},{"geonameid":"1794947","name":"Shiwan","asciiname":"Shiwan","alternatenames":"Shih-wan,Shiwan,Shiwan Jiedao,shi wan,shi wan jie dao,石湾,石湾街道","latitude":"23.00107","longitude":"113.077","feature_class":"P","feature_code":"PPLA4","country_code":"CN","cc2":"","admin1_code":"30","admin2_code":"","admin3_code":"","admin4_code":"","population":"82031","elevation":"","dem":"20","timezone":"Asia/Shanghai","modification_date":"2012-06-05"},{"geonameid":"1794949","name":"Shituo","asciiname":"Shituo","alternatenames":"Shituo,Shituo Zhen,shi tuo,shi tuo zhen,石沱,石沱镇","latitude":"29.71613","longitude":"107.13564","feature_class":"P","feature_code":"PPLA4","country_code":"CN","cc2":"","admin1_code":"33","admin2_code":"","admin3_code":"","admin4_code":"","population":"0","elevation":"","dem":"194","timezone":"Asia/Shanghai","modification_date":"2012-11-08"},{"geonameid":"1794952","name":"Shitouzui","asciiname":"Shitouzui","alternatenames":"Shih-t'ou-tsui,Shih-t’ou-tsui,Shitouzui,Shitouzui Zhen,shi tou ju,shi tou ju zhen,石头咀,石头咀镇","latitude":"30.99297","longitude":"115.75256","feature_class":"P","feature_code":"PPLA4","country_code":"CN","cc2":"","admin1_code":"12","admin2_code":"","admin3_code":"","admin4_code":"","population":"0","elevation":"","dem":"162","timezone":"Asia/Shanghai","modification_date":"2013-07-05"},{"geonameid":"1794971","name":"Shitanjing","asciiname":"Shitanjing","alternatenames":"Shih-t'an-ching,Shih-t’an-ching,Shitanjing","latitude":"39.23417","longitude":"106.34389","feature_class":"P","feature_code":"PPL","country_code":"CN","cc2":"","admin1_code":"21","admin2_code":"","admin3_code":"","admin4_code":"","population":"78765","elevation":"","dem":"1428","timezone":"Asia/Shanghai","modification_date":"2012-01-18"},{"geonameid":"1794981","name":"Shitang","asciiname":"Shitang","alternatenames":"Shih-t'ang,Shih-t’ang,Shitang,Shitang Zhen,shi tang,shi tang zhen,石塘,石塘镇","latitude":"28.1142","longitude":"117.84493","feature_class":"P","feature_code":"PPLA4","country_code":"CN","cc2":"","admin1_code":"03","admin2_code":"","admin3_code":"","admin4_code":"","population":"0","elevation":"","dem":"148","timezone":"Asia/Shanghai","modification_date":"2012-01-18"},{"geonameid":"1794987","name":"Shitan","asciiname":"Shitan","alternatenames":"Shih-t'an,Shih-t’an,Shitan,Shitan Zhen,shi tan,shi tan zhen,石潭,石潭镇","latitude":"34.57485","longitude":"108.35744","feature_class":"P","feature_code":"PPLA4","country_code":"CN","cc2":"","admin1_code":"26","admin2_code":"","admin3_code":"","admin4_code":"","population":"0","elevation":"","dem":"703","timezone":"Asia/Shanghai","modification_date":"2012-01-18"},{"geonameid":"1794989","name":"Shitan","asciiname":"Shitan","alternatenames":"Shih-t'an,Shih-t'an-chieh,Shih-t’an,Shih-t’an-chieh,Shitan,Shitan Zhen,shi tan,shi tan zhen,石滩,石滩镇","latitude":"28.12991","longitude":"115.83805","feature_class":"P","feature_code":"PPLA4","country_code":"CN","cc2":"","admin1_code":"03","admin2_code":"","admin3_code":"","admin4_code":"","population":"0","elevation":"","dem":"28","timezone":"Asia/Shanghai","modification_date":"2012-01-18"},{"geonameid":"1794991","name":"Shitan","asciiname":"Shitan","alternatenames":"Shih-t'an,Shih-t’an,Shitan,Shitan Zhen,shi tan,shi tan zhen,石潭,石潭镇","latitude":"24.12861","longitude":"112.76377","feature_class":"P","feature_code":"PPLA4","country_code":"CN","cc2":"","admin1_code":"30","admin2_code":"","admin3_code":"","admin4_code":"","population":"0","elevation":"","dem":"69","timezone":"Asia/Shanghai","modification_date":"2012-06-05"},{"geonameid":"1794992","name":"Shitan","asciiname":"Shitan","alternatenames":"Shitan,Shitan Zhen,shi tan,shi tan zhen,石滩,石滩镇","latitude":"23.17528","longitude":"113.78583","feature_class":"P","feature_code":"PPLA4","country_code":"CN","cc2":"","admin1_code":"30","admin2_code":"","admin3_code":"","admin4_code":"","population":"0","elevation":"","dem":"8","timezone":"Asia/Shanghai","modification_date":"2012-06-05"},{"geonameid":"1794996","name":"Qili","asciiname":"Qili","alternatenames":"Ch'i-li,Ch’i-li,Qili,Shih-t'ai,Shih-t’ai,Shitai,Shitai Xian,qi li,shi tai xian,七里,石台县","latitude":"30.19906","longitude":"117.47799","feature_class":"P","feature_code":"PPLA3","country_code":"CN","cc2":"","admin1_code":"01","admin2_code":"","admin3_code":"","admin4_code":"","population":"0","elevation":"","dem":"108","timezone":"Asia/Shanghai","modification_date":"2013-09-06"},{"geonameid":"1795006","name":"Shishi","asciiname":"Shishi","alternatenames":"Shih-shih,Shishi,shi shi,石狮","latitude":"24.74038","longitude":"118.62906","feature_class":"P","feature_code":"PPLA3","country_code":"CN","cc2":"","admin1_code":"07","admin2_code":"","admin3_code":"","admin4_code":"","population":"0","elevation":"","dem":"19","timezone":"Asia/Shanghai","modification_date":"2014-04-06"},{"geonameid":"1795013","name":"Shishan","asciiname":"Shishan","alternatenames":"Shishan,Shishan Xiang,shi shan,shi shan xiang,市山,市山乡","latitude":"27.2122","longitude":"116.49618","feature_class":"P","feature_code":"PPLA4","country_code":"CN","cc2":"","admin1_code":"03","admin2_code":"","admin3_code":"","admin4_code":"","population":"0","elevation":"","dem":"97","timezone":"Asia/Shanghai","modification_date":"2012-01-18"},{"geonameid":"1795027","name":"Shiqiu","asciiname":"Shiqiu","alternatenames":"Shiqiu,Shiqiu Zhen,shi jiao,shi jiao zhen,石湫,石湫镇","latitude":"31.64932","longitude":"118.90874","feature_class":"P","feature_code":"PPLA4","country_code":"CN","cc2":"","admin1_code":"04","admin2_code":"","admin3_code":"","admin4_code":"","population":"0","elevation":"","dem":"17","timezone":"Asia/Shanghai","modification_date":"2012-08-04"},{"geonameid":"1795039","name":"Shiqiao","asciiname":"Shiqiao","alternatenames":"Shih-ch'iao,Shih-ch’iao,Shiqiao,shi qiao,石桥","latitude":"34.75861","longitude":"108.65944","feature_class":"P","feature_code":"PPLA4","country_code":"CN","cc2":"","admin1_code":"26","admin2_code":"","admin3_code":"","admin4_code":"","population":"0","elevation":"","dem":"757","timezone":"Asia/Shanghai","modification_date":"2012-01-18"},{"geonameid":"1795042","name":"Shiqiao","asciiname":"Shiqiao","alternatenames":"Shih-ch'iao,Shih-ch’iao,Shiqiao,Shiqiao Xiang,shi qiao,shi qiao xiang,石桥,石桥乡","latitude":"33.92503","longitude":"113.89813","feature_class":"P","feature_code":"PPLA4","country_code":"CN","cc2":"","admin1_code":"09","admin2_code":"","admin3_code":"","admin4_code":"","population":"0","elevation":"","dem":"64","timezone":"Asia/Shanghai","modification_date":"2012-01-18"},{"geonameid":"1795044","name":"Shiqiao","asciiname":"Shiqiao","alternatenames":"Shih-ch'iao,Shih-ch'iao-tzu,Shih-ch’iao,Shih-ch’iao-tzu,Shiqiao,Shiqiao Zhen,shi qiao,shi qiao zhen,石桥,石桥镇","latitude":"32.35173","longitude":"111.97503","feature_class":"P","feature_code":"PPLA4","country_code":"CN","cc2":"","admin1_code":"12","admin2_code":"","admin3_code":"","admin4_code":"","population":"0","elevation":"","dem":"102","timezone":"Asia/Shanghai","modification_date":"2013-05-07"},{"geonameid":"1795045","name":"Shiqiao","asciiname":"Shiqiao","alternatenames":"Shih-ch'iao,Shih-ch’iao,Shiqiao,Shiqiao Zhen,shi qiao,shi qiao zhen,石桥,石桥镇","latitude":"31.93791","longitude":"118.41642","feature_class":"P","feature_code":"PPLA4","country_code":"CN","cc2":"","admin1_code":"04","admin2_code":"","admin3_code":"","admin4_code":"","population":"0","elevation":"","dem":"15","timezone":"Asia/Shanghai","modification_date":"2012-08-04"},{"geonameid":"1795048","name":"Shiqiaoyi","asciiname":"Shiqiaoyi","alternatenames":"Shih-ch'iao,Shih-ch’iao,Shiqiao,Shiqiaoyi,Shiqiaoyi Xiang,shi qiao yi,shi qiao yi xiang,石桥驿,石桥驿乡","latitude":"31.25813","longitude":"112.21842","feature_class":"P","feature_code":"PPLA4","country_code":"CN","cc2":"","admin1_code":"12","admin2_code":"","admin3_code":"","admin4_code":"","population":"0","elevation":"","dem":"64","timezone":"Asia/Shanghai","modification_date":"2012-01-18"},{"geonameid":"1795055","name":"Shiqiao","asciiname":"Shiqiao","alternatenames":"P'an-yu-hsien,Panyu,P’an-yu-hsien,Shekkiu,Shih-ch'iao,Shih-ch'iao-chen,Shih-ch’iao,Shih-ch’iao-chen,Shikiu,Shiqiao,Shiqiao Jiedao,fan yu,shi qiao,shi qiao jie dao,市桥,市桥街道,番禺","latitude":"22.9464","longitude":"113.35769","feature_class":"P","feature_code":"PPLA3","country_code":"CN","cc2":"","admin1_code":"30","admin2_code":"","admin3_code":"","admin4_code":"","population":"135308","elevation":"","dem":"11","timezone":"Asia/Shanghai","modification_date":"2013-10-05"},{"geonameid":"1795058","name":"Shiqian","asciiname":"Shiqian","alternatenames":"Shih-ch'ien,Shih-ch'ien-hsien,Shih-ch’ien,Shih-ch’ien-hsien,Shihtsien,Shihtsien-hsien,Shiqian","latitude":"27.5225","longitude":"108.22806","feature_class":"P","feature_code":"PPL","country_code":"CN","cc2":"CN","admin1_code":"18","admin2_code":"","admin3_code":"","admin4_code":"","population":"9571","elevation":"","dem":"477","timezone":"Asia/Shanghai","modification_date":"2012-01-18"},{"geonameid":"1795060","name":"Shiqi","asciiname":"Shiqi","alternatenames":"Chung-shan,Chung-shan-ku-chih,Heungschan,Heungshan,Hsiang-shan,Shekki,Shih-ch'i,Shih-ch'i-chen,Shih-ch’i,Shih-ch’i-chen,Shiqi,Shiqi Jiedao,Shiqizhen,Zhongshan,shi qi,shi qi jie dao,石岐,石岐街道","latitude":"22.51682","longitude":"113.38521","feature_class":"P","feature_code":"PPLA3","country_code":"CN","cc2":"","admin1_code":"30","admin2_code":"","admin3_code":"","admin4_code":"","population":"342306","elevation":"","dem":"8","timezone":"Asia/Shanghai","modification_date":"2012-01-18"},{"geonameid":"1795074","name":"Yilong","asciiname":"Yilong","alternatenames":"Shih-p'ing,Shih-p'ing-hsien,Shih-p’ing,Shih-p’ing-hsien,Shihpingchow,Shiping,Yilong,yi long,异龙","latitude":"23.69137","longitude":"102.48701","feature_class":"P","feature_code":"PPLA3","country_code":"CN","cc2":"","admin1_code":"29","admin2_code":"","admin3_code":"","admin4_code":"","population":"0","elevation":"","dem":"1435","timezone":"Asia/Shanghai","modification_date":"2012-01-18"},{"geonameid":"1795083","name":"Shipai","asciiname":"Shipai","alternatenames":"Shih-p'ai,Shih-p'ai-chen,Shih-p’ai,Shih-p’ai-chen,Shipai,Shipai Zhen,shi pai,shi pai zhen,石牌,石牌镇","latitude":"30.98639","longitude":"112.50087","feature_class":"P","feature_code":"PPLA4","country_code":"CN","cc2":"","admin1_code":"12","admin2_code":"","admin3_code":"","admin4_code":"","population":"0","elevation":"","dem":"48","timezone":"Asia/Shanghai","modification_date":"2012-01-18"},{"geonameid":"1795085","name":"Shipaidong","asciiname":"Shipaidong","alternatenames":"Shipai,Shipai Zhen,Shipaidong,shi pai dong,shi pai zhen,石牌洞,石牌镇","latitude":"29.57271","longitude":"109.58689","feature_class":"P","feature_code":"PPLA4","country_code":"CN","cc2":"","admin1_code":"11","admin2_code":"","admin3_code":"","admin4_code":"","population":"0","elevation":"","dem":"560","timezone":"Asia/Shanghai","modification_date":"2012-01-18"},{"geonameid":"1795086","name":"Shipai","asciiname":"Shipai","alternatenames":"Shih-p'ai,Shih-p’ai,Shipai,Shipai Zhen,shi pai,shi pai zhen,石牌,石牌镇","latitude":"25.65444","longitude":"117.83028","feature_class":"P","feature_code":"PPLA4","country_code":"CN","cc2":"","admin1_code":"07","admin2_code":"","admin3_code":"","admin4_code":"","population":"0","elevation":"","dem":"403","timezone":"Asia/Shanghai","modification_date":"2012-06-05"},{"geonameid":"1795090","name":"Shiniujiang","asciiname":"Shiniujiang","alternatenames":"Shiniujiang,Shiniujiang Zhen,shi niu jiang,shi niu jiang zhen,石牛江,石牛江镇","latitude":"28.43333","longitude":"112.15889","feature_class":"P","feature_code":"PPLA4","country_code":"CN","cc2":"","admin1_code":"11","admin2_code":"","admin3_code":"","admin4_code":"","population":"0","elevation":"","dem":"56","timezone":"Asia/Shanghai","modification_date":"2013-06-04"},{"geonameid":"1795093","name":"Shinao","asciiname":"Shinao","alternatenames":"Shih-nao,Shih-nao-hsu,Shih-nao-hsü,Shinao,Shinao Zhen,shi nao,shi nao zhen,石脑,石脑镇","latitude":"28.39085","longitude":"115.29059","feature_class":"P","feature_code":"PPLA4","country_code":"CN","cc2":"","admin1_code":"03","admin2_code":"","admin3_code":"","admin4_code":"","population":"0","elevation":"","dem":"54","timezone":"Asia/Shanghai","modification_date":"2012-01-18"},{"geonameid":"1795094","name":"Shinan","asciiname":"Shinan","alternatenames":"Shinan,Shinan Zhen,shi nan,shi nan zhen,石南,石南镇","latitude":"29.27927","longitude":"113.71296","feature_class":"P","feature_code":"PPLA4","country_code":"CN","cc2":"","admin1_code":"12","admin2_code":"","admin3_code":"","admin4_code":"","population":"0","elevation":"","dem":"108","timezone":"Asia/Shanghai","modification_date":"2013-04-03"},{"geonameid":"1795095","name":"Shinan","asciiname":"Shinan","alternatenames":"Shih-nan,Shinan,Shinan Zhen,shi nan,shi nan zhen,石南,石南镇","latitude":"22.7439","longitude":"109.87428","feature_class":"P","feature_code":"PPLA3","country_code":"CN","cc2":"","admin1_code":"16","admin2_code":"","admin3_code":"","admin4_code":"","population":"0","elevation":"","dem":"123","timezone":"Asia/Shanghai","modification_date":"2013-10-05"},{"geonameid":"1795112","name":"Shimenqiao","asciiname":"Shimenqiao","alternatenames":"Shih-men-ch'iao,Shih-men-ch’iao,Shimenqiao,Shimenqiao Zhen,shi men qiao,shi men qiao zhen,石门桥,石门桥镇","latitude":"28.90521","longitude":"111.73606","feature_class":"P","feature_code":"PPLA4","country_code":"CN","cc2":"","admin1_code":"11","admin2_code":"","admin3_code":"","admin4_code":"","population":"0","elevation":"","dem":"37","timezone":"Asia/Shanghai","modification_date":"2012-01-18"},{"geonameid":"1795113","name":"Shimenlou","asciiname":"Shimenlou","alternatenames":"Shih-men-lou,Shimenlou,Shimenlou Zhen,shi men lou,shi men lou zhen,石门楼,石门楼镇","latitude":"28.9705","longitude":"114.85411","feature_class":"P","feature_code":"PPLA4","country_code":"CN","cc2":"","admin1_code":"03","admin2_code":"","admin3_code":"","admin4_code":"","population":"0","elevation":"","dem":"291","timezone":"Asia/Shanghai","modification_date":"2012-01-18"},{"geonameid":"1795121","name":"Shimenjie","asciiname":"Shimenjie","alternatenames":"Shih-men,Shih-men-chieh,Shihmenkai,Shimenjie,Shimenjie Zhen,shi men jie,shi men jie zhen,石门街,石门街镇","latitude":"29.57747","longitude":"116.76706","feature_class":"P","feature_code":"PPLA4","country_code":"CN","cc2":"","admin1_code":"03","admin2_code":"","admin3_code":"","admin4_code":"","population":"0","elevation":"","dem":"32","timezone":"Asia/Shanghai","modification_date":"2012-01-18"},{"geonameid":"1795127","name":"Shimen","asciiname":"Shimen","alternatenames":"Shih-men,Shih-men-ts'un,Shih-men-ts’un,Shimen,Shimen Xiang,shi men,shi men xiang,石门,石门乡","latitude":"35.25611","longitude":"111.54222","feature_class":"P","feature_code":"PPLA4","country_code":"CN","cc2":"","admin1_code":"24","admin2_code":"","admin3_code":"","admin4_code":"","population":"0","elevation":"","dem":"815","timezone":"Asia/Shanghai","modification_date":"2012-01-18"},{"geonameid":"1795132","name":"Shimen","asciiname":"Shimen","alternatenames":"Shimen,Shimen Xiang,shi men,shi men xiang,石门,石门乡","latitude":"33.28855","longitude":"112.48454","feature_class":"P","feature_code":"PPLA4","country_code":"CN","cc2":"","admin1_code":"09","admin2_code":"","admin3_code":"","admin4_code":"","population":"0","elevation":"","dem":"183","timezone":"Asia/Shanghai","modification_date":"2013-03-05"},{"geonameid":"1795136","name":"Shimen","asciiname":"Shimen","alternatenames":"Shih-men,Shih-men-wan,Shih-men-wan-chen,Shih-wan-chen,Shimen,Shimen Zhen,shi men,shi men zhen,石门,石门镇","latitude":"30.62747","longitude":"120.44249","feature_class":"P","feature_code":"PPLA4","country_code":"CN","cc2":"","admin1_code":"02","admin2_code":"","admin3_code":"","admin4_code":"","population":"0","elevation":"","dem":"4","timezone":"Asia/Shanghai","modification_date":"2012-01-18"},{"geonameid":"1795137","name":"Shimen","asciiname":"Shimen","alternatenames":"Shih-men,Shih-men-k'eng,Shih-men-k’eng,Shimen,Shimen Xiang,shi men,shi men xiang,石门,石门乡","latitude":"29.62974","longitude":"118.43188","feature_class":"P","feature_code":"PPLA4","country_code":"CN","cc2":"","admin1_code":"01","admin2_code":"","admin3_code":"","admin4_code":"","population":"0","elevation":"","dem":"266","timezone":"Asia/Shanghai","modification_date":"2012-08-04"},{"geonameid":"1795139","name":"Chujiang","asciiname":"Chujiang","alternatenames":"Chujiang,Chujiang Zhen,Shih-men,Shih-men-hsien,Shimen,Shimen Xian,chu jiang,chu jiang zhen,shi men,shi men xian,楚江,楚江镇,石门,石门县","latitude":"29.5771","longitude":"111.363","feature_class":"P","feature_code":"PPLA3","country_code":"CN","cc2":"","admin1_code":"11","admin2_code":"","admin3_code":"","admin4_code":"","population":"0","elevation":"","dem":"75","timezone":"Asia/Shanghai","modification_date":"2014-02-08"},{"geonameid":"1795140","name":"Shimen","asciiname":"Shimen","alternatenames":"Shih-men,Shimen,Shimen Zhen,Shimenchang,shi men,shi men zhen,石门,石门镇","latitude":"29.10037","longitude":"106.03304","feature_class":"P","feature_code":"PPLA4","country_code":"CN","cc2":"","admin1_code":"33","admin2_code":"","admin3_code":"","admin4_code":"","population":"0","elevation":"","dem":"219","timezone":"Asia/Shanghai","modification_date":"2012-11-08"},{"geonameid":"1795142","name":"Shimen","asciiname":"Shimen","alternatenames":"Shih-men,Shimen,Shimen Xiang,shi men,shi men xiang,石门,石门乡","latitude":"27.77936","longitude":"116.65889","feature_class":"P","feature_code":"PPLA4","country_code":"CN","cc2":"","admin1_code":"03","admin2_code":"","admin3_code":"","admin4_code":"","population":"0","elevation":"","dem":"56","timezone":"Asia/Shanghai","modification_date":"2012-01-18"},{"geonameid":"1795164","name":"Shima","asciiname":"Shima","alternatenames":"Mapaochang,Shih-ma,Shima,Shima Zhen,ma pao chang,shi ma,shi ma zhen,石马,石马镇,马跑场","latitude":"29.63116","longitude":"105.83065","feature_class":"P","feature_code":"PPLA4","country_code":"CN","cc2":"","admin1_code":"33","admin2_code":"","admin3_code":"","admin4_code":"","population":"0","elevation":"","dem":"388","timezone":"Asia/Shanghai","modification_date":"2012-11-08"},{"geonameid":"1795165","name":"Shima","asciiname":"Shima","alternatenames":"Shih-ma,Shih-ma-hsu,Shih-ma-hsü,Shima,Shima Zhen,shi ma,shi ma zhen,石马,石马镇","latitude":"26.99594","longitude":"115.74255","feature_class":"P","feature_code":"PPLA4","country_code":"CN","cc2":"","admin1_code":"03","admin2_code":"","admin3_code":"","admin4_code":"","population":"0","elevation":"","dem":"174","timezone":"Asia/Shanghai","modification_date":"2012-01-18"},{"geonameid":"1795166","name":"Shima","asciiname":"Shima","alternatenames":"Longhai,Lung-hai,Shih-ma,Shih-ma-chen,Shima,shi ma,Шима,石码","latitude":"24.44647","longitude":"117.81216","feature_class":"P","feature_code":"PPLA3","country_code":"CN","cc2":"","admin1_code":"07","admin2_code":"","admin3_code":"","admin4_code":"","population":"68375","elevation":"","dem":"11","timezone":"Asia/Shanghai","modification_date":"2014-01-10"},{"geonameid":"1795167","name":"Shima","asciiname":"Shima","alternatenames":"Shih-ma,Shima,Shima Zhen,shi ma,shi ma zhen,石马,石马镇","latitude":"24.28627","longitude":"115.82578","feature_class":"P","feature_code":"PPLA4","country_code":"CN","cc2":"","admin1_code":"30","admin2_code":"","admin3_code":"","admin4_code":"","population":"0","elevation":"","dem":"233","timezone":"Asia/Shanghai","modification_date":"2012-06-05"},{"geonameid":"1795172","name":"Lingquan","asciiname":"Lingquan","alternatenames":"Lingquan,Lingquan Zhen,Shih-lou,Shih-lou-hsien,Shihlowhsien,Shilou,Shilou Xian,ling quan,ling quan zhen,shi lou xian,灵泉,灵泉镇,石楼县","latitude":"36.99949","longitude":"110.844","feature_class":"P","feature_code":"PPLA3","country_code":"CN","cc2":"","admin1_code":"24","admin2_code":"","admin3_code":"","admin4_code":"","population":"0","elevation":"","dem":"973","timezone":"Asia/Shanghai","modification_date":"2012-01-18"},{"geonameid":"1795173","name":"Shilou","asciiname":"Shilou","alternatenames":"Shih-lou,Shilou,Shilou Zhen,shi lou,shi lou zhen,石楼,石楼镇","latitude":"22.97341","longitude":"113.48718","feature_class":"P","feature_code":"PPLA4","country_code":"CN","cc2":"","admin1_code":"30","admin2_code":"","admin3_code":"","admin4_code":"","population":"0","elevation":"","dem":"8","timezone":"Asia/Shanghai","modification_date":"2015-10-18"},{"geonameid":"1795178","name":"Shilong","asciiname":"Shilong","alternatenames":"Shilong,Shilong Zhen,shi long,shi long zhen,石龙,石龙镇","latitude":"30.89541","longitude":"112.84217","feature_class":"P","feature_code":"PPLA4","country_code":"CN","cc2":"","admin1_code":"12","admin2_code":"","admin3_code":"","admin4_code":"","population":"0","elevation":"","dem":"41","timezone":"Asia/Shanghai","modification_date":"2012-01-18"},{"geonameid":"1795179","name":"Xianglong","asciiname":"Xianglong","alternatenames":"Shih-lung,Xianglong,Xianglong Zhen,xiang long,xiang long zhen,香龙,香龙镇","latitude":"30.26125","longitude":"106.57588","feature_class":"P","feature_code":"PPLA4","country_code":"CN","cc2":"","admin1_code":"33","admin2_code":"","admin3_code":"","admin4_code":"","population":"0","elevation":"","dem":"303","timezone":"Asia/Shanghai","modification_date":"2012-11-08"},{"geonameid":"1795184","name":"Shilong","asciiname":"Shilong","alternatenames":"Shehlung,Sheklung,Shih-lung,Shilong,Shilong Zhen,shi long,shi long zhen,石龙,石龙镇","latitude":"23.11444","longitude":"113.84722","feature_class":"P","feature_code":"PPLA4","country_code":"CN","cc2":"","admin1_code":"30","admin2_code":"","admin3_code":"","admin4_code":"","population":"109733","elevation":"","dem":"14","timezone":"Asia/Shanghai","modification_date":"2012-06-05"},{"geonameid":"1795186","name":"Shiliyuan","asciiname":"Shiliyuan","alternatenames":"Shih-li-yuan,Shih-li-yüan,Shiliping,Shiliyuan,shi li yuan,十里塬","latitude":"34.89694","longitude":"108.475","feature_class":"P","feature_code":"PPLA4","country_code":"CN","cc2":"","admin1_code":"26","admin2_code":"","admin3_code":"","admin4_code":"","population":"0","elevation":"","dem":"1134","timezone":"Asia/Shanghai","modification_date":"2012-01-18"},{"geonameid":"1795192","name":"Shilu","asciiname":"Shilu","alternatenames":"Ch'ang-chiang,Changjiang,Changjiang Lizu Zizhi Xian,Ch’ang-chiang,Shih-liu,Shih-lu,Shih-lu-chen,Shih-lu-ling,Shiliu,Shilu,Shilu Zhen,chang jiang li zu zi zhi xian,shi lu,shi lu zhen,昌江黎族自治县,石碌,石碌镇","latitude":"19.25984","longitude":"109.04884","feature_class":"P","feature_code":"PPLA3","country_code":"CN","cc2":"","admin1_code":"31","admin2_code":"","admin3_code":"","admin4_code":"","population":"0","elevation":"","dem":"89","timezone":"Asia/Shanghai","modification_date":"2012-01-18"},{"geonameid":"1795196","name":"Tongchuan","asciiname":"Tongchuan","alternatenames":"Deng-chiong,Dè̤ng-chiŏng,GJong Xuyen,Shih-li-p'u,Shih-li-p’u,Shilipu,T'ung-ch'uan,T'ung-ch'uan-shih,Tang-chhoan-chhi,Tchung-cchuan,Tchung-čchuan,Tongchuan,Tunchuan',Tungchuan,Tâng-chhoan-chhī,T’ung-ch’uan,T’ung-ch’uan-shih,tong chuan,tong chuan shi,tungchwan si,twngchwan,Đồng Xuyên,Тунгчуан,Тунчуань,تونگچوان,銅川,銅川市,铜川市,퉁촨 시","latitude":"35.08056","longitude":"109.08972","feature_class":"P","feature_code":"PPL","country_code":"CN","cc2":"","admin1_code":"26","admin2_code":"","admin3_code":"","admin4_code":"","population":"223603","elevation":"","dem":"851","timezone":"Asia/Shanghai","modification_date":"2012-01-18"},{"geonameid":"1795200","name":"Shilipu","asciiname":"Shilipu","alternatenames":"Shih-li-p'u,Shih-li-p’u,Shilipu,Shilipu Zhen,shi li pu,shi li pu zhen,十里铺,十里铺镇","latitude":"30.60929","longitude":"112.18066","feature_class":"P","feature_code":"PPLA4","country_code":"CN","cc2":"","admin1_code":"12","admin2_code":"","admin3_code":"","admin4_code":"","population":"0","elevation":"","dem":"61","timezone":"Asia/Shanghai","modification_date":"2012-01-18"},{"geonameid":"1795206","name":"Shiling","asciiname":"Shiling","alternatenames":"Shiling,Shiling Zhen,shi ling,shi ling zhen,石岭,石岭镇","latitude":"21.65095","longitude":"110.1271","feature_class":"P","feature_code":"PPLA4","country_code":"CN","cc2":"","admin1_code":"30","admin2_code":"","admin3_code":"","admin4_code":"","population":"0","elevation":"","dem":"43","timezone":"Asia/Urumqi","modification_date":"2012-06-05"},{"geonameid":"1795217","name":"Shiliang","asciiname":"Shiliang","alternatenames":"Shih-liang,Shih-liang-chi,Shiliang,Shiliang Zhen,shi liang,shi liang zhen,石良,石良镇","latitude":"37.57747","longitude":"120.66136","feature_class":"P","feature_code":"PPLA4","country_code":"CN","cc2":"","admin1_code":"25","admin2_code":"","admin3_code":"","admin4_code":"","population":"0","elevation":"","dem":"54","timezone":"Asia/Shanghai","modification_date":"2012-12-05"},{"geonameid":"1795220","name":"Shiliang","asciiname":"Shiliang","alternatenames":"Shih-liang,Shih-liang-chen,Shih-liang-chi,Shiliang,Shiliang Zhen,shi liang,shi liang zhen,石梁,石梁镇","latitude":"32.6918","longitude":"118.87334","feature_class":"P","feature_code":"PPLA4","country_code":"CN","cc2":"","admin1_code":"01","admin2_code":"","admin3_code":"","admin4_code":"","population":"0","elevation":"","dem":"25","timezone":"Asia/Shanghai","modification_date":"2012-05-05"},{"geonameid":"1795221","name":"Shiliang","asciiname":"Shiliang","alternatenames":"Shih-liang,Shih-liang-shih,Shiliang,Shiliang Zhen,shi liang,shi liang zhen,石梁,石梁镇","latitude":"29.0203","longitude":"118.78289","feature_class":"P","feature_code":"PPLA4","country_code":"CN","cc2":"","admin1_code":"02","admin2_code":"","admin3_code":"","admin4_code":"","population":"0","elevation":"","dem":"119","timezone":"Asia/Shanghai","modification_date":"2012-08-04"},{"geonameid":"1795226","name":"Shilaoren","asciiname":"Shilaoren","alternatenames":"Shilaoren,Shilaorencun,shi lao ren,石老人","latitude":"36.09778","longitude":"120.49083","feature_class":"P","feature_code":"PPL","country_code":"CN","cc2":"CN","admin1_code":"25","admin2_code":"","admin3_code":"","admin4_code":"","population":"3355","elevation":"","dem":"39","timezone":"Asia/Shanghai","modification_date":"2014-02-08"},{"geonameid":"1795234","name":"Shikou","asciiname":"Shikou","alternatenames":"Shih-k'ou,Shih-k’ou,Shikou,Shikou Zhen,shi kou,shi kou zhen,石口,石口镇","latitude":"28.82909","longitude":"116.62511","feature_class":"P","feature_code":"PPLA4","country_code":"CN","cc2":"","admin1_code":"03","admin2_code":"","admin3_code":"","admin4_code":"","population":"0","elevation":"","dem":"26","timezone":"Asia/Shanghai","modification_date":"2012-01-18"},{"geonameid":"1795261","name":"Shijing","asciiname":"Shijing","alternatenames":"Shih-ching,Shihtsing,Shijing,shi jing,石井","latitude":"24.61956","longitude":"118.42437","feature_class":"P","feature_code":"PPL","country_code":"CN","cc2":"","admin1_code":"07","admin2_code":"","admin3_code":"","admin4_code":"","population":"4000","elevation":"","dem":"16","timezone":"Asia/Shanghai","modification_date":"2012-01-18"},{"geonameid":"1795262","name":"Shijing","asciiname":"Shijing","alternatenames":"Shijing,Shijing Zhen,shi jing,shi jing zhen,石颈,石颈镇","latitude":"21.69851","longitude":"110.0233","feature_class":"P","feature_code":"PPLA4","country_code":"CN","cc2":"","admin1_code":"30","admin2_code":"","admin3_code":"","admin4_code":"","population":"0","elevation":"","dem":"36","timezone":"Asia/Urumqi","modification_date":"2012-06-05"},{"geonameid":"1795265","name":"Shijie","asciiname":"Shijie","alternatenames":"Shih-chieh-tu,Shijie,Shijie Zhen,Shijiedu,shi jie,shi jie zhen,誓节,誓节镇","latitude":"30.94257","longitude":"119.21997","feature_class":"P","feature_code":"PPLA4","country_code":"CN","cc2":"","admin1_code":"01","admin2_code":"","admin3_code":"","admin4_code":"","population":"0","elevation":"","dem":"28","timezone":"Asia/Shanghai","modification_date":"2012-01-18"},{"geonameid":"1795268","name":"Shijiazhuang","asciiname":"Shijiazhuang","alternatenames":"Shiczjachzhuan,Shih-chia-chuang,Shijiazhuang,Shijiazhuang Zhen,shi jia zhuang,shi jia zhuang zhen,Шицзячжуан,石家庄,石家庄镇","latitude":"38.57535","longitude":"112.01593","feature_class":"P","feature_code":"PPLA4","country_code":"CN","cc2":"","admin1_code":"24","admin2_code":"","admin3_code":"","admin4_code":"","population":"0","elevation":"","dem":"1332","timezone":"Asia/Shanghai","modification_date":"2012-01-18"},{"geonameid":"1795270","name":"Shijiazhuang","asciiname":"Shijiazhuang","alternatenames":"Chen-t'ou,Chen-t’ou,Chentow,Chioh-ka-chng-chhi,Chio̍h-ka-chng-chhī,S'-tia-cuang,SJW,Shiczjachzhuan,Shih-chia-chuang,Shih-chia-chuang-shih,Shih-chuang-shih,Shih-men,Shih-men-shih,Shihjiazhuang,Shihkiachwan,Shihkiachwang,Shijiazhuang,Shijiazhuang Shi,Shitszyachzhuan,Shizhjazhuan,Shudzjadzhuan,Sicsiacsuang,Sidziadzuangas,Sidzjadzuana,Sigjaguango,Sioh-ga-cong,Sitziazouank,Siŏh-gă-cŏng,Swzgyahcuengh,Thach Gia Trang,Thạch Gia Trang,chux ceiy cwng,sa-cyacvanga,seujajwang si,sh-gyʼgwwʼng,shi jia zhuang,shi jia zhuang shi,shidziajuani,shyjyatshwangh,shyjyazhwang,sijiyajhu'anga,sizi'azu'anga,Ŝiĝjaĝŭango,Šidziadžuangas,Šidzjadžuana,Š’-ťia-čuang,Σιτζιαζουάγκ,Шижяжуан,Шицзячжуан,Шиђаџуанг,Шъдзяджуан,Շիցզյաչժուան,שה-גיאגוואנג,شىجياجۇاڭ شەھىرى,شيجياتشوانغ,شیجیاژوانگ,शिजियाझुआंग,ष-च्याच्वांग,ਸ਼ੀਜ਼ੀਆਜ਼ੂਆਂਗ,ฉือเจียจวง,შიძიაჯუანი,石家庄,石家庄市,石家荘市,石家莊,石家莊市,스자좡 시","latitude":"38.04139","longitude":"114.47861","feature_class":"P","feature_code":"PPLA","country_code":"CN","cc2":"","admin1_code":"10","admin2_code":"","admin3_code":"","admin4_code":"","population":"2834942","elevation":"","dem":"77","timezone":"Asia/Shanghai","modification_date":"2014-08-14"},{"geonameid":"1795273","name":"Shijiazhai","asciiname":"Shijiazhai","alternatenames":"Shih-chia-chai,Shijiazhai,Shijiazhai Xiang,shi jia zhai,shi jia zhai xiang,史家寨,史家寨乡","latitude":"38.9244","longitude":"114.26614","feature_class":"P","feature_code":"PPLA4","country_code":"CN","cc2":"","admin1_code":"10","admin2_code":"","admin3_code":"","admin4_code":"","population":"0","elevation":"","dem":"325","timezone":"Asia/Shanghai","modification_date":"2013-07-05"},{"geonameid":"1795274","name":"Shijiaying","asciiname":"Shijiaying","alternatenames":"Shijiaying,Shijiaying Xiang,shi jia ying,shi jia ying xiang,史家营,史家营乡","latitude":"39.85663","longitude":"115.66364","feature_class":"P","feature_code":"PPLA4","country_code":"CN","cc2":"","admin1_code":"22","admin2_code":"","admin3_code":"","admin4_code":"","population":"0","elevation":"","dem":"686","timezone":"Asia/Shanghai","modification_date":"2012-09-06"},{"geonameid":"1795288","name":"Shiqiao","asciiname":"Shiqiao","alternatenames":"Shih-chia-ch'iao,Shih-chia-ch'iao-chen,Shih-chia-ch’iao,Shih-chia-ch’iao-chen,Shijiaqiao,Shiqiao,Shiqiao Zhen,shi qiao,shi qiao zhen,施桥,施桥镇","latitude":"32.31255","longitude":"119.45581","feature_class":"P","feature_code":"PPLA4","country_code":"CN","cc2":"","admin1_code":"04","admin2_code":"","admin3_code":"","admin4_code":"","population":"0","elevation":"","dem":"8","timezone":"Asia/Shanghai","modification_date":"2012-05-05"},{"geonameid":"1795299","name":"Shijiaochang","asciiname":"Shijiaochang","alternatenames":"Shih-chiao,Shijiao,Shijiaochang","latitude":"28.92444","longitude":"106.75611","feature_class":"P","feature_code":"PPL","country_code":"CN","cc2":"CN","admin1_code":"33","admin2_code":"","admin3_code":"","admin4_code":"","population":"2000","elevation":"","dem":"365","timezone":"Asia/Shanghai","modification_date":"2012-01-18"},{"geonameid":"1795300","name":"Shijiao","asciiname":"Shijiao","alternatenames":"Fakang,Fatkong,Fatkong-hsien,Fatkongting,Fo-kang,Fo-kang-hsien,Fogang,Fukang,Shih-chiao,Shih-chiao-chen,Shih-chueh,Shijiao,Shijiao Zhen,shi jiao,shi jiao zhen,石角,石角镇","latitude":"23.86949","longitude":"113.5284","feature_class":"P","feature_code":"PPLA3","country_code":"CN","cc2":"","admin1_code":"30","admin2_code":"","admin3_code":"","admin4_code":"","population":"0","elevation":"","dem":"65","timezone":"Asia/Shanghai","modification_date":"2013-10-05"},{"geonameid":"1795301","name":"Shijiao","asciiname":"Shijiao","alternatenames":"Shih-chiao,Shih-chiao-hsu,Shih-chiao-hsü,Shijiao,Shijiao Zhen,shi jiao,shi jiao zhen,石角,石角镇","latitude":"23.55196","longitude":"112.96994","feature_class":"P","feature_code":"PPLA4","country_code":"CN","cc2":"","admin1_code":"30","admin2_code":"","admin3_code":"","admin4_code":"","population":"0","elevation":"","dem":"6","timezone":"Asia/Shanghai","modification_date":"2012-06-05"},{"geonameid":"1795303","name":"Shijiang","asciiname":"Shijiang","alternatenames":"Shijiang,Shijiang Xiang,shi jiang,shi jiang xiang,石江,石江乡","latitude":"27.82162","longitude":"115.7241","feature_class":"P","feature_code":"PPLA4","country_code":"CN","cc2":"","admin1_code":"03","admin2_code":"","admin3_code":"","admin4_code":"","population":"0","elevation":"","dem":"140","timezone":"Asia/Shanghai","modification_date":"2012-01-18"},{"geonameid":"1795307","name":"Shijian","asciiname":"Shijian","alternatenames":"Shekkan,Shih-chien,Shih-chien-hsu,Shih-chien-hsü,Shijian,Shijian Zhen,shi jian,shi jian zhen,石涧,石涧镇","latitude":"23.51728","longitude":"112.45882","feature_class":"P","feature_code":"PPLA4","country_code":"CN","cc2":"","admin1_code":"30","admin2_code":"","admin3_code":"","admin4_code":"","population":"0","elevation":"","dem":"78","timezone":"Asia/Shanghai","modification_date":"2012-06-05"},{"geonameid":"1795315","name":"Shijia","asciiname":"Shijia","alternatenames":"Shih-chia,Shih-chia-chen,Shijia,Shijia Zhen,shi jia,施家","latitude":"34.81771","longitude":"109.38321","feature_class":"P","feature_code":"PPLA4","country_code":"CN","cc2":"","admin1_code":"26","admin2_code":"","admin3_code":"","admin4_code":"","population":"0","elevation":"","dem":"394","timezone":"Asia/Shanghai","modification_date":"2012-01-18"},{"geonameid":"1795316","name":"Shijia","asciiname":"Shijia","alternatenames":"Shih-chia-pa,Shijia,Shijia Xiang,shi jia,shi jia xiang,石家,石家乡","latitude":"30.28653","longitude":"108.32516","feature_class":"P","feature_code":"PPLA4","country_code":"CN","cc2":"","admin1_code":"33","admin2_code":"","admin3_code":"","admin4_code":"","population":"0","elevation":"","dem":"1133","timezone":"Asia/Shanghai","modification_date":"2012-10-06"},{"geonameid":"1795317","name":"Shijia","asciiname":"Shijia","alternatenames":"Shijia,Shijia Zhen,Shijiahe,shi jia,shi jia zhen,石家,石家镇","latitude":"29.23677","longitude":"108.61165","feature_class":"P","feature_code":"PPLA4","country_code":"CN","cc2":"","admin1_code":"33","admin2_code":"","admin3_code":"","admin4_code":"","population":"0","elevation":"","dem":"668","timezone":"Asia/Shanghai","modification_date":"2012-10-06"},{"geonameid":"1795326","name":"Shihuiqiao","asciiname":"Shihuiqiao","alternatenames":"Shih-hui-ch'iao,Shih-hui-ch’iao,Shihuiqiao,Shihuiqiao Zhen,shi hui qiao,shi hui qiao zhen,拾回桥,拾回桥镇","latitude":"30.55319","longitude":"112.27233","feature_class":"P","feature_code":"PPLA4","country_code":"CN","cc2":"","admin1_code":"12","admin2_code":"","admin3_code":"","admin4_code":"","population":"0","elevation":"","dem":"36","timezone":"Asia/Shanghai","modification_date":"2012-01-18"},