{"nextFile":"cities.25.json","rows":[{"geonameid":"7569004","name":"Hulutao","asciiname":"Hulutao","alternatenames":"Hulutao,Hulutao Xiang,hu lu tao,hu lu tao xiang,葫芦套,葫芦套乡","latitude":"41.79331","longitude":"125.93976","feature_class":"P","feature_code":"PPLA4","country_code":"CN","cc2":"","admin1_code":"05","admin2_code":"","admin3_code":"","admin4_code":"","population":"0","elevation":"","dem":"443","timezone":"Asia/Shanghai","modification_date":"2012-01-21"},{"geonameid":"7569005","name":"Jindou","asciiname":"Jindou","alternatenames":"Jindou,Jindou Chaoxianzu Manzu Xiang,jin dou,jin dou chao xian zu man zu xiang,金斗,金斗朝鲜族满族乡","latitude":"41.70477","longitude":"125.69094","feature_class":"P","feature_code":"PPLA4","country_code":"CN","cc2":"","admin1_code":"05","admin2_code":"","admin3_code":"","admin4_code":"","population":"0","elevation":"","dem":"396","timezone":"Asia/Shanghai","modification_date":"2012-01-21"},{"geonameid":"7569006","name":"Jiangdianzi","asciiname":"Jiangdianzi","alternatenames":"Jiangdian Zhen,Jiangdianzi,jiang dian zhen,jiang dian zi,江甸子,江甸镇","latitude":"41.46895","longitude":"125.71319","feature_class":"P","feature_code":"PPLA4","country_code":"CN","cc2":"","admin1_code":"05","admin2_code":"","admin3_code":"","admin4_code":"","population":"0","elevation":"","dem":"332","timezone":"Asia/Shanghai","modification_date":"2012-01-21"},{"geonameid":"7569007","name":"Dachuan","asciiname":"Dachuan","alternatenames":"Dachuan,Dachuan Xiang,da chuan,da chuan xiang,大川,大川乡","latitude":"41.54777","longitude":"125.53902","feature_class":"P","feature_code":"PPLA4","country_code":"CN","cc2":"","admin1_code":"05","admin2_code":"","admin3_code":"","admin4_code":"","population":"0","elevation":"","dem":"399","timezone":"Asia/Shanghai","modification_date":"2012-01-21"},{"geonameid":"7578270","name":"Chisong","asciiname":"Chisong","alternatenames":"Chisong,Chisong Xiang,chi song,chi song xiang,赤松,赤松乡","latitude":"42.57996","longitude":"127.00562","feature_class":"P","feature_code":"PPLA4","country_code":"CN","cc2":"","admin1_code":"05","admin2_code":"","admin3_code":"","admin4_code":"","population":"0","elevation":"","dem":"527","timezone":"Asia/Shanghai","modification_date":"2012-01-21"},{"geonameid":"7578271","name":"Dujia","asciiname":"Dujia","alternatenames":"Dujia,Xinancha,Xinancha Zhen,du jia,xi nan cha,xi nan cha zhen,杜家,西南岔,西南岔镇","latitude":"42.65086","longitude":"126.89333","feature_class":"P","feature_code":"PPLA4","country_code":"CN","cc2":"","admin1_code":"05","admin2_code":"","admin3_code":"","admin4_code":"","population":"0","elevation":"","dem":"491","timezone":"Asia/Shanghai","modification_date":"2012-01-21"},{"geonameid":"7578272","name":"Yanping","asciiname":"Yanping","alternatenames":"Yanping,Yanping Xiang,yan ping,yan ping xiang,燕平,燕平乡","latitude":"42.26868","longitude":"126.91122","feature_class":"P","feature_code":"PPLA4","country_code":"CN","cc2":"","admin1_code":"05","admin2_code":"","admin3_code":"","admin4_code":"","population":"0","elevation":"","dem":"600","timezone":"Asia/Shanghai","modification_date":"2012-01-21"},{"geonameid":"7578503","name":"Sanchakou Chaoxianzu","asciiname":"Sanchakou Chaoxianzu","alternatenames":"Sanchakou Chaoxianzu,Sanchakou Chaoxianzu Zhen,san cha kou chao xian zu,san cha kou chao xian zu zhen,三岔口朝鲜族,三岔口朝鲜族镇","latitude":"44.01695","longitude":"131.23639","feature_class":"P","feature_code":"PPLA4","country_code":"CN","cc2":"","admin1_code":"08","admin2_code":"","admin3_code":"","admin4_code":"","population":"0","elevation":"","dem":"98","timezone":"Asia/Shanghai","modification_date":"2012-01-21"},{"geonameid":"7580140","name":"Gongji","asciiname":"Gongji","alternatenames":"Gongji,Gongjixiang,gong ji,gong ji xiang,公吉,公吉乡","latitude":"42.99505","longitude":"126.88679","feature_class":"P","feature_code":"PPLA4","country_code":"CN","cc2":"","admin1_code":"05","admin2_code":"","admin3_code":"","admin4_code":"","population":"0","elevation":"","dem":"308","timezone":"Asia/Shanghai","modification_date":"2012-01-21"},{"geonameid":"7602670","name":"Zhu Cheng City","asciiname":"Zhu Cheng City","alternatenames":"","latitude":"35.99502","longitude":"119.40259","feature_class":"P","feature_code":"PPLA3","country_code":"CN","cc2":"","admin1_code":"25","admin2_code":"","admin3_code":"","admin4_code":"","population":"1000000","elevation":"","dem":"67","timezone":"Asia/Shanghai","modification_date":"2010-11-25"},{"geonameid":"7622992","name":"Mangdang","asciiname":"Mangdang","alternatenames":"Mangdang,Mangdang Zhen,mang dang,mang dang zhen,茫荡,茫荡镇","latitude":"26.68778","longitude":"118.15623","feature_class":"P","feature_code":"PPLA4","country_code":"CN","cc2":"","admin1_code":"07","admin2_code":"","admin3_code":"","admin4_code":"","population":"0","elevation":"","dem":"90","timezone":"Asia/Shanghai","modification_date":"2012-01-21"},{"geonameid":"7628535","name":"Nanzheng Chengguanzhen","asciiname":"Nanzheng Chengguanzhen","alternatenames":"Chengguan Zhen,Nanzheng,Nanzheng Chengguanzhen,Nanzheng Xian,cheng guan zhen,nan zheng,nan zheng cheng guan zhen,nan zheng xian,南郑,南郑县,南郑城关镇,城关镇","latitude":"33.00452","longitude":"106.93466","feature_class":"P","feature_code":"PPLA3","country_code":"CN","cc2":"","admin1_code":"26","admin2_code":"","admin3_code":"","admin4_code":"","population":"0","elevation":"","dem":"534","timezone":"Asia/Shanghai","modification_date":"2012-01-21"},{"geonameid":"7628559","name":"Minyue","asciiname":"Minyue","alternatenames":"Minyue,Minyue Chaoxianzuxiang,min le,min le chao xian zu xiang,民乐,民乐朝鲜族乡","latitude":"45.0518","longitude":"127.0489","feature_class":"P","feature_code":"PPLA4","country_code":"CN","cc2":"","admin1_code":"08","admin2_code":"","admin3_code":"","admin4_code":"","population":"0","elevation":"","dem":"166","timezone":"Asia/Shanghai","modification_date":"2012-01-21"},{"geonameid":"7628562","name":"Ashihe","asciiname":"Ashihe","alternatenames":"Ashihe,Ashihe Jiedao,a shen he,a shen he jie dao,阿什河,阿什河街道","latitude":"45.5358","longitude":"126.9737","feature_class":"P","feature_code":"PPLA4","country_code":"CN","cc2":"","admin1_code":"08","admin2_code":"","admin3_code":"","admin4_code":"","population":"0","elevation":"","dem":"153","timezone":"Asia/Shanghai","modification_date":"2012-01-21"},{"geonameid":"7628595","name":"Yonghe","asciiname":"Yonghe","alternatenames":"Yonghe,Yonghe Xiang,yong he,yong he xiang,永和,永和乡","latitude":"45.82781","longitude":"127.10647","feature_class":"P","feature_code":"PPLA4","country_code":"CN","cc2":"","admin1_code":"08","admin2_code":"","admin3_code":"","admin4_code":"","population":"0","elevation":"","dem":"135","timezone":"Asia/Shanghai","modification_date":"2012-01-21"},{"geonameid":"7628605","name":"Guang’en","asciiname":"Guang'en","alternatenames":"Guang'en,Guang'en Xiang,Guang’en,Guang’en Xiang,guang en,guang en xiang,光恩,光恩乡","latitude":"45.64777","longitude":"127.81626","feature_class":"P","feature_code":"PPLA4","country_code":"CN","cc2":"","admin1_code":"08","admin2_code":"","admin3_code":"","admin4_code":"","population":"0","elevation":"","dem":"229","timezone":"Asia/Shanghai","modification_date":"2012-01-21"},{"geonameid":"7628682","name":"Yanhe","asciiname":"Yanhe","alternatenames":"Yanhe,Yanhe Chaoxianzuxiang,yan he,yan he chao xian zu xiang,延和,延和朝鲜族乡","latitude":"45.11586","longitude":"126.91975","feature_class":"P","feature_code":"PPLA4","country_code":"CN","cc2":"","admin1_code":"05","admin2_code":"","admin3_code":"","admin4_code":"","population":"0","elevation":"","dem":"161","timezone":"Asia/Shanghai","modification_date":"2012-01-21"},{"geonameid":"7630035","name":"Songhuajiang","asciiname":"Songhuajiang","alternatenames":"Songhuajiang,Songhuajiang Xiang,song hua jiang,song hua jiang xiang,松花江,松花江乡","latitude":"46.03716","longitude":"127.32551","feature_class":"P","feature_code":"PPLA4","country_code":"CN","cc2":"","admin1_code":"08","admin2_code":"","admin3_code":"","admin4_code":"","population":"0","elevation":"","dem":"134","timezone":"Asia/Shanghai","modification_date":"2012-01-21"},{"geonameid":"7630128","name":"Xiaoshanzi","asciiname":"Xiaoshanzi","alternatenames":"Xiaoshanzi,Xiaoshanzi Zhen,xiao shan zi,xiao shan zi zhen,小山子,小山子镇","latitude":"44.90711","longitude":"127.6024","feature_class":"P","feature_code":"PPLA4","country_code":"CN","cc2":"","admin1_code":"08","admin2_code":"","admin3_code":"","admin4_code":"","population":"0","elevation":"","dem":"201","timezone":"Asia/Shanghai","modification_date":"2012-01-21"},{"geonameid":"7630129","name":"Hedong","asciiname":"Hedong","alternatenames":"Hedong,Hedong Chaoxianzu Xiang,Hedong Zhen,he dong,he dong chao xian zu xiang,he dong zhen,河东,河东朝鲜族乡,河东镇","latitude":"45.25668","longitude":"128.03097","feature_class":"P","feature_code":"PPLA4","country_code":"CN","cc2":"","admin1_code":"08","admin2_code":"","admin3_code":"","admin4_code":"","population":"0","elevation":"","dem":"186","timezone":"Asia/Shanghai","modification_date":"2013-05-10"},{"geonameid":"7630130","name":"Jiaojie","asciiname":"Jiaojie","alternatenames":"Jiaojie,Jiaojie Zhen,jiao jie,jiao jie zhen,交界,交界镇","latitude":"45.34724","longitude":"127.08875","feature_class":"P","feature_code":"PPLA4","country_code":"CN","cc2":"","admin1_code":"08","admin2_code":"","admin3_code":"","admin4_code":"","population":"0","elevation":"","dem":"179","timezone":"Asia/Shanghai","modification_date":"2012-01-21"},{"geonameid":"7630131","name":"Songfengshan","asciiname":"Songfengshan","alternatenames":"Songfengshan,Songfengshan Zhen,song feng shan,song feng shan zhen,松峰山,松峰山镇","latitude":"45.40209","longitude":"127.43068","feature_class":"P","feature_code":"PPLA4","country_code":"CN","cc2":"","admin1_code":"08","admin2_code":"","admin3_code":"","admin4_code":"","population":"0","elevation":"","dem":"250","timezone":"Asia/Shanghai","modification_date":"2012-01-21"},{"geonameid":"7630132","name":"Shuangfeng","asciiname":"Shuangfeng","alternatenames":"Shuangfeng,Shuangfeng Zhen,shuang feng,shuang feng zhen,双丰,双丰镇","latitude":"45.44138","longitude":"126.96665","feature_class":"P","feature_code":"PPLA4","country_code":"CN","cc2":"","admin1_code":"08","admin2_code":"","admin3_code":"","admin4_code":"","population":"0","elevation":"","dem":"162","timezone":"Asia/Shanghai","modification_date":"2012-01-21"},{"geonameid":"7630133","name":"Pingfang","asciiname":"Pingfang","alternatenames":"Pingfang,Pingfang Zhen,ping fang,ping fang zhen,平坊,平坊镇","latitude":"45.55415","longitude":"127.46409","feature_class":"P","feature_code":"PPLA4","country_code":"CN","cc2":"","admin1_code":"08","admin2_code":"","admin3_code":"","admin4_code":"","population":"0","elevation":"","dem":"343","timezone":"Asia/Shanghai","modification_date":"2012-01-21"},{"geonameid":"7630134","name":"Ningyuan","asciiname":"Ningyuan","alternatenames":"Ningyuan,Ningyuan Zhen,ning yuan,ning yuan zhen,宁远,宁远镇","latitude":"45.73087","longitude":"127.9162","feature_class":"P","feature_code":"PPLA4","country_code":"CN","cc2":"","admin1_code":"08","admin2_code":"","admin3_code":"","admin4_code":"","population":"0","elevation":"","dem":"172","timezone":"Asia/Shanghai","modification_date":"2012-01-21"},{"geonameid":"7630135","name":"Feiketu","asciiname":"Feiketu","alternatenames":"Feiketu,Feiketu Zhen,fei ke tu,fei ke tu zhen,蜚克图,蜚克图镇","latitude":"45.74694","longitude":"127.14519","feature_class":"P","feature_code":"PPLA4","country_code":"CN","cc2":"","admin1_code":"08","admin2_code":"","admin3_code":"","admin4_code":"","population":"0","elevation":"","dem":"155","timezone":"Asia/Shanghai","modification_date":"2012-01-21"},{"geonameid":"7630136","name":"Juren","asciiname":"Juren","alternatenames":"Juren,Juren Zhen,ju ren,ju ren zhen,居仁,居仁镇","latitude":"45.76075","longitude":"127.27976","feature_class":"P","feature_code":"PPLA4","country_code":"CN","cc2":"","admin1_code":"08","admin2_code":"","admin3_code":"","admin4_code":"","population":"0","elevation":"","dem":"163","timezone":"Asia/Shanghai","modification_date":"2012-01-21"},{"geonameid":"7630137","name":"Yongyuan","asciiname":"Yongyuan","alternatenames":"Yongyuan,Yongyuan Zhen,yong yuan,yong yuan zhen,永源,永源镇","latitude":"45.77387","longitude":"127.00817","feature_class":"P","feature_code":"PPLA4","country_code":"CN","cc2":"","admin1_code":"08","admin2_code":"","admin3_code":"","admin4_code":"","population":"0","elevation":"","dem":"159","timezone":"Asia/Shanghai","modification_date":"2012-01-21"},{"geonameid":"7630138","name":"Tangfang","asciiname":"Tangfang","alternatenames":"Tangfang,Tangfang Zhen,tang fang,tang fang zhen,糖坊,糖坊镇","latitude":"45.90943","longitude":"127.05729","feature_class":"P","feature_code":"PPLA4","country_code":"CN","cc2":"","admin1_code":"08","admin2_code":"","admin3_code":"","admin4_code":"","population":"0","elevation":"","dem":"131","timezone":"Asia/Shanghai","modification_date":"2012-01-21"},{"geonameid":"7630139","name":"Zhiguang","asciiname":"Zhiguang","alternatenames":"Zhiguang,Zhiguang Xiang,zhi guang,zhi guang xiang,志广,志广乡","latitude":"44.97133","longitude":"127.46117","feature_class":"P","feature_code":"PPLA4","country_code":"CN","cc2":"","admin1_code":"08","admin2_code":"","admin3_code":"","admin4_code":"","population":"0","elevation":"","dem":"196","timezone":"Asia/Shanghai","modification_date":"2012-01-21"},{"geonameid":"7630140","name":"Weiguo","asciiname":"Weiguo","alternatenames":"Weiguo,Weiguo Xiang,wei guo,wei guo xiang,卫国,卫国乡","latitude":"45.02376","longitude":"127.34832","feature_class":"P","feature_code":"PPLA4","country_code":"CN","cc2":"","admin1_code":"08","admin2_code":"","admin3_code":"","admin4_code":"","population":"0","elevation":"","dem":"182","timezone":"Asia/Shanghai","modification_date":"2012-01-21"},{"geonameid":"7630141","name":"Changbao","asciiname":"Changbao","alternatenames":"Changbao,Changbao Xiang,chang bao,chang bao xiang,常堡,常堡乡","latitude":"45.03519","longitude":"127.20932","feature_class":"P","feature_code":"PPLA4","country_code":"CN","cc2":"","admin1_code":"08","admin2_code":"","admin3_code":"","admin4_code":"","population":"0","elevation":"","dem":"178","timezone":"Asia/Shanghai","modification_date":"2012-01-21"},{"geonameid":"7630142","name":"Yingchengzi","asciiname":"Yingchengzi","alternatenames":"Yingchengzi,Yingchengzi Manzuxiang,ying cheng zi,ying cheng zi man zu xiang,营城子,营城子满族乡","latitude":"45.16778","longitude":"126.95588","feature_class":"P","feature_code":"PPLA4","country_code":"CN","cc2":"","admin1_code":"08","admin2_code":"","admin3_code":"","admin4_code":"","population":"0","elevation":"","dem":"178","timezone":"Asia/Shanghai","modification_date":"2012-01-21"},{"geonameid":"7630143","name":"Bajiazi","asciiname":"Bajiazi","alternatenames":"Bajiazi,Bajiazi Xiang,ba jia zi,ba jia zi xiang,八家子,八家子乡","latitude":"45.22928","longitude":"127.04151","feature_class":"P","feature_code":"PPLA4","country_code":"CN","cc2":"","admin1_code":"08","admin2_code":"","admin3_code":"","admin4_code":"","population":"0","elevation":"","dem":"203","timezone":"Asia/Shanghai","modification_date":"2012-01-21"},{"geonameid":"7630144","name":"Changshou","asciiname":"Changshou","alternatenames":"Changshou,Changshou Xiang,zhang shou,zhang shou xiang,长寿,长寿乡","latitude":"45.2696","longitude":"127.93293","feature_class":"P","feature_code":"PPLA4","country_code":"CN","cc2":"","admin1_code":"08","admin2_code":"","admin3_code":"","admin4_code":"","population":"0","elevation":"","dem":"192","timezone":"Asia/Shanghai","modification_date":"2012-01-21"},{"geonameid":"7630145","name":"Daling","asciiname":"Daling","alternatenames":"Daling,Daling Xiang,da ling,da ling xiang,大岭,大岭乡","latitude":"45.5063","longitude":"127.11266","feature_class":"P","feature_code":"PPLA4","country_code":"CN","cc2":"","admin1_code":"08","admin2_code":"","admin3_code":"","admin4_code":"","population":"0","elevation":"","dem":"183","timezone":"Asia/Shanghai","modification_date":"2012-01-21"},{"geonameid":"7630146","name":"Sheli","asciiname":"Sheli","alternatenames":"Sheli,Sheli Xiang,she li,she li xiang,舍利,舍利乡","latitude":"45.56417","longitude":"126.92783","feature_class":"P","feature_code":"PPLA4","country_code":"CN","cc2":"","admin1_code":"08","admin2_code":"","admin3_code":"","admin4_code":"","population":"0","elevation":"","dem":"180","timezone":"Asia/Shanghai","modification_date":"2012-01-21"},{"geonameid":"7630147","name":"Hongxing","asciiname":"Hongxing","alternatenames":"Hongxing,Hongxing Xiang,hong xing,hong xing xiang,红星,红星乡","latitude":"45.56576","longitude":"127.11126","feature_class":"P","feature_code":"PPLA4","country_code":"CN","cc2":"","admin1_code":"08","admin2_code":"","admin3_code":"","admin4_code":"","population":"0","elevation":"","dem":"172","timezone":"Asia/Shanghai","modification_date":"2012-01-21"},{"geonameid":"7630148","name":"Xiangyang","asciiname":"Xiangyang","alternatenames":"Xiangyang,Xiangyang Xiang,xiang yang,xiang yang xiang,向阳,向阳乡","latitude":"45.75297","longitude":"126.92304","feature_class":"P","feature_code":"PPLA4","country_code":"CN","cc2":"","admin1_code":"08","admin2_code":"","admin3_code":"","admin4_code":"","population":"0","elevation":"","dem":"147","timezone":"Asia/Shanghai","modification_date":"2012-01-21"},{"geonameid":"7630149","name":"Sanbao","asciiname":"Sanbao","alternatenames":"Sanbao,Sanbao Xiang,san bao,san bao xiang,三宝,三宝乡","latitude":"45.75595","longitude":"127.66841","feature_class":"P","feature_code":"PPLA4","country_code":"CN","cc2":"","admin1_code":"08","admin2_code":"","admin3_code":"","admin4_code":"","population":"0","elevation":"","dem":"167","timezone":"Asia/Shanghai","modification_date":"2012-01-21"},{"geonameid":"7630150","name":"Chang’an","asciiname":"Chang'an","alternatenames":"Chang'an,Chang'an Xiang,Chang’an,Chang’an Xiang,chang an,chang an xiang,常安,常安乡","latitude":"45.76352","longitude":"127.838","feature_class":"P","feature_code":"PPLA4","country_code":"CN","cc2":"","admin1_code":"08","admin2_code":"","admin3_code":"","admin4_code":"","population":"0","elevation":"","dem":"155","timezone":"Asia/Shanghai","modification_date":"2012-01-21"},{"geonameid":"7630151","name":"Yonghe","asciiname":"Yonghe","alternatenames":"Yonghe,Yonghe Xiang,yong he,yong he xiang,永和,永和乡","latitude":"45.83989","longitude":"127.08737","feature_class":"P","feature_code":"PPLA4","country_code":"CN","cc2":"","admin1_code":"08","admin2_code":"","admin3_code":"","admin4_code":"","population":"0","elevation":"","dem":"137","timezone":"Asia/Shanghai","modification_date":"2012-01-21"},{"geonameid":"7630152","name":"Niaohe","asciiname":"Niaohe","alternatenames":"Niaohe,Niaohe Xiang,niao he,niao he xiang,鸟河,鸟河乡","latitude":"45.90223","longitude":"127.4577","feature_class":"P","feature_code":"PPLA4","country_code":"CN","cc2":"","admin1_code":"08","admin2_code":"","admin3_code":"","admin4_code":"","population":"0","elevation":"","dem":"168","timezone":"Asia/Shanghai","modification_date":"2012-01-21"},{"geonameid":"7630153","name":"Minhe","asciiname":"Minhe","alternatenames":"Minhe,Minhe Xiang,min he,min he xiang,民和,民和乡","latitude":"45.90587","longitude":"127.56196","feature_class":"P","feature_code":"PPLA4","country_code":"CN","cc2":"","admin1_code":"08","admin2_code":"","admin3_code":"","admin4_code":"","population":"0","elevation":"","dem":"159","timezone":"Asia/Shanghai","modification_date":"2012-01-21"},{"geonameid":"7630154","name":"Manjing","asciiname":"Manjing","alternatenames":"Manjing,Manjing Xiang,man jing,man jing xiang,满井,满井乡","latitude":"45.90931","longitude":"127.27202","feature_class":"P","feature_code":"PPLA4","country_code":"CN","cc2":"","admin1_code":"08","admin2_code":"","admin3_code":"","admin4_code":"","population":"0","elevation":"","dem":"123","timezone":"Asia/Shanghai","modification_date":"2012-01-21"},{"geonameid":"7630155","name":"Jianguo","asciiname":"Jianguo","alternatenames":"Jianguo,Jianguo Xiang,jian guo,jian guo xiang,建国,建国乡","latitude":"45.99286","longitude":"128.06705","feature_class":"P","feature_code":"PPLA4","country_code":"CN","cc2":"","admin1_code":"08","admin2_code":"","admin3_code":"","admin4_code":"","population":"0","elevation":"","dem":"126","timezone":"Asia/Shanghai","modification_date":"2012-01-21"},{"geonameid":"7630156","name":"Jixing","asciiname":"Jixing","alternatenames":"Jixing,Jixing Xiang,ji xing,ji xing xiang,吉兴,吉兴乡","latitude":"46.00604","longitude":"127.91158","feature_class":"P","feature_code":"PPLA4","country_code":"CN","cc2":"","admin1_code":"08","admin2_code":"","admin3_code":"","admin4_code":"","population":"0","elevation":"","dem":"131","timezone":"Asia/Shanghai","modification_date":"2012-01-21"},{"geonameid":"7630157","name":"Fujiang","asciiname":"Fujiang","alternatenames":"Fujiang,Fujiang Xiang,fu jiang,fu jiang xiang,富江,富江乡","latitude":"46.03267","longitude":"127.45638","feature_class":"P","feature_code":"PPLA4","country_code":"CN","cc2":"","admin1_code":"08","admin2_code":"","admin3_code":"","admin4_code":"","population":"0","elevation":"","dem":"121","timezone":"Asia/Shanghai","modification_date":"2012-01-21"},{"geonameid":"7630159","name":"Yanglin","asciiname":"Yanglin","alternatenames":"Yanglin,Yanglin Xiang,yang lin,yang lin xiang,杨林,杨林乡","latitude":"46.0776","longitude":"127.13155","feature_class":"P","feature_code":"PPLA4","country_code":"CN","cc2":"","admin1_code":"08","admin2_code":"","admin3_code":"","admin4_code":"","population":"0","elevation":"","dem":"141","timezone":"Asia/Shanghai","modification_date":"2012-01-21"},{"geonameid":"7632853","name":"Haitangwan","asciiname":"Haitangwan","alternatenames":"Haitangwan,Haitangwan Zhen,hai tang wan,hai tang wan zhen,海棠湾,海棠湾镇","latitude":"18.40337","longitude":"109.75003","feature_class":"P","feature_code":"PPLA4","country_code":"CN","cc2":"","admin1_code":"31","admin2_code":"","admin3_code":"","admin4_code":"","population":"0","elevation":"","dem":"9","timezone":"Asia/Shanghai","modification_date":"2012-01-21"},{"geonameid":"7632854","name":"Donghe","asciiname":"Donghe","alternatenames":"Donghe,Donghe Zhen,dong he,dong he zhen,东河,东河镇","latitude":"19.0508","longitude":"108.93767","feature_class":"P","feature_code":"PPLA4","country_code":"CN","cc2":"","admin1_code":"31","admin2_code":"","admin3_code":"","admin4_code":"","population":"0","elevation":"","dem":"112","timezone":"Asia/Shanghai","modification_date":"2012-01-21"},{"geonameid":"7635189","name":"Yelin","asciiname":"Yelin","alternatenames":"Lingshui Lizu Zizhixian,Yelin,Yelin Zhen,ling shui li zu zi zhi xian,ye lin,ye lin zhen,椰林,椰林镇,陵水黎族自治县","latitude":"18.52099","longitude":"110.0397","feature_class":"P","feature_code":"PPLA3","country_code":"CN","cc2":"","admin1_code":"31","admin2_code":"","admin3_code":"","admin4_code":"","population":"0","elevation":"","dem":"7","timezone":"Asia/Shanghai","modification_date":"2013-10-10"},{"geonameid":"7635419","name":"Taipinghu","asciiname":"Taipinghu","alternatenames":"Taipinghu,Taipinghu Zhen,tai ping hu,tai ping hu zhen,太平湖,太平湖镇","latitude":"30.36727","longitude":"118.03974","feature_class":"P","feature_code":"PPLA4","country_code":"CN","cc2":"","admin1_code":"01","admin2_code":"","admin3_code":"","admin4_code":"","population":"0","elevation":"","dem":"130","timezone":"Asia/Shanghai","modification_date":"2012-01-21"},{"geonameid":"7636830","name":"Haoshan","asciiname":"Haoshan","alternatenames":"Haoshan,Haoshan Xiang,hao shan,hao shan xiang,浩山,浩山乡","latitude":"29.88454","longitude":"116.79059","feature_class":"P","feature_code":"PPLA4","country_code":"CN","cc2":"","admin1_code":"03","admin2_code":"","admin3_code":"","admin4_code":"","population":"0","elevation":"","dem":"37","timezone":"Asia/Shanghai","modification_date":"2012-01-21"},{"geonameid":"7636833","name":"Chengshan","asciiname":"Chengshan","alternatenames":"Chengshan,Chengshan Zhen,cheng shan,cheng shan zhen,城山,城山镇","latitude":"29.6015","longitude":"116.25708","feature_class":"P","feature_code":"PPLA4","country_code":"CN","cc2":"","admin1_code":"03","admin2_code":"","admin3_code":"","admin4_code":"","population":"0","elevation":"","dem":"38","timezone":"Asia/Shanghai","modification_date":"2012-01-21"},{"geonameid":"7636834","name":"Wushan","asciiname":"Wushan","alternatenames":"Wushan,Wushan Zhen,wu shan,wu shan zhen,武山,武山镇","latitude":"29.58348","longitude":"116.33092","feature_class":"P","feature_code":"PPLA4","country_code":"CN","cc2":"","admin1_code":"03","admin2_code":"","admin3_code":"","admin4_code":"","population":"0","elevation":"","dem":"31","timezone":"Asia/Shanghai","modification_date":"2012-01-21"},{"geonameid":"7636836","name":"Shishan","asciiname":"Shishan","alternatenames":"Shishan,Shishan Xiang,shi shan,shi shan xiang,狮山,狮山乡","latitude":"29.36097","longitude":"116.48293","feature_class":"P","feature_code":"PPLA4","country_code":"CN","cc2":"","admin1_code":"03","admin2_code":"","admin3_code":"","admin4_code":"","population":"0","elevation":"","dem":"38","timezone":"Asia/Shanghai","modification_date":"2012-01-21"},{"geonameid":"7636837","name":"Yaquehu","asciiname":"Yaquehu","alternatenames":"Yaquehu,Yaquehu Xiang,ya que hu,ya que hu xiang,鸦鹊湖,鸦鹊湖乡","latitude":"29.3239","longitude":"116.6294","feature_class":"P","feature_code":"PPLA4","country_code":"CN","cc2":"","admin1_code":"03","admin2_code":"","admin3_code":"","admin4_code":"","population":"0","elevation":"","dem":"18","timezone":"Asia/Shanghai","modification_date":"2012-01-21"},{"geonameid":"7636840","name":"Dingshan","asciiname":"Dingshan","alternatenames":"Dingshan,Dingshan Zhen,ding shan,ding shan zhen,定山,定山镇","latitude":"29.82356","longitude":"116.40992","feature_class":"P","feature_code":"PPLA4","country_code":"CN","cc2":"","admin1_code":"03","admin2_code":"","admin3_code":"","admin4_code":"","population":"0","elevation":"","dem":"38","timezone":"Asia/Shanghai","modification_date":"2012-01-21"},{"geonameid":"7636841","name":"Liaohua","asciiname":"Liaohua","alternatenames":"Liaohua,Liaohua Zhen,liao hua,liao hua zhen,蓼花,蓼花镇","latitude":"29.39308","longitude":"115.9961","feature_class":"P","feature_code":"PPLA4","country_code":"CN","cc2":"","admin1_code":"03","admin2_code":"","admin3_code":"","admin4_code":"","population":"0","elevation":"","dem":"33","timezone":"Asia/Shanghai","modification_date":"2011-01-05"},{"geonameid":"7636842","name":"Changyi","asciiname":"Changyi","alternatenames":"Changyi,Changyi Xiang,chang yi,chang yi xiang,昌邑,昌邑乡","latitude":"29.02443","longitude":"116.0606","feature_class":"P","feature_code":"PPLA4","country_code":"CN","cc2":"","admin1_code":"03","admin2_code":"","admin3_code":"","admin4_code":"","population":"0","elevation":"","dem":"32","timezone":"Asia/Shanghai","modification_date":"2012-01-21"},{"geonameid":"7636843","name":"Yujiahe","asciiname":"Yujiahe","alternatenames":"Yujiahe,Yujiahe Xiang,yu jia he,yu jia he xiang,虞家河,虞家河乡","latitude":"29.68516","longitude":"116.04624","feature_class":"P","feature_code":"PPLA4","country_code":"CN","cc2":"","admin1_code":"03","admin2_code":"","admin3_code":"","admin4_code":"","population":"0","elevation":"","dem":"19","timezone":"Asia/Shanghai","modification_date":"2012-01-21"},{"geonameid":"7636846","name":"Mingshan","asciiname":"Mingshan","alternatenames":"Mingshan,Mingshan Xiang,ming shan,ming shan xiang,鸣山,鸣山乡","latitude":"29.42103","longitude":"116.46359","feature_class":"P","feature_code":"PPLA4","country_code":"CN","cc2":"","admin1_code":"03","admin2_code":"","admin3_code":"","admin4_code":"","population":"0","elevation":"","dem":"29","timezone":"Asia/Shanghai","modification_date":"2012-01-21"},{"geonameid":"7636847","name":"Baishazhou","asciiname":"Baishazhou","alternatenames":"Baishazhou,Baishazhou Xiang,bai sha zhou,bai sha zhou xiang,白沙洲,白沙洲乡","latitude":"29.16026","longitude":"116.61448","feature_class":"P","feature_code":"PPLA4","country_code":"CN","cc2":"","admin1_code":"03","admin2_code":"","admin3_code":"","admin4_code":"","population":"0","elevation":"","dem":"24","timezone":"Asia/Shanghai","modification_date":"2012-01-21"},{"geonameid":"7636848","name":"Huanghua","asciiname":"Huanghua","alternatenames":"Huanghua,Huanghua Xiang,Huanghua Zhen,huang hua,huang hua xiang,huang hua zhen,黄花,黄花乡,黄花镇","latitude":"29.86256","longitude":"116.5947","feature_class":"P","feature_code":"PPLA4","country_code":"CN","cc2":"","admin1_code":"03","admin2_code":"","admin3_code":"","admin4_code":"","population":"0","elevation":"","dem":"46","timezone":"Asia/Shanghai","modification_date":"2012-01-21"},{"geonameid":"7636849","name":"Maying","asciiname":"Maying","alternatenames":"Maying,Maying Zhen,ma ying,ma ying zhen,马影,马影镇","latitude":"29.72463","longitude":"116.29204","feature_class":"P","feature_code":"PPLA4","country_code":"CN","cc2":"","admin1_code":"03","admin2_code":"","admin3_code":"","admin4_code":"","population":"0","elevation":"","dem":"22","timezone":"Asia/Shanghai","modification_date":"2012-01-21"},{"geonameid":"7636850","name":"Tuanlin","asciiname":"Tuanlin","alternatenames":"Tuanlin,Tuanlin Xiang,tuan lin,tuan lin xiang,团林,团林乡","latitude":"29.07203","longitude":"116.70274","feature_class":"P","feature_code":"PPLA4","country_code":"CN","cc2":"","admin1_code":"03","admin2_code":"","admin3_code":"","admin4_code":"","population":"0","elevation":"","dem":"18","timezone":"Asia/Shanghai","modification_date":"2012-01-21"},{"geonameid":"7636852","name":"Tianhong","asciiname":"Tianhong","alternatenames":"Tianhong,Tianhong Zhen,tian hong,tian hong zhen,天红,天红镇","latitude":"29.68456","longitude":"116.43811","feature_class":"P","feature_code":"PPLA4","country_code":"CN","cc2":"","admin1_code":"03","admin2_code":"","admin3_code":"","admin4_code":"","population":"0","elevation":"","dem":"42","timezone":"Asia/Shanghai","modification_date":"2012-01-21"},{"geonameid":"7636855","name":"Xiangxi","asciiname":"Xiangxi","alternatenames":"Xiangxi,Xiangxi Xiang,xiang xi,xiang xi xiang,芗溪,芗溪乡","latitude":"29.24073","longitude":"116.54824","feature_class":"P","feature_code":"PPLA4","country_code":"CN","cc2":"","admin1_code":"03","admin2_code":"","admin3_code":"","admin4_code":"","population":"0","elevation":"","dem":"22","timezone":"Asia/Shanghai","modification_date":"2012-01-21"},{"geonameid":"7636858","name":"Yangfeng","asciiname":"Yangfeng","alternatenames":"Yangfeng,Yangfeng Xiang,yang feng,yang feng xiang,阳峰,阳峰乡","latitude":"29.29108","longitude":"116.37765","feature_class":"P","feature_code":"PPLA4","country_code":"CN","cc2":"","admin1_code":"03","admin2_code":"","admin3_code":"","admin4_code":"","population":"0","elevation":"","dem":"22","timezone":"Asia/Shanghai","modification_date":"2012-01-21"},{"geonameid":"7636859","name":"Dagang","asciiname":"Dagang","alternatenames":"Dagang,Dagang Zhen,da gang,da gang zhen,大港,大港镇","latitude":"29.54661","longitude":"116.48235","feature_class":"P","feature_code":"PPLA4","country_code":"CN","cc2":"","admin1_code":"03","admin2_code":"","admin3_code":"","admin4_code":"","population":"0","elevation":"","dem":"51","timezone":"Asia/Shanghai","modification_date":"2012-01-21"},{"geonameid":"7636860","name":"Cailing","asciiname":"Cailing","alternatenames":"Cailing,Cailing Zhen,cai ling,cai ling zhen,蔡岭,蔡岭镇","latitude":"29.49985","longitude":"116.38109","feature_class":"P","feature_code":"PPLA4","country_code":"CN","cc2":"","admin1_code":"03","admin2_code":"","admin3_code":"","admin4_code":"","population":"0","elevation":"","dem":"40","timezone":"Asia/Shanghai","modification_date":"2012-01-21"},{"geonameid":"7636862","name":"Fulong","asciiname":"Fulong","alternatenames":"Fulong,Fulong Xiang,fu long,fu long xiang,付垄,付垄乡,付垅乡,傅垄乡","latitude":"29.66007","longitude":"116.33752","feature_class":"P","feature_code":"PPLA4","country_code":"CN","cc2":"","admin1_code":"03","admin2_code":"","admin3_code":"","admin4_code":"","population":"0","elevation":"","dem":"26","timezone":"Asia/Shanghai","modification_date":"2012-01-21"},{"geonameid":"7636867","name":"Beishan","asciiname":"Beishan","alternatenames":"Beishan,Beishan Xiang,bei shan,bei shan xiang,北山,北山乡","latitude":"29.29258","longitude":"116.19527","feature_class":"P","feature_code":"PPLA4","country_code":"CN","cc2":"","admin1_code":"03","admin2_code":"","admin3_code":"","admin4_code":"","population":"0","elevation":"","dem":"32","timezone":"Asia/Shanghai","modification_date":"2012-01-21"},{"geonameid":"7636868","name":"Bailu","asciiname":"Bailu","alternatenames":"Bailu,Bailu Zhen,bai lu,bai lu zhen,白鹿,白鹿镇","latitude":"29.48619","longitude":"116.03939","feature_class":"P","feature_code":"PPLA4","country_code":"CN","cc2":"","admin1_code":"03","admin2_code":"","admin3_code":"","admin4_code":"","population":"0","elevation":"","dem":"74","timezone":"Asia/Shanghai","modification_date":"2012-01-21"},{"geonameid":"7636869","name":"Yinbaohu","asciiname":"Yinbaohu","alternatenames":"Yinbaohu,Yinbaohu Xiang,yin bao hu,yin bao hu xiang,银宝湖,银宝湖乡","latitude":"29.29094","longitude":"116.5795","feature_class":"P","feature_code":"PPLA4","country_code":"CN","cc2":"","admin1_code":"03","admin2_code":"","admin3_code":"","admin4_code":"","population":"0","elevation":"","dem":"35","timezone":"Asia/Shanghai","modification_date":"2012-01-21"},{"geonameid":"7636871","name":"Shuanggang","asciiname":"Shuanggang","alternatenames":"Shuanggang,Shuanggang Zhen,shuang gang,shuang gang zhen,双港,双港镇","latitude":"29.07511","longitude":"116.61559","feature_class":"P","feature_code":"PPLA4","country_code":"CN","cc2":"","admin1_code":"03","admin2_code":"","admin3_code":"","admin4_code":"","population":"0","elevation":"","dem":"19","timezone":"Asia/Shanghai","modification_date":"2012-01-21"},{"geonameid":"7636878","name":"Dongsheng","asciiname":"Dongsheng","alternatenames":"Dongsheng,Dongsheng Zhen,dong sheng,dong sheng zhen,东升,东升镇","latitude":"29.83041","longitude":"116.69552","feature_class":"P","feature_code":"PPLA4","country_code":"CN","cc2":"","admin1_code":"03","admin2_code":"","admin3_code":"","admin4_code":"","population":"0","elevation":"","dem":"32","timezone":"Asia/Shanghai","modification_date":"2012-01-21"},{"geonameid":"7636879","name":"Hehe","asciiname":"Hehe","alternatenames":"Hehe,Hehe Xiang,he he,he he xiang,和合,和合乡","latitude":"29.23068","longitude":"116.2949","feature_class":"P","feature_code":"PPLA4","country_code":"CN","cc2":"","admin1_code":"03","admin2_code":"","admin3_code":"","admin4_code":"","population":"0","elevation":"","dem":"22","timezone":"Asia/Shanghai","modification_date":"2012-01-21"},{"geonameid":"7636880","name":"Xiyuan","asciiname":"Xiyuan","alternatenames":"Xiyuan,Xiyuan Xiang,xi yuan,xi yuan xiang,西源,西源乡","latitude":"29.21608","longitude":"116.42301","feature_class":"P","feature_code":"PPLA4","country_code":"CN","cc2":"","admin1_code":"03","admin2_code":"","admin3_code":"","admin4_code":"","population":"0","elevation":"","dem":"37","timezone":"Asia/Shanghai","modification_date":"2012-01-21"},{"geonameid":"7636881","name":"Huangcun","asciiname":"Huangcun","alternatenames":"Huangcun,Huangcun Xiang,huang cun,huang cun xiang,凰村,凰村乡","latitude":"29.77081","longitude":"116.31996","feature_class":"P","feature_code":"PPLA4","country_code":"CN","cc2":"","admin1_code":"03","admin2_code":"","admin3_code":"","admin4_code":"","population":"0","elevation":"","dem":"35","timezone":"Asia/Shanghai","modification_date":"2012-01-21"},{"geonameid":"7636882","name":"Furongdun","asciiname":"Furongdun","alternatenames":"Furongdun,Furongdun Zhen,fu rong dun,fu rong dun zhen,芙蓉墩,芙蓉墩镇","latitude":"29.85943","longitude":"116.49322","feature_class":"P","feature_code":"PPLA4","country_code":"CN","cc2":"","admin1_code":"03","admin2_code":"","admin3_code":"","admin4_code":"","population":"0","elevation":"","dem":"19","timezone":"Asia/Shanghai","modification_date":"2012-01-21"},{"geonameid":"7636883","name":"Dasha","asciiname":"Dasha","alternatenames":"Dasha,Dasha Zhen,da sha,da sha zhen,大沙,大沙镇","latitude":"29.26465","longitude":"116.32749","feature_class":"P","feature_code":"PPLA4","country_code":"CN","cc2":"","admin1_code":"03","admin2_code":"","admin3_code":"","admin4_code":"","population":"0","elevation":"","dem":"23","timezone":"Asia/Shanghai","modification_date":"2012-01-21"},{"geonameid":"7636884","name":"Dashu","asciiname":"Dashu","alternatenames":"Dashu,Dashu Xiang,da shu,da shu xiang,大树,大树乡","latitude":"29.27808","longitude":"116.26192","feature_class":"P","feature_code":"PPLA4","country_code":"CN","cc2":"","admin1_code":"03","admin2_code":"","admin3_code":"","admin4_code":"","population":"0","elevation":"","dem":"29","timezone":"Asia/Shanghai","modification_date":"2012-01-21"},{"geonameid":"7636886","name":"Duobao","asciiname":"Duobao","alternatenames":"Duobao,Duobao Xiang,duo bao,duo bao xiang,多宝,多宝乡","latitude":"29.40367","longitude":"116.1234","feature_class":"P","feature_code":"PPLA4","country_code":"CN","cc2":"","admin1_code":"03","admin2_code":"","admin3_code":"","admin4_code":"","population":"0","elevation":"","dem":"34","timezone":"Asia/Shanghai","modification_date":"2012-01-21"},{"geonameid":"7636888","name":"Chunqiao","asciiname":"Chunqiao","alternatenames":"Chunqiao,Chunqiao Xiang,chun qiao,chun qiao xiang,春桥,春桥乡","latitude":"29.53741","longitude":"116.27925","feature_class":"P","feature_code":"PPLA4","country_code":"CN","cc2":"","admin1_code":"03","admin2_code":"","admin3_code":"","admin4_code":"","population":"0","elevation":"","dem":"21","timezone":"Asia/Shanghai","modification_date":"2012-01-21"},{"geonameid":"7636889","name":"Zhangqing","asciiname":"Zhangqing","alternatenames":"Zhangqing,Zhangqing Xiang,zhang qing,zhang qing xiang,张青,张青乡","latitude":"29.7151","longitude":"116.33223","feature_class":"P","feature_code":"PPLA4","country_code":"CN","cc2":"","admin1_code":"03","admin2_code":"","admin3_code":"","admin4_code":"","population":"0","elevation":"","dem":"32","timezone":"Asia/Shanghai","modification_date":"2012-01-21"},{"geonameid":"7636891","name":"Zuoli","asciiname":"Zuoli","alternatenames":"Zuoli,Zuoli Zhen,zuo li,zuo li zhen,左里,左里镇","latitude":"29.424","longitude":"116.19667","feature_class":"P","feature_code":"PPLA4","country_code":"CN","cc2":"","admin1_code":"03","admin2_code":"","admin3_code":"","admin4_code":"","population":"0","elevation":"","dem":"31","timezone":"Asia/Shanghai","modification_date":"2012-01-21"},{"geonameid":"7636892","name":"Dalong","asciiname":"Dalong","alternatenames":"Dalong,Dalong Xiang,da long,da long xiang,大垄,大垄乡,大垅乡","latitude":"29.74413","longitude":"116.38433","feature_class":"P","feature_code":"PPLA4","country_code":"CN","cc2":"","admin1_code":"03","admin2_code":"","admin3_code":"","admin4_code":"","population":"0","elevation":"","dem":"45","timezone":"Asia/Shanghai","modification_date":"2012-01-21"},{"geonameid":"7636895","name":"Zhegang","asciiname":"Zhegang","alternatenames":"Zhegang,Zhegang Xiang,zhe gang,zhe gang xiang,柘港,柘港乡","latitude":"29.3455","longitude":"116.73081","feature_class":"P","feature_code":"PPLA4","country_code":"CN","cc2":"","admin1_code":"03","admin2_code":"","admin3_code":"","admin4_code":"","population":"0","elevation":"","dem":"29","timezone":"Asia/Shanghai","modification_date":"2012-01-21"},{"geonameid":"7636896","name":"Zhuhu","asciiname":"Zhuhu","alternatenames":"Zhuhu,Zhuhu Xiang,zhu hu,zhu hu xiang,珠湖,珠湖乡","latitude":"29.18647","longitude":"116.67044","feature_class":"P","feature_code":"PPLA4","country_code":"CN","cc2":"","admin1_code":"03","admin2_code":"","admin3_code":"","admin4_code":"","population":"0","elevation":"","dem":"25","timezone":"Asia/Shanghai","modification_date":"2012-01-21"},{"geonameid":"7636899","name":"Sushan","asciiname":"Sushan","alternatenames":"Sushan,Sushan Xiang,su shan,su shan xiang,苏山,苏山乡","latitude":"29.50108","longitude":"116.20625","feature_class":"P","feature_code":"PPLA4","country_code":"CN","cc2":"","admin1_code":"03","admin2_code":"","admin3_code":"","admin4_code":"","population":"0","elevation":"","dem":"24","timezone":"Asia/Shanghai","modification_date":"2012-01-21"},{"geonameid":"7636900","name":"Zhongguan","asciiname":"Zhongguan","alternatenames":"Zhongguan,Zhongguan Zhen,zhong guan,zhong guan zhen,中馆,中馆镇","latitude":"29.38379","longitude":"116.53264","feature_class":"P","feature_code":"PPLA4","country_code":"CN","cc2":"","admin1_code":"03","admin2_code":"","admin3_code":"","admin4_code":"","population":"0","elevation":"","dem":"25","timezone":"Asia/Shanghai","modification_date":"2012-01-21"},{"geonameid":"7637537","name":"Sixi","asciiname":"Sixi","alternatenames":"Sixi,Sixi Xiang,si xi,si xi xiang,泗溪,泗溪乡","latitude":"30.01866","longitude":"118.05646","feature_class":"P","feature_code":"PPLA4","country_code":"CN","cc2":"","admin1_code":"01","admin2_code":"","admin3_code":"","admin4_code":"","population":"0","elevation":"","dem":"372","timezone":"Asia/Shanghai","modification_date":"2012-01-21"},{"geonameid":"7637571","name":"Yingzhou","asciiname":"Yingzhou","alternatenames":"Yingzhou,Yingzhou Xiang,ying zhou,ying zhou xiang,瀛洲,瀛洲乡","latitude":"30.06173","longitude":"118.64434","feature_class":"P","feature_code":"PPLA4","country_code":"CN","cc2":"","admin1_code":"01","admin2_code":"","admin3_code":"","admin4_code":"","population":"0","elevation":"","dem":"180","timezone":"Asia/Shanghai","modification_date":"2013-06-05"},{"geonameid":"7637609","name":"Xiancun","asciiname":"Xiancun","alternatenames":"Xiancun,Xiancun Xiang,xian cun,xian cun xiang,贤村,贤村乡","latitude":"30.13665","longitude":"118.01458","feature_class":"P","feature_code":"PPLA4","country_code":"CN","cc2":"","admin1_code":"01","admin2_code":"","admin3_code":"","admin4_code":"","population":"0","elevation":"","dem":"294","timezone":"Asia/Shanghai","modification_date":"2012-01-21"},{"geonameid":"7637669","name":"Jiapeng","asciiname":"Jiapeng","alternatenames":"Jiapeng,Jiapeng Xiang,jia peng,jia peng xiang,家朋,家朋乡","latitude":"30.24027","longitude":"118.80909","feature_class":"P","feature_code":"PPLA4","country_code":"CN","cc2":"","admin1_code":"01","admin2_code":"","admin3_code":"","admin4_code":"","population":"0","elevation":"","dem":"280","timezone":"Asia/Shanghai","modification_date":"2012-01-21"},{"geonameid":"7637859","name":"Taohuatan","asciiname":"Taohuatan","alternatenames":"Taohuatan,Taohuatan Zhen,tao hua tan,tao hua tan zhen,桃花潭,桃花潭镇","latitude":"30.48869","longitude":"118.1455","feature_class":"P","feature_code":"PPLA4","country_code":"CN","cc2":"","admin1_code":"01","admin2_code":"","admin3_code":"","admin4_code":"","population":"0","elevation":"","dem":"62","timezone":"Asia/Shanghai","modification_date":"2012-01-21"},{"geonameid":"7638021","name":"Yangong","asciiname":"Yangong","alternatenames":"Yangong,Yangong Zhen,yan gong,yan gong zhen,晏公,晏公镇","latitude":"30.65062","longitude":"118.45019","feature_class":"P","feature_code":"PPLA4","country_code":"CN","cc2":"","admin1_code":"01","admin2_code":"","admin3_code":"","admin4_code":"","population":"0","elevation":"","dem":"61","timezone":"Asia/Shanghai","modification_date":"2012-01-21"},{"geonameid":"7638138","name":"Changqiao","asciiname":"Changqiao","alternatenames":"Changqiao,Changqiao Xiang,chang qiao,chang qiao xiang,昌桥,昌桥乡","latitude":"30.76","longitude":"118.40544","feature_class":"P","feature_code":"PPLA4","country_code":"CN","cc2":"","admin1_code":"01","admin2_code":"","admin3_code":"","admin4_code":"","population":"0","elevation":"","dem":"50","timezone":"Asia/Shanghai","modification_date":"2012-01-21"},{"geonameid":"7638154","name":"Sanli","asciiname":"Sanli","alternatenames":"Sanli,Sanli Zhen,san li,san li zhen,三里,三里镇","latitude":"30.77545","longitude":"118.25476","feature_class":"P","feature_code":"PPLA4","country_code":"CN","cc2":"","admin1_code":"01","admin2_code":"","admin3_code":"","admin4_code":"","population":"0","elevation":"","dem":"35","timezone":"Asia/Shanghai","modification_date":"2012-01-21"},{"geonameid":"7638278","name":"Daihui","asciiname":"Daihui","alternatenames":"Dahui Zhen,Daihui,dai hui,dai hui zhen,戴汇,戴汇镇","latitude":"30.89089","longitude":"118.18307","feature_class":"P","feature_code":"PPLA4","country_code":"CN","cc2":"","admin1_code":"01","admin2_code":"","admin3_code":"","admin4_code":"","population":"0","elevation":"","dem":"104","timezone":"Asia/Shanghai","modification_date":"2012-01-21"},{"geonameid":"7638315","name":"Tianhu","asciiname":"Tianhu","alternatenames":"Tianhu,Tianhu Zhen,tian hu,tian hu zhen,天湖,天湖镇","latitude":"30.91674","longitude":"118.59686","feature_class":"P","feature_code":"PPLA4","country_code":"CN","cc2":"","admin1_code":"01","admin2_code":"","admin3_code":"","admin4_code":"","population":"0","elevation":"","dem":"42","timezone":"Asia/Shanghai","modification_date":"2012-01-21"},{"geonameid":"7638764","name":"Hanlin","asciiname":"Hanlin","alternatenames":"Hanlin,Hanlin Zhen,han lin,han lin zhen,翰林,翰林镇","latitude":"19.33387","longitude":"110.25826","feature_class":"P","feature_code":"PPLA4","country_code":"CN","cc2":"","admin1_code":"31","admin2_code":"","admin3_code":"","admin4_code":"","population":"0","elevation":"","dem":"138","timezone":"Asia/Shanghai","modification_date":"2012-01-21"},{"geonameid":"7638765","name":"Fuwen","asciiname":"Fuwen","alternatenames":"Fuwen,Fuwen Zhen,fu wen,fu wen zhen,富文,富文镇","latitude":"19.55137","longitude":"110.2554","feature_class":"P","feature_code":"PPLA4","country_code":"CN","cc2":"","admin1_code":"31","admin2_code":"","admin3_code":"","admin4_code":"","population":"0","elevation":"","dem":"65","timezone":"Asia/Shanghai","modification_date":"2012-01-21"},{"geonameid":"7640667","name":"Xiaxin","asciiname":"Xiaxin","alternatenames":"Xiaxin,Xiaxin Zhen,xia xin,xia xin zhen,下新,下新镇","latitude":"29.98971","longitude":"116.00674","feature_class":"P","feature_code":"PPLA4","country_code":"CN","cc2":"","admin1_code":"12","admin2_code":"","admin3_code":"","admin4_code":"","population":"0","elevation":"","dem":"23","timezone":"Asia/Shanghai","modification_date":"2012-01-21"},{"geonameid":"7640668","name":"Liuzuo","asciiname":"Liuzuo","alternatenames":"Liuzuo,Liuzuo Xiang,liu zuo,liu zuo xiang,刘佐,刘佐乡","latitude":"29.82296","longitude":"116.0973","feature_class":"P","feature_code":"PPLA4","country_code":"CN","cc2":"","admin1_code":"12","admin2_code":"","admin3_code":"","admin4_code":"","population":"0","elevation":"","dem":"17","timezone":"Asia/Shanghai","modification_date":"2012-01-21"},{"geonameid":"7640676","name":"Tielu","asciiname":"Tielu","alternatenames":"Tielu,Tielu Xiang,tie lu,tie lu xiang,铁炉,铁炉乡","latitude":"29.60826","longitude":"116.70879","feature_class":"P","feature_code":"PPLA4","country_code":"CN","cc2":"","admin1_code":"01","admin2_code":"","admin3_code":"","admin4_code":"","population":"0","elevation":"","dem":"51","timezone":"Asia/Shanghai","modification_date":"2012-01-21"},{"geonameid":"7640683","name":"Longquan","asciiname":"Longquan","alternatenames":"Longquan,Longquanzhen,long quan,long quan zhen,龙泉,龙泉镇","latitude":"29.64007","longitude":"116.81353","feature_class":"P","feature_code":"PPLA4","country_code":"CN","cc2":"","admin1_code":"01","admin2_code":"","admin3_code":"","admin4_code":"","population":"0","elevation":"","dem":"35","timezone":"Asia/Shanghai","modification_date":"2012-01-21"},{"geonameid":"7641247","name":"Huangbai","asciiname":"Huangbai","alternatenames":"Huangbai,Huangbai Xiang,huang bai,huang bai xiang,黄柏,黄柏乡","latitude":"25.9553","longitude":"116.00596","feature_class":"P","feature_code":"PPLA4","country_code":"CN","cc2":"","admin1_code":"03","admin2_code":"","admin3_code":"","admin4_code":"","population":"0","elevation":"","dem":"234","timezone":"Asia/Shanghai","modification_date":"2012-01-21"},{"geonameid":"7641248","name":"Zeqin","asciiname":"Zeqin","alternatenames":"Zeqin,Zeqin Xiang,ze qin,ze qin xiang,泽覃,泽覃乡","latitude":"25.84356","longitude":"116.01545","feature_class":"P","feature_code":"PPLA4","country_code":"CN","cc2":"","admin1_code":"03","admin2_code":"","admin3_code":"","admin4_code":"","population":"0","elevation":"","dem":"203","timezone":"Asia/Shanghai","modification_date":"2012-01-21"},{"geonameid":"7643644","name":"Chengmen","asciiname":"Chengmen","alternatenames":"Chengmen,Chengmen Xiang,cheng men,cheng men xiang,城门,城门乡","latitude":"29.64353","longitude":"115.81237","feature_class":"P","feature_code":"PPLA4","country_code":"CN","cc2":"","admin1_code":"03","admin2_code":"","admin3_code":"","admin4_code":"","population":"0","elevation":"","dem":"15","timezone":"Asia/Shanghai","modification_date":"2012-01-21"},{"geonameid":"7643645","name":"Lianhua","asciiname":"Lianhua","alternatenames":"Lianhua,Lianhua Zhen,lian hua,lian hua zhen,莲花,莲花镇","latitude":"29.64095","longitude":"115.9793","feature_class":"P","feature_code":"PPLA4","country_code":"CN","cc2":"","admin1_code":"03","admin2_code":"","admin3_code":"","admin4_code":"","population":"0","elevation":"","dem":"101","timezone":"Asia/Shanghai","modification_date":"2012-01-21"},{"geonameid":"7643646","name":"Shizi","asciiname":"Shizi","alternatenames":"Shizi,Shizi Zhen,shi zi,shi zi zhen,狮子,狮子镇","latitude":"29.60284","longitude":"115.83624","feature_class":"P","feature_code":"PPLA4","country_code":"CN","cc2":"","admin1_code":"03","admin2_code":"","admin3_code":"","admin4_code":"","population":"0","elevation":"","dem":"42","timezone":"Asia/Shanghai","modification_date":"2012-01-21"},{"geonameid":"7643650","name":"Jinhu","asciiname":"Jinhu","alternatenames":"Jinhu,Jinhu Xiang,jin hu,jin hu xiang,金湖,金湖乡","latitude":"29.28984","longitude":"115.81463","feature_class":"P","feature_code":"PPLA4","country_code":"CN","cc2":"","admin1_code":"03","admin2_code":"","admin3_code":"","admin4_code":"","population":"0","elevation":"","dem":"21","timezone":"Asia/Shanghai","modification_date":"2012-01-21"},{"geonameid":"7643651","name":"Jiangshang","asciiname":"Jiangshang","alternatenames":"Jiangshang,Jiangshang Xiang,jiang shang,jiang shang xiang,江上,江上乡","latitude":"29.16418","longitude":"115.59484","feature_class":"P","feature_code":"PPLA4","country_code":"CN","cc2":"","admin1_code":"03","admin2_code":"","admin3_code":"","admin4_code":"","population":"0","elevation":"","dem":"26","timezone":"Asia/Shanghai","modification_date":"2012-01-21"},{"geonameid":"7643652","name":"Xiafan","asciiname":"Xiafan","alternatenames":"Xiafan,Xiafan Zhen,xia fan,xia fan zhen,夏畈,夏畈镇","latitude":"29.76747","longitude":"115.54216","feature_class":"P","feature_code":"PPLA4","country_code":"CN","cc2":"","admin1_code":"03","admin2_code":"","admin3_code":"","admin4_code":"","population":"0","elevation":"","dem":"20","timezone":"Asia/Shanghai","modification_date":"2012-01-21"},{"geonameid":"7643653","name":"Lixin","asciiname":"Lixin","alternatenames":"Lixin,Lixin Xiang,li xin,li xin xiang,立新,立新乡","latitude":"29.02224","longitude":"115.74111","feature_class":"P","feature_code":"PPLA4","country_code":"CN","cc2":"","admin1_code":"03","admin2_code":"","admin3_code":"","admin4_code":"","population":"0","elevation":"","dem":"25","timezone":"Asia/Shanghai","modification_date":"2012-01-21"},{"geonameid":"7643654","name":"Zequan","asciiname":"Zequan","alternatenames":"Zequan,Zequan Xiang,ze quan,ze quan xiang,泽泉,泽泉乡","latitude":"29.32433","longitude":"115.84702","feature_class":"P","feature_code":"PPLA4","country_code":"CN","cc2":"","admin1_code":"03","admin2_code":"","admin3_code":"","admin4_code":"","population":"0","elevation":"","dem":"41","timezone":"Asia/Shanghai","modification_date":"2012-01-21"},{"geonameid":"7643655","name":"Baiyang","asciiname":"Baiyang","alternatenames":"Baiyang,Baiyang Zhen,bai yang,bai yang zhen,白杨,白杨镇","latitude":"29.73333","longitude":"115.64942","feature_class":"P","feature_code":"PPLA4","country_code":"CN","cc2":"","admin1_code":"03","admin2_code":"","admin3_code":"","admin4_code":"","population":"0","elevation":"","dem":"31","timezone":"Asia/Shanghai","modification_date":"2012-01-21"},{"geonameid":"7643656","name":"Nanyang","asciiname":"Nanyang","alternatenames":"Nanyang,Nanyang Xiang,nan yang,nan yang xiang,南阳,南阳乡","latitude":"29.73485","longitude":"115.51564","feature_class":"P","feature_code":"PPLA4","country_code":"CN","cc2":"","admin1_code":"03","admin2_code":"","admin3_code":"","admin4_code":"","population":"0","elevation":"","dem":"51","timezone":"Asia/Shanghai","modification_date":"2012-01-21"},{"geonameid":"7643657","name":"Liaonan","asciiname":"Liaonan","alternatenames":"Liaonan,Liaonan Xiang,liao nan,liao nan xiang,蓼南,蓼南乡","latitude":"29.30126","longitude":"115.96879","feature_class":"P","feature_code":"PPLA4","country_code":"CN","cc2":"","admin1_code":"03","admin2_code":"","admin3_code":"","admin4_code":"","population":"0","elevation":"","dem":"27","timezone":"Asia/Shanghai","modification_date":"2012-01-21"},{"geonameid":"7643658","name":"Yong’an","asciiname":"Yong'an","alternatenames":"Yong'an,Yong'an Xiang,Yong’an,Yong’an Xiang,yong an,yong an xiang,永安,永安乡","latitude":"29.76534","longitude":"115.78973","feature_class":"P","feature_code":"PPLA4","country_code":"CN","cc2":"","admin1_code":"03","admin2_code":"","admin3_code":"","admin4_code":"","population":"0","elevation":"","dem":"19","timezone":"Asia/Shanghai","modification_date":"2012-01-21"},{"geonameid":"7643659","name":"Linquan","asciiname":"Linquan","alternatenames":"Linquan,Linquan Xiang,lin quan,lin quan xiang,林泉,林泉乡","latitude":"29.4608","longitude":"115.72709","feature_class":"P","feature_code":"PPLA4","country_code":"CN","cc2":"","admin1_code":"03","admin2_code":"","admin3_code":"","admin4_code":"","population":"0","elevation":"","dem":"34","timezone":"Asia/Shanghai","modification_date":"2012-01-21"},{"geonameid":"7643661","name":"Chengzi","asciiname":"Chengzi","alternatenames":"Chengzi,Chengzi Zhen,cheng zi,cheng zi zhen,城子,城子镇","latitude":"29.83762","longitude":"115.68839","feature_class":"P","feature_code":"PPLA4","country_code":"CN","cc2":"","admin1_code":"03","admin2_code":"","admin3_code":"","admin4_code":"","population":"0","elevation":"","dem":"27","timezone":"Asia/Shanghai","modification_date":"2012-01-21"},{"geonameid":"7643662","name":"Wujiao","asciiname":"Wujiao","alternatenames":"Wujiao,Wujiao Xiang,wu jiao,wu jiao xiang,武蛟,武蛟乡","latitude":"29.76881","longitude":"115.62245","feature_class":"P","feature_code":"PPLA4","country_code":"CN","cc2":"","admin1_code":"03","admin2_code":"","admin3_code":"","admin4_code":"","population":"0","elevation":"","dem":"35","timezone":"Asia/Shanghai","modification_date":"2012-01-21"},{"geonameid":"7643666","name":"Meitang","asciiname":"Meitang","alternatenames":"Meitang,Meitang Zhen,mei tang,mei tang zhen,梅棠,梅棠镇","latitude":"29.24452","longitude":"115.62808","feature_class":"P","feature_code":"PPLA4","country_code":"CN","cc2":"","admin1_code":"03","admin2_code":"","admin3_code":"","admin4_code":"","population":"0","elevation":"","dem":"43","timezone":"Asia/Shanghai","modification_date":"2012-01-21"},{"geonameid":"7643668","name":"Gaotang","asciiname":"Gaotang","alternatenames":"Gaotang,Gaotang Xiang,gao tang,gao tang xiang,高塘,高塘乡","latitude":"29.41465","longitude":"115.77491","feature_class":"P","feature_code":"PPLA4","country_code":"CN","cc2":"","admin1_code":"03","admin2_code":"","admin3_code":"","admin4_code":"","population":"0","elevation":"","dem":"40","timezone":"Asia/Shanghai","modification_date":"2012-01-21"},{"geonameid":"7643670","name":"Wushan","asciiname":"Wushan","alternatenames":"Wushan,Wushan Xiang,wu shan,wu shan xiang,吴山,吴山乡","latitude":"29.45176","longitude":"115.65628","feature_class":"P","feature_code":"PPLA4","country_code":"CN","cc2":"","admin1_code":"03","admin2_code":"","admin3_code":"","admin4_code":"","population":"0","elevation":"","dem":"73","timezone":"Asia/Shanghai","modification_date":"2012-01-21"},{"geonameid":"7643671","name":"Xinhe","asciiname":"Xinhe","alternatenames":"Xinhe,Xinhe Zhen,xin he,xin he zhen,新合,新合镇","latitude":"29.61964","longitude":"115.76906","feature_class":"P","feature_code":"PPLA4","country_code":"CN","cc2":"","admin1_code":"03","admin2_code":"","admin3_code":"","admin4_code":"","population":"0","elevation":"","dem":"30","timezone":"Asia/Shanghai","modification_date":"2012-01-21"},{"geonameid":"7643672","name":"Sujiadang","asciiname":"Sujiadang","alternatenames":"Sujiadang,Sujiadang Xiang,su jia dang,su jia dang xiang,苏家垱,苏家垱乡","latitude":"29.27615","longitude":"115.87198","feature_class":"P","feature_code":"PPLA4","country_code":"CN","cc2":"","admin1_code":"03","admin2_code":"","admin3_code":"","admin4_code":"","population":"0","elevation":"","dem":"20","timezone":"Asia/Shanghai","modification_date":"2012-01-21"},{"geonameid":"7643673","name":"Fenglin","asciiname":"Fenglin","alternatenames":"Fenglin,Fenglin Zhen,feng lin,feng lin zhen,丰林,丰林镇","latitude":"29.39293","longitude":"115.71771","feature_class":"P","feature_code":"PPLA4","country_code":"CN","cc2":"","admin1_code":"03","admin2_code":"","admin3_code":"","admin4_code":"","population":"0","elevation":"","dem":"48","timezone":"Asia/Shanghai","modification_date":"2012-01-21"},{"geonameid":"7643674","name":"Jiuhe","asciiname":"Jiuhe","alternatenames":"Jiuhe,Jiuhe Xiang,jiu he,jiu he xiang,九合,九合乡","latitude":"29.05579","longitude":"115.81827","feature_class":"P","feature_code":"PPLA4","country_code":"CN","cc2":"","admin1_code":"03","admin2_code":"","admin3_code":"","admin4_code":"","population":"0","elevation":"","dem":"20","timezone":"Asia/Shanghai","modification_date":"2012-01-21"},{"geonameid":"7643676","name":"Tiehe","asciiname":"Tiehe","alternatenames":"Tiehe,Tiehe Xiang,tie he,tie he xiang,铁河,铁河乡","latitude":"29.02703","longitude":"115.97103","feature_class":"P","feature_code":"PPLA4","country_code":"CN","cc2":"","admin1_code":"03","admin2_code":"","admin3_code":"","admin4_code":"","population":"0","elevation":"","dem":"25","timezone":"Asia/Shanghai","modification_date":"2012-01-21"},{"geonameid":"7643681","name":"Sanjiao","asciiname":"Sanjiao","alternatenames":"Sanjiao,Sanjiao Xiang,san jiao,san jiao xiang,三角,三角乡","latitude":"29.04982","longitude":"115.84392","feature_class":"P","feature_code":"PPLA4","country_code":"CN","cc2":"","admin1_code":"03","admin2_code":"","admin3_code":"","admin4_code":"","population":"0","elevation":"","dem":"22","timezone":"Asia/Shanghai","modification_date":"2012-01-21"},{"geonameid":"7643682","name":"Gaofeng","asciiname":"Gaofeng","alternatenames":"Gaofeng,Gaofeng Zhen,gao feng,gao feng zhen,高丰,高丰镇","latitude":"29.64273","longitude":"115.55557","feature_class":"P","feature_code":"PPLA4","country_code":"CN","cc2":"","admin1_code":"03","admin2_code":"","admin3_code":"","admin4_code":"","population":"0","elevation":"","dem":"40","timezone":"Asia/Shanghai","modification_date":"2012-01-21"},{"geonameid":"7643683","name":"Yanfang","asciiname":"Yanfang","alternatenames":"Yanfang,Yanfang Zhen,yan fang,yan fang zhen,燕坊,燕坊镇","latitude":"29.22369","longitude":"115.70076","feature_class":"P","feature_code":"PPLA4","country_code":"CN","cc2":"","admin1_code":"03","admin2_code":"","admin3_code":"","admin4_code":"","population":"0","elevation":"","dem":"42","timezone":"Asia/Shanghai","modification_date":"2012-01-21"},{"geonameid":"7643684","name":"Hedong","asciiname":"Hedong","alternatenames":"Hedong,Hedong Xiang,he dong,he dong xiang,河东,河东乡","latitude":"29.33826","longitude":"115.76627","feature_class":"P","feature_code":"PPLA4","country_code":"CN","cc2":"","admin1_code":"03","admin2_code":"","admin3_code":"","admin4_code":"","population":"0","elevation":"","dem":"23","timezone":"Asia/Shanghai","modification_date":"2012-01-21"},{"geonameid":"7643685","name":"Yongquan","asciiname":"Yongquan","alternatenames":"Yongquan,Yongquan Xiang,yong quan,yong quan xiang,涌泉,涌泉乡","latitude":"29.6172","longitude":"115.6691","feature_class":"P","feature_code":"PPLA4","country_code":"CN","cc2":"","admin1_code":"03","admin2_code":"","admin3_code":"","admin4_code":"","population":"0","elevation":"","dem":"68","timezone":"Asia/Shanghai","modification_date":"2012-01-21"},{"geonameid":"7643686","name":"Hualin","asciiname":"Hualin","alternatenames":"Hualin,Hualin Zhen,hua lin,hua lin zhen,华林,华林镇","latitude":"29.3687","longitude":"115.95112","feature_class":"P","feature_code":"PPLA4","country_code":"CN","cc2":"","admin1_code":"03","admin2_code":"","admin3_code":"","admin4_code":"","population":"0","elevation":"","dem":"27","timezone":"Asia/Shanghai","modification_date":"2012-01-21"},{"geonameid":"7643687","name":"Minshan","asciiname":"Minshan","alternatenames":"Minshan,Minshan Xiang,min shan,min shan xiang,岷山,岷山乡","latitude":"29.50583","longitude":"115.74883","feature_class":"P","feature_code":"PPLA4","country_code":"CN","cc2":"","admin1_code":"03","admin2_code":"","admin3_code":"","admin4_code":"","population":"0","elevation":"","dem":"65","timezone":"Asia/Shanghai","modification_date":"2012-01-21"},{"geonameid":"7643688","name":"Baota","asciiname":"Baota","alternatenames":"Baota,Baota Xiang,bao ta,bao ta xiang,宝塔,宝塔乡","latitude":"29.32428","longitude":"115.75258","feature_class":"P","feature_code":"PPLA4","country_code":"CN","cc2":"","admin1_code":"03","admin2_code":"","admin3_code":"","admin4_code":"","population":"0","elevation":"","dem":"30","timezone":"Asia/Shanghai","modification_date":"2012-01-21"},{"geonameid":"7643690","name":"Saiyang","asciiname":"Saiyang","alternatenames":"Saiyang,Saiyang Zhen,sai yang,sai yang zhen,赛阳,赛阳镇","latitude":"29.57885","longitude":"115.92454","feature_class":"P","feature_code":"PPLA4","country_code":"CN","cc2":"","admin1_code":"03","admin2_code":"","admin3_code":"","admin4_code":"","population":"0","elevation":"","dem":"101","timezone":"Asia/Shanghai","modification_date":"2012-01-21"},{"geonameid":"7643695","name":"Aimin","asciiname":"Aimin","alternatenames":"Aimin,Aimin Xiang,ai min,ai min xiang,爱民,爱民乡","latitude":"29.44091","longitude":"115.54164","feature_class":"P","feature_code":"PPLA4","country_code":"CN","cc2":"","admin1_code":"03","admin2_code":"","admin3_code":"","admin4_code":"","population":"0","elevation":"","dem":"79","timezone":"Asia/Shanghai","modification_date":"2012-01-21"},{"geonameid":"7644170","name":"Xianggui","asciiname":"Xianggui","alternatenames":"Xianggui,Xianggui Zhen,xiang gui,xiang gui zhen,象贵,象贵镇","latitude":"24.07889","longitude":"113.76083","feature_class":"P","feature_code":"PPLA4","country_code":"CN","cc2":"","admin1_code":"30","admin2_code":"","admin3_code":"","admin4_code":"","population":"0","elevation":"","dem":"99","timezone":"Asia/Shanghai","modification_date":"2012-01-21"},{"geonameid":"7644224","name":"Yinghua","asciiname":"Yinghua","alternatenames":"Yinghua,Yinghua Zhen,ying hua,ying hua zhen,英华,英华镇","latitude":"24.22556","longitude":"113.66333","feature_class":"P","feature_code":"PPLA4","country_code":"CN","cc2":"","admin1_code":"30","admin2_code":"","admin3_code":"","admin4_code":"","population":"0","elevation":"","dem":"75","timezone":"Asia/Shanghai","modification_date":"2012-01-21"},{"geonameid":"7644499","name":"Caishan","asciiname":"Caishan","alternatenames":"Caishan,Caishan Zhen,cai shan,cai shan zhen,蔡山,蔡山镇","latitude":"29.88366","longitude":"115.78684","feature_class":"P","feature_code":"PPLA4","country_code":"CN","cc2":"","admin1_code":"12","admin2_code":"","admin3_code":"","admin4_code":"","population":"0","elevation":"","dem":"23","timezone":"Asia/Shanghai","modification_date":"2012-01-21"},{"geonameid":"7644500","name":"Xinkai","asciiname":"Xinkai","alternatenames":"Xinkai,Xinkai Zhen,xin kai,xin kai zhen,新开,新开镇","latitude":"29.81246","longitude":"115.81046","feature_class":"P","feature_code":"PPLA4","country_code":"CN","cc2":"","admin1_code":"12","admin2_code":"","admin3_code":"","admin4_code":"","population":"0","elevation":"","dem":"18","timezone":"Asia/Shanghai","modification_date":"2012-01-21"},{"geonameid":"7644501","name":"Dajin","asciiname":"Dajin","alternatenames":"Dajin,Dajin Zhen,da jin,da jin zhen,大金,大金镇","latitude":"29.99785","longitude":"115.6121","feature_class":"P","feature_code":"PPLA4","country_code":"CN","cc2":"","admin1_code":"12","admin2_code":"","admin3_code":"","admin4_code":"","population":"0","elevation":"","dem":"27","timezone":"Asia/Shanghai","modification_date":"2012-01-21"},{"geonameid":"7644502","name":"Zhanghekou","asciiname":"Zhanghekou","alternatenames":"Zhanghekou,Zhanghekou Xiang,zhang he kou,zhang he kou xiang,张河口,张河口乡","latitude":"29.9951","longitude":"115.74893","feature_class":"P","feature_code":"PPLA4","country_code":"CN","cc2":"","admin1_code":"12","admin2_code":"","admin3_code":"","admin4_code":"","population":"0","elevation":"","dem":"18","timezone":"Asia/Shanghai","modification_date":"2013-07-08"},{"geonameid":"7644822","name":"Xiangshan","asciiname":"Xiangshan","alternatenames":"Xiangshan,Xiangshan Xiang,xiang shan,xiang shan xiang,项山,项山乡","latitude":"24.93874","longitude":"115.80913","feature_class":"P","feature_code":"PPLA4","country_code":"CN","cc2":"","admin1_code":"03","admin2_code":"","admin3_code":"","admin4_code":"","population":"0","elevation":"","dem":"562","timezone":"Asia/Shanghai","modification_date":"2012-08-05"},{"geonameid":"7650833","name":"Huanglin","asciiname":"Huanglin","alternatenames":"Huanglin,Huanglin Xiang,huang lin,huang lin xiang,黄麟,黄麟乡","latitude":"25.91797","longitude":"115.62093","feature_class":"P","feature_code":"PPLA4","country_code":"CN","cc2":"","admin1_code":"03","admin2_code":"","admin3_code":"","admin4_code":"","population":"0","elevation":"","dem":"157","timezone":"Asia/Shanghai","modification_date":"2012-01-21"},{"geonameid":"7650835","name":"Yunshishan","asciiname":"Yunshishan","alternatenames":"Yunshishan,Yunshishan Xiang,yun shi shan,yun shi shan xiang,云石山,云石山乡","latitude":"25.86411","longitude":"115.86332","feature_class":"P","feature_code":"PPLA4","country_code":"CN","cc2":"","admin1_code":"03","admin2_code":"","admin3_code":"","admin4_code":"","population":"0","elevation":"","dem":"187","timezone":"Asia/Shanghai","modification_date":"2012-01-21"},{"geonameid":"7650838","name":"Zhongshi","asciiname":"Zhongshi","alternatenames":"Zhongshi,Zhongshi Xiang,zhong shi,zhong shi xiang,重石,重石乡","latitude":"25.38746","longitude":"115.41678","feature_class":"P","feature_code":"PPLA4","country_code":"CN","cc2":"","admin1_code":"03","admin2_code":"","admin3_code":"","admin4_code":"","population":"0","elevation":"","dem":"216","timezone":"Asia/Shanghai","modification_date":"2012-01-21"},{"geonameid":"7650839","name":"Lianjiang","asciiname":"Lianjiang","alternatenames":"Lianjiang,Lianjiang Xiang,lian jiang,lian jiang xiang,濂江,濂江乡","latitude":"25.13141","longitude":"115.39286","feature_class":"P","feature_code":"PPLA4","country_code":"CN","cc2":"","admin1_code":"03","admin2_code":"","admin3_code":"","admin4_code":"","population":"0","elevation":"","dem":"288","timezone":"Asia/Shanghai","modification_date":"2012-01-21"},{"geonameid":"7650840","name":"Xinlong","asciiname":"Xinlong","alternatenames":"Xinlong,Xinlong Xiang,xin long,xin long xiang,新龙,新龙乡","latitude":"25.14515","longitude":"115.32677","feature_class":"P","feature_code":"PPLA4","country_code":"CN","cc2":"","admin1_code":"03","admin2_code":"","admin3_code":"","admin4_code":"","population":"0","elevation":"","dem":"267","timezone":"Asia/Shanghai","modification_date":"2012-01-21"},{"geonameid":"7650841","name":"Gaoyunshan","asciiname":"Gaoyunshan","alternatenames":"Gaoyunshan,Gaoyunshan Xiang,gao yun shan,gao yun shan xiang,高云山,高云山乡","latitude":"25.16902","longitude":"115.52191","feature_class":"P","feature_code":"PPLA4","country_code":"CN","cc2":"","admin1_code":"03","admin2_code":"","admin3_code":"","admin4_code":"","population":"0","elevation":"","dem":"623","timezone":"Asia/Shanghai","modification_date":"2012-01-21"},{"geonameid":"7650842","name":"Hushan","asciiname":"Hushan","alternatenames":"Hushan,Hushan Xiang,hu shan,hu shan xiang,虎山,虎山乡","latitude":"25.06714","longitude":"115.10936","feature_class":"P","feature_code":"PPLA4","country_code":"CN","cc2":"","admin1_code":"03","admin2_code":"","admin3_code":"","admin4_code":"","population":"0","elevation":"","dem":"267","timezone":"Asia/Shanghai","modification_date":"2012-01-21"},{"geonameid":"7650844","name":"Jingshi","asciiname":"Jingshi","alternatenames":"Jingshi,Jingshi Xiang,jing shi,jing shi xiang,靖石,靖石乡","latitude":"25.66863","longitude":"115.49672","feature_class":"P","feature_code":"PPLA4","country_code":"CN","cc2":"","admin1_code":"03","admin2_code":"","admin3_code":"","admin4_code":"","population":"0","elevation":"","dem":"231","timezone":"Asia/Shanghai","modification_date":"2012-01-21"},{"geonameid":"7650845","name":"Shuiyuan","asciiname":"Shuiyuan","alternatenames":"Shuiyuan,Shuiyuan Xiang,shui yuan,shui yuan xiang,水源,水源乡","latitude":"25.12614","longitude":"115.63763","feature_class":"P","feature_code":"PPLA4","country_code":"CN","cc2":"","admin1_code":"03","admin2_code":"","admin3_code":"","admin4_code":"","population":"0","elevation":"","dem":"372","timezone":"Asia/Shanghai","modification_date":"2012-01-21"},{"geonameid":"7650846","name":"Changsha","asciiname":"Changsha","alternatenames":"Changsha,Changsha Xiang,zhang sha,zhang sha xiang,长沙,长沙乡","latitude":"25.47496","longitude":"115.52274","feature_class":"P","feature_code":"PPLA4","country_code":"CN","cc2":"","admin1_code":"03","admin2_code":"","admin3_code":"","admin4_code":"","population":"0","elevation":"","dem":"192","timezone":"Asia/Shanghai","modification_date":"2012-01-21"},{"geonameid":"7650850","name":"Fucha","asciiname":"Fucha","alternatenames":"Fucha,Fucha Xiang,fu cha,fu cha xiang,浮槎,浮槎乡","latitude":"25.54113","longitude":"115.43213","feature_class":"P","feature_code":"PPLA4","country_code":"CN","cc2":"","admin1_code":"03","admin2_code":"","admin3_code":"","admin4_code":"","population":"0","elevation":"","dem":"248","timezone":"Asia/Shanghai","modification_date":"2012-01-21"},{"geonameid":"7650851","name":"Zhuangkou","asciiname":"Zhuangkou","alternatenames":"Zhuangkou,Zhuangkou Zhen,zhuang kou,zhuang kou zhen,庄口,庄口镇","latitude":"25.73887","longitude":"115.65566","feature_class":"P","feature_code":"PPLA4","country_code":"CN","cc2":"","admin1_code":"03","admin2_code":"","admin3_code":"","admin4_code":"","population":"0","elevation":"","dem":"171","timezone":"Asia/Shanghai","modification_date":"2012-01-21"},{"geonameid":"7650852","name":"Wenwuba","asciiname":"Wenwuba","alternatenames":"Wenwuba,Wenwuba Zhen,wen wu ba,wen wu ba zhen,文武坝,文武坝镇","latitude":"25.60317","longitude":"115.79629","feature_class":"P","feature_code":"PPLA4","country_code":"CN","cc2":"","admin1_code":"03","admin2_code":"","admin3_code":"","admin4_code":"","population":"0","elevation":"","dem":"173","timezone":"Asia/Shanghai","modification_date":"2012-01-21"},{"geonameid":"7651294","name":"Xingangshan","asciiname":"Xingangshan","alternatenames":"Xingangshan,Xingangshan Zhen,xin gang shan,xin gang shan zhen,新岗山,新岗山镇","latitude":"29.10486","longitude":"117.94298","feature_class":"P","feature_code":"PPLA4","country_code":"CN","cc2":"","admin1_code":"03","admin2_code":"","admin3_code":"","admin4_code":"","population":"0","elevation":"","dem":"90","timezone":"Asia/Shanghai","modification_date":"2012-01-21"},{"geonameid":"7652261","name":"Zheyuan","asciiname":"Zheyuan","alternatenames":"Zheyuan,Zheyuan Xiang,zhe yuan,zhe yuan xiang,浙源,浙源乡","latitude":"29.47235","longitude":"117.86574","feature_class":"P","feature_code":"PPLA4","country_code":"CN","cc2":"","admin1_code":"03","admin2_code":"","admin3_code":"","admin4_code":"","population":"0","elevation":"","dem":"161","timezone":"Asia/Shanghai","modification_date":"2012-01-21"},{"geonameid":"7652262","name":"Hetang","asciiname":"Hetang","alternatenames":"Hetang,Hetang Xiang,he tang,he tang xiang,荷塘,荷塘乡","latitude":"29.17753","longitude":"117.13844","feature_class":"P","feature_code":"PPLA4","country_code":"CN","cc2":"","admin1_code":"03","admin2_code":"","admin3_code":"","admin4_code":"","population":"0","elevation":"","dem":"124","timezone":"Asia/Shanghai","modification_date":"2012-01-21"},{"geonameid":"7652264","name":"Dongxi","asciiname":"Dongxi","alternatenames":"Dongxi,Dongxi Xiang,dong xi,dong xi xiang,东溪,东溪乡","latitude":"29.13566","longitude":"117.01266","feature_class":"P","feature_code":"PPLA4","country_code":"CN","cc2":"","admin1_code":"03","admin2_code":"","admin3_code":"","admin4_code":"","population":"0","elevation":"","dem":"33","timezone":"Asia/Shanghai","modification_date":"2012-01-21"},{"geonameid":"7652266","name":"Hongyan","asciiname":"Hongyan","alternatenames":"Hongyan,Hongyan Zhen,hong yan,hong yan zhen,洪岩,洪岩镇","latitude":"29.03997","longitude":"117.46299","feature_class":"P","feature_code":"PPLA4","country_code":"CN","cc2":"","admin1_code":"03","admin2_code":"","admin3_code":"","admin4_code":"","population":"0","elevation":"","dem":"59","timezone":"Asia/Shanghai","modification_date":"2012-01-21"},{"geonameid":"7652269","name":"Tuochuan","asciiname":"Tuochuan","alternatenames":"Tuochuan,Tuochuan Xiang,tuo chuan,tuo chuan xiang,沱川,沱川乡","latitude":"29.51932","longitude":"117.81592","feature_class":"P","feature_code":"PPLA4","country_code":"CN","cc2":"","admin1_code":"03","admin2_code":"","admin3_code":"","admin4_code":"","population":"0","elevation":"","dem":"257","timezone":"Asia/Shanghai","modification_date":"2012-01-21"},{"geonameid":"7652271","name":"Wanggang","asciiname":"Wanggang","alternatenames":"Wanggang,Wanggang Xiang,wang gang,wang gang xiang,王港,王港乡","latitude":"29.38875","longitude":"117.31427","feature_class":"P","feature_code":"PPLA4","country_code":"CN","cc2":"","admin1_code":"03","admin2_code":"","admin3_code":"","admin4_code":"","population":"0","elevation":"","dem":"55","timezone":"Asia/Shanghai","modification_date":"2012-01-21"},{"geonameid":"7652273","name":"Shuangtian","asciiname":"Shuangtian","alternatenames":"Shuangtian,Shuangtian Zhen,shuang tian,shuang tian zhen,双田,双田镇","latitude":"29.05654","longitude":"117.15577","feature_class":"P","feature_code":"PPLA4","country_code":"CN","cc2":"","admin1_code":"03","admin2_code":"","admin3_code":"","admin4_code":"","population":"0","elevation":"","dem":"36","timezone":"Asia/Shanghai","modification_date":"2012-01-21"},{"geonameid":"7652275","name":"Fengzhou","asciiname":"Fengzhou","alternatenames":"Fengzhou,Fengzhou Xiang,feng zhou,feng zhou xiang,凤洲,凤洲乡","latitude":"29.07643","longitude":"117.5545","feature_class":"P","feature_code":"PPLA4","country_code":"CN","cc2":"","admin1_code":"03","admin2_code":"","admin3_code":"","admin4_code":"","population":"0","elevation":"","dem":"73","timezone":"Asia/Shanghai","modification_date":"2012-01-21"},{"geonameid":"7652277","name":"Jingcheng","asciiname":"Jingcheng","alternatenames":"Jingcheng,Jingcheng Zhen,jing cheng,jing cheng zhen,竟成,竟成镇","latitude":"29.28437","longitude":"117.21816","feature_class":"P","feature_code":"PPLA4","country_code":"CN","cc2":"","admin1_code":"03","admin2_code":"","admin3_code":"","admin4_code":"","population":"0","elevation":"","dem":"34","timezone":"Asia/Shanghai","modification_date":"2012-01-21"},{"geonameid":"7652278","name":"Zhangshan","asciiname":"Zhangshan","alternatenames":"Zhangshan,Zhangshan Xiang,zhang shan,zhang shan xiang,鄣山,鄣山乡","latitude":"29.45331","longitude":"117.72831","feature_class":"P","feature_code":"PPLA4","country_code":"CN","cc2":"","admin1_code":"03","admin2_code":"","admin3_code":"","admin4_code":"","population":"0","elevation":"","dem":"132","timezone":"Asia/Shanghai","modification_date":"2012-01-21"},{"geonameid":"7652285","name":"Hecheng","asciiname":"Hecheng","alternatenames":"Hecheng,Hecheng Xiang,he cheng,he cheng xiang,鹤城,鹤城乡","latitude":"29.65738","longitude":"117.71865","feature_class":"P","feature_code":"PPLA4","country_code":"CN","cc2":"","admin1_code":"01","admin2_code":"","admin3_code":"","admin4_code":"","population":"0","elevation":"","dem":"347","timezone":"Asia/Shanghai","modification_date":"2012-01-21"},{"geonameid":"7652324","name":"Qiaoshan","asciiname":"Qiaoshan","alternatenames":"Qiaoshan,Qiaoshan Xiang,qiao shan,qiao shan xiang,乔山,乔山乡","latitude":"29.76399","longitude":"117.71927","feature_class":"P","feature_code":"PPLA4","country_code":"CN","cc2":"","admin1_code":"01","admin2_code":"","admin3_code":"","admin4_code":"","population":"0","elevation":"","dem":"187","timezone":"Asia/Shanghai","modification_date":"2012-01-21"},{"geonameid":"7652374","name":"Henglian","asciiname":"Henglian","alternatenames":"Henglian,Henglian Xiang,heng lian,heng lian xiang,横联,横联乡","latitude":"29.84896","longitude":"117.8722","feature_class":"P","feature_code":"PPLA4","country_code":"CN","cc2":"","admin1_code":"01","admin2_code":"","admin3_code":"","admin4_code":"","population":"0","elevation":"","dem":"177","timezone":"Asia/Shanghai","modification_date":"2012-01-21"},{"geonameid":"7652386","name":"Dengta","asciiname":"Dengta","alternatenames":"Dengta,Dengta Xiang,deng ta,deng ta xiang,灯塔,灯塔乡","latitude":"29.8691","longitude":"117.66556","feature_class":"P","feature_code":"PPLA4","country_code":"CN","cc2":"","admin1_code":"01","admin2_code":"","admin3_code":"","admin4_code":"","population":"0","elevation":"","dem":"161","timezone":"Asia/Shanghai","modification_date":"2012-01-21"},{"geonameid":"7653967","name":"Yandian","asciiname":"Yandian","alternatenames":"Yandian,Yandian Zhen,yan dian,yan dian zhen,烟店,烟店镇","latitude":"31.33517","longitude":"113.56652","feature_class":"P","feature_code":"PPLA4","country_code":"CN","cc2":"","admin1_code":"12","admin2_code":"","admin3_code":"","admin4_code":"","population":"0","elevation":"","dem":"78","timezone":"Asia/Shanghai","modification_date":"2012-01-21"},{"geonameid":"7653968","name":"Huaxi","asciiname":"Huaxi","alternatenames":"Huaxi,Huaxi Xiang,hua xi,hua xi xiang,花西,花西乡","latitude":"31.19923","longitude":"113.8595","feature_class":"P","feature_code":"PPLA4","country_code":"CN","cc2":"","admin1_code":"12","admin2_code":"","admin3_code":"","admin4_code":"","population":"0","elevation":"","dem":"71","timezone":"Asia/Shanghai","modification_date":"2012-01-21"},{"geonameid":"7653969","name":"Fengjiang","asciiname":"Fengjiang","alternatenames":"Fengjiang,Fengjiang Xiang,feng jiang,feng jiang xiang,封江,封江乡","latitude":"31.97372","longitude":"113.33764","feature_class":"P","feature_code":"PPLA4","country_code":"CN","cc2":"","admin1_code":"12","admin2_code":"","admin3_code":"","admin4_code":"","population":"0","elevation":"","dem":"98","timezone":"Asia/Shanghai","modification_date":"2012-01-21"},{"geonameid":"7653970","name":"Taiping","asciiname":"Taiping","alternatenames":"Taiping,Taiping Xiang,tai ping,tai ping xiang,太平,太平乡","latitude":"31.4552","longitude":"113.92089","feature_class":"P","feature_code":"PPLA4","country_code":"CN","cc2":"","admin1_code":"12","admin2_code":"","admin3_code":"","admin4_code":"","population":"0","elevation":"","dem":"57","timezone":"Asia/Shanghai","modification_date":"2012-01-21"},{"geonameid":"7653971","name":"Qingminghe","asciiname":"Qingminghe","alternatenames":"Qingminghe,Qingminghe Xiang,qing ming he,qing ming he xiang,清明河,清明河乡","latitude":"31.03537","longitude":"113.68917","feature_class":"P","feature_code":"PPLA4","country_code":"CN","cc2":"","admin1_code":"12","admin2_code":"","admin3_code":"","admin4_code":"","population":"0","elevation":"","dem":"32","timezone":"Asia/Shanghai","modification_date":"2012-01-21"},{"geonameid":"7653972","name":"Nancheng","asciiname":"Nancheng","alternatenames":"Nancheng,Nancheng Jiedaobanshichu,nan cheng,nan cheng jie dao ban shi chu,南城,南城街道办事处","latitude":"31.20799","longitude":"113.69692","feature_class":"P","feature_code":"PPLA4","country_code":"CN","cc2":"","admin1_code":"12","admin2_code":"","admin3_code":"","admin4_code":"","population":"0","elevation":"","dem":"54","timezone":"Asia/Shanghai","modification_date":"2012-01-21"},{"geonameid":"7653973","name":"Wupu","asciiname":"Wupu","alternatenames":"Wupu,Wupu Zhen,wu pu,wu pu zhen,吴铺,吴铺镇","latitude":"31.03956","longitude":"113.80076","feature_class":"P","feature_code":"PPLA4","country_code":"CN","cc2":"","admin1_code":"12","admin2_code":"","admin3_code":"","admin4_code":"","population":"0","elevation":"","dem":"38","timezone":"Asia/Shanghai","modification_date":"2012-01-21"},{"geonameid":"7653974","name":"Xinzha","asciiname":"Xinzha","alternatenames":"Xinzha,Xinzha Xiang,xin zha,xin zha xiang,辛榨,辛榨乡","latitude":"31.11666","longitude":"113.62935","feature_class":"P","feature_code":"PPLA4","country_code":"CN","cc2":"","admin1_code":"12","admin2_code":"","admin3_code":"","admin4_code":"","population":"0","elevation":"","dem":"36","timezone":"Asia/Shanghai","modification_date":"2012-01-21"},{"geonameid":"7653975","name":"Nanjiao","asciiname":"Nanjiao","alternatenames":"Nanjiao,Nanjiao Jiedaobanshichu,nan jiao,nan jiao jie dao ban shi chu,南郊,南郊街道办事处","latitude":"31.71326","longitude":"113.3496","feature_class":"P","feature_code":"PPLA4","country_code":"CN","cc2":"","admin1_code":"12","admin2_code":"","admin3_code":"","admin4_code":"","population":"0","elevation":"","dem":"69","timezone":"Asia/Shanghai","modification_date":"2012-01-21"},{"geonameid":"7653976","name":"Beifan","asciiname":"Beifan","alternatenames":"Beifan,Beifan Zhen,bei fan,bei fan zhen,孛畈,孛畈镇","latitude":"31.38378","longitude":"113.52285","feature_class":"P","feature_code":"PPLA4","country_code":"CN","cc2":"","admin1_code":"12","admin2_code":"","admin3_code":"","admin4_code":"","population":"0","elevation":"","dem":"73","timezone":"Asia/Shanghai","modification_date":"2012-01-21"},{"geonameid":"7653977","name":"Dougang","asciiname":"Dougang","alternatenames":"Dougang,Dougang Zhen,dou gang,dou gang zhen,陡岗,陡岗镇","latitude":"31.04025","longitude":"113.85094","feature_class":"P","feature_code":"PPLA4","country_code":"CN","cc2":"","admin1_code":"12","admin2_code":"","admin3_code":"","admin4_code":"","population":"0","elevation":"","dem":"36","timezone":"Asia/Shanghai","modification_date":"2012-01-21"},{"geonameid":"7653979","name":"Xinjie","asciiname":"Xinjie","alternatenames":"Xinjie,Xinjie Zhen,xin jie,xin jie zhen,新街,新街镇","latitude":"31.81854","longitude":"113.21176","feature_class":"P","feature_code":"PPLA4","country_code":"CN","cc2":"","admin1_code":"12","admin2_code":"","admin3_code":"","admin4_code":"","population":"0","elevation":"","dem":"86","timezone":"Asia/Shanghai","modification_date":"2012-01-21"},{"geonameid":"7653980","name":"Fuhe","asciiname":"Fuhe","alternatenames":"Fuhe,Fuhe Zhen,fu he,fu he zhen,府河,府河镇","latitude":"31.50959","longitude":"113.56645","feature_class":"P","feature_code":"PPLA4","country_code":"CN","cc2":"","admin1_code":"12","admin2_code":"","admin3_code":"","admin4_code":"","population":"0","elevation":"","dem":"69","timezone":"Asia/Shanghai","modification_date":"2012-01-21"},{"geonameid":"7653981","name":"Dayanpo","asciiname":"Dayanpo","alternatenames":"Dayanpo,Dayanpo Xiang,da yan po,da yan po xiang,大堰坡,大堰坡乡","latitude":"31.6089","longitude":"113.4375","feature_class":"P","feature_code":"PPLA4","country_code":"CN","cc2":"","admin1_code":"12","admin2_code":"","admin3_code":"","admin4_code":"","population":"0","elevation":"","dem":"74","timezone":"Asia/Shanghai","modification_date":"2012-01-21"},{"geonameid":"7653982","name":"Xihe","asciiname":"Xihe","alternatenames":"Xihe,Xihe Zhen,xi he,xi he zhen,西河,西河镇","latitude":"31.00843","longitude":"114.0096","feature_class":"P","feature_code":"PPLA4","country_code":"CN","cc2":"","admin1_code":"12","admin2_code":"","admin3_code":"","admin4_code":"","population":"0","elevation":"","dem":"52","timezone":"Asia/Shanghai","modification_date":"2012-01-21"},{"geonameid":"7653983","name":"Lülin","asciiname":"Lulin","alternatenames":"Lulin,Lulin Zhen,Lülin,Lülin Zhen,lu lin,lu lin zhen,绿林,绿林镇","latitude":"31.31354","longitude":"113.07676","feature_class":"P","feature_code":"PPLA4","country_code":"CN","cc2":"","admin1_code":"12","admin2_code":"","admin3_code":"","admin4_code":"","population":"0","elevation":"","dem":"148","timezone":"Asia/Shanghai","modification_date":"2013-05-10"},{"geonameid":"7653984","name":"Doushan","asciiname":"Doushan","alternatenames":"Doushan,Doushan Xiang,dou shan,dou shan xiang,陡山,陡山乡","latitude":"31.20247","longitude":"114.00305","feature_class":"P","feature_code":"PPLA4","country_code":"CN","cc2":"","admin1_code":"12","admin2_code":"","admin3_code":"","admin4_code":"","population":"0","elevation":"","dem":"55","timezone":"Asia/Shanghai","modification_date":"2012-01-21"},{"geonameid":"7653985","name":"Daodian","asciiname":"Daodian","alternatenames":"Daodian,Daodian Xiang,dao dian,dao dian xiang,倒店,倒店乡","latitude":"31.1849","longitude":"113.72625","feature_class":"P","feature_code":"PPLA4","country_code":"CN","cc2":"","admin1_code":"12","admin2_code":"","admin3_code":"","admin4_code":"","population":"0","elevation":"","dem":"52","timezone":"Asia/Shanghai","modification_date":"2012-01-21"},{"geonameid":"7656068","name":"Baimiao","asciiname":"Baimiao","alternatenames":"Baimiao,Baimiao Jiedao,bai miao,bai miao jie dao,白庙,白庙街道","latitude":"31.03485","longitude":"112.22115","feature_class":"P","feature_code":"PPLA4","country_code":"CN","cc2":"","admin1_code":"12","admin2_code":"","admin3_code":"","admin4_code":"","population":"0","elevation":"","dem":"96","timezone":"Asia/Shanghai","modification_date":"2012-01-21"},{"geonameid":"7656069","name":"Wenji","asciiname":"Wenji","alternatenames":"Wenji,Wenji Zhen,wen ji,wen ji zhen,文集,文集镇","latitude":"31.15875","longitude":"112.52867","feature_class":"P","feature_code":"PPLA4","country_code":"CN","cc2":"","admin1_code":"12","admin2_code":"","admin3_code":"","admin4_code":"","population":"0","elevation":"","dem":"45","timezone":"Asia/Shanghai","modification_date":"2012-01-21"},{"geonameid":"7656071","name":"Zhengji","asciiname":"Zhengji","alternatenames":"Zhengji,Zhengji Zhen,zheng ji,zheng ji zhen,郑集,郑集镇","latitude":"31.64812","longitude":"112.301","feature_class":"P","feature_code":"PPLA4","country_code":"CN","cc2":"","admin1_code":"12","admin2_code":"","admin3_code":"","admin4_code":"","population":"0","elevation":"","dem":"58","timezone":"Asia/Shanghai","modification_date":"2012-01-21"},{"geonameid":"7658285","name":"Xingqiao","asciiname":"Xingqiao","alternatenames":"Xingqiao,Xingqiao Zhen,xing qiao,xing qiao zhen,兴桥,兴桥镇","latitude":"27.14017","longitude":"114.87426","feature_class":"P","feature_code":"PPLA4","country_code":"CN","cc2":"","admin1_code":"03","admin2_code":"","admin3_code":"","admin4_code":"","population":"0","elevation":"","dem":"76","timezone":"Asia/Shanghai","modification_date":"2012-01-21"},{"geonameid":"7658290","name":"Lucun","asciiname":"Lucun","alternatenames":"Lucun,Lucun Xiang,lu cun,lu cun xiang,芦村,芦村乡","latitude":"27.92751","longitude":"114.45541","feature_class":"P","feature_code":"PPLA4","country_code":"CN","cc2":"","admin1_code":"03","admin2_code":"","admin3_code":"","admin4_code":"","population":"0","elevation":"","dem":"108","timezone":"Asia/Shanghai","modification_date":"2012-01-21"},{"geonameid":"7658291","name":"Chigu","asciiname":"Chigu","alternatenames":"Chigu,Chigu Xiang,chi gu,chi gu xiang,赤谷,赤谷乡","latitude":"27.54976","longitude":"114.65266","feature_class":"P","feature_code":"PPLA4","country_code":"CN","cc2":"","admin1_code":"03","admin2_code":"","admin3_code":"","admin4_code":"","population":"0","elevation":"","dem":"131","timezone":"Asia/Shanghai","modification_date":"2012-01-21"},{"geonameid":"7658293","name":"Shangxian","asciiname":"Shangxian","alternatenames":"Shangxian,Shangxian Xiang,shang xian,shang xian xiang,尚贤,尚贤乡","latitude":"27.36064","longitude":"114.961","feature_class":"P","feature_code":"PPLA4","country_code":"CN","cc2":"","admin1_code":"03","admin2_code":"","admin3_code":"","admin4_code":"","population":"0","elevation":"","dem":"70","timezone":"Asia/Shanghai","modification_date":"2012-01-21"},{"geonameid":"7658294","name":"Hushang","asciiname":"Hushang","alternatenames":"Hushang,Hushang Xiang,hu shang,hu shang xiang,湖上,湖上乡","latitude":"27.26507","longitude":"114.04848","feature_class":"P","feature_code":"PPLA4","country_code":"CN","cc2":"","admin1_code":"03","admin2_code":"","admin3_code":"","admin4_code":"","population":"0","elevation":"","dem":"237","timezone":"Asia/Shanghai","modification_date":"2012-01-21"},{"geonameid":"7658295","name":"Chuntai","asciiname":"Chuntai","alternatenames":"Chuntai,Chuntai Xiang,chun tai,chun tai xiang,春台,春台乡","latitude":"27.80227","longitude":"114.38341","feature_class":"P","feature_code":"PPLA4","country_code":"CN","cc2":"","admin1_code":"03","admin2_code":"","admin3_code":"","admin4_code":"","population":"0","elevation":"","dem":"91","timezone":"Asia/Shanghai","modification_date":"2012-01-21"},{"geonameid":"7658298","name":"Dagangshan","asciiname":"Dagangshan","alternatenames":"Dagangshan,Dagangshan Xiang,da gang shan,da gang shan xiang,大岗山,大岗山乡","latitude":"27.6556","longitude":"114.58814","feature_class":"P","feature_code":"PPLA4","country_code":"CN","cc2":"","admin1_code":"03","admin2_code":"","admin3_code":"","admin4_code":"","population":"0","elevation":"","dem":"237","timezone":"Asia/Shanghai","modification_date":"2012-01-21"},{"geonameid":"7658299","name":"Tailing","asciiname":"Tailing","alternatenames":"Tailing,Tailing Xiang,tai ling,tai ling xiang,台岭,台岭乡","latitude":"27.06865","longitude":"114.11124","feature_class":"P","feature_code":"PPLA4","country_code":"CN","cc2":"","admin1_code":"03","admin2_code":"","admin3_code":"","admin4_code":"","population":"0","elevation":"","dem":"145","timezone":"Asia/Shanghai","modification_date":"2012-01-21"},{"geonameid":"7658300","name":"Yuannan","asciiname":"Yuannan","alternatenames":"Yuannan,Yuannan Xiang,yuan nan,yuan nan xiang,源南,源南乡","latitude":"27.67093","longitude":"114.0315","feature_class":"P","feature_code":"PPLA4","country_code":"CN","cc2":"","admin1_code":"03","admin2_code":"","admin3_code":"","admin4_code":"","population":"0","elevation":"","dem":"137","timezone":"Asia/Shanghai","modification_date":"2012-01-21"},{"geonameid":"7658302","name":"Denglong","asciiname":"Denglong","alternatenames":"Denglong,Denglong Xiang,deng long,deng long xiang,登龙,登龙乡","latitude":"27.01221","longitude":"114.75096","feature_class":"P","feature_code":"PPLA4","country_code":"CN","cc2":"","admin1_code":"03","admin2_code":"","admin3_code":"","admin4_code":"","population":"0","elevation":"","dem":"83","timezone":"Asia/Shanghai","modification_date":"2012-01-21"},{"geonameid":"7658305","name":"Ouli","asciiname":"Ouli","alternatenames":"Ouli,Ouli Zhen,ou li,ou li zhen,欧里,欧里镇","latitude":"27.9266","longitude":"114.83352","feature_class":"P","feature_code":"PPLA4","country_code":"CN","cc2":"","admin1_code":"03","admin2_code":"","admin3_code":"","admin4_code":"","population":"0","elevation":"","dem":"67","timezone":"Asia/Shanghai","modification_date":"2012-01-21"},{"geonameid":"7658306","name":"Jinjiang","asciiname":"Jinjiang","alternatenames":"Jinjiang,Jinjiang Xiang,jin jiang,jin jiang xiang,金江,金江乡","latitude":"27.58557","longitude":"114.9855","feature_class":"P","feature_code":"PPLA4","country_code":"CN","cc2":"","admin1_code":"03","admin2_code":"","admin3_code":"","admin4_code":"","population":"0","elevation":"","dem":"78","timezone":"Asia/Shanghai","modification_date":"2012-01-21"},{"geonameid":"7658307","name":"Yuanzhou","asciiname":"Yuanzhou","alternatenames":"Yuanzhou,Yuanzhou Qu,yuan zhou,yuan zhou qu,袁州,袁州区","latitude":"27.79846","longitude":"114.37608","feature_class":"P","feature_code":"PPLA3","country_code":"CN","cc2":"","admin1_code":"03","admin2_code":"","admin3_code":"","admin4_code":"","population":"0","elevation":"","dem":"102","timezone":"Asia/Shanghai","modification_date":"2012-01-21"},{"geonameid":"7658308","name":"Huze","asciiname":"Huze","alternatenames":"Huze,Huze Zhen,hu ze,hu ze zhen,湖泽,湖泽镇","latitude":"27.86564","longitude":"114.75074","feature_class":"P","feature_code":"PPLA4","country_code":"CN","cc2":"","admin1_code":"03","admin2_code":"","admin3_code":"","admin4_code":"","population":"0","elevation":"","dem":"87","timezone":"Asia/Shanghai","modification_date":"2012-01-21"},{"geonameid":"7658309","name":"Tiantai","asciiname":"Tiantai","alternatenames":"Tiantai,Tiantai Zhen,tian tai,tian tai zhen,天台,天台镇","latitude":"27.82976","longitude":"114.01947","feature_class":"P","feature_code":"PPLA4","country_code":"CN","cc2":"","admin1_code":"03","admin2_code":"","admin3_code":"","admin4_code":"","population":"0","elevation":"","dem":"145","timezone":"Asia/Shanghai","modification_date":"2012-01-21"},{"geonameid":"7658310","name":"Hebu","asciiname":"Hebu","alternatenames":"Hebu,Hebu Xiang,he bu,he bu xiang,禾埠,禾埠乡","latitude":"27.10138","longitude":"114.96696","feature_class":"P","feature_code":"PPLA4","country_code":"CN","cc2":"","admin1_code":"03","admin2_code":"","admin3_code":"","admin4_code":"","population":"0","elevation":"","dem":"59","timezone":"Asia/Shanghai","modification_date":"2012-01-21"},{"geonameid":"7658311","name":"Shanshi","asciiname":"Shanshi","alternatenames":"Shanshi,Shanshi Xiang,shan shi,shan shi xiang,闪石,闪石乡","latitude":"27.2904","longitude":"114.05717","feature_class":"P","feature_code":"PPLA4","country_code":"CN","cc2":"","admin1_code":"03","admin2_code":"","admin3_code":"","admin4_code":"","population":"0","elevation":"","dem":"248","timezone":"Asia/Shanghai","modification_date":"2012-01-21"},{"geonameid":"7658314","name":"Gaoqiaolou","asciiname":"Gaoqiaolou","alternatenames":"Gaoqiaolou,Gaoqiaolou Zhen,gao qiao lou,gao qiao lou zhen,高桥楼,高桥楼镇","latitude":"27.01969","longitude":"114.36506","feature_class":"P","feature_code":"PPLA4","country_code":"CN","cc2":"","admin1_code":"03","admin2_code":"","admin3_code":"","admin4_code":"","population":"0","elevation":"","dem":"107","timezone":"Asia/Shanghai","modification_date":"2012-01-21"},{"geonameid":"7658317","name":"Matian","asciiname":"Matian","alternatenames":"Matian,Matian Xiang,ma tian,ma tian xiang,麻田,麻田乡","latitude":"27.49868","longitude":"114.10171","feature_class":"P","feature_code":"PPLA4","country_code":"CN","cc2":"","admin1_code":"03","admin2_code":"","admin3_code":"","admin4_code":"","population":"0","elevation":"","dem":"338","timezone":"Asia/Shanghai","modification_date":"2012-01-21"},{"geonameid":"7658318","name":"Longmen","asciiname":"Longmen","alternatenames":"Longmen,Longmen Zhen,long men,long men zhen,龙门,龙门镇","latitude":"27.09027","longitude":"114.14307","feature_class":"P","feature_code":"PPLA4","country_code":"CN","cc2":"","admin1_code":"03","admin2_code":"","admin3_code":"","admin4_code":"","population":"0","elevation":"","dem":"146","timezone":"Asia/Shanghai","modification_date":"2012-01-21"},{"geonameid":"7658324","name":"Huayun","asciiname":"Huayun","alternatenames":"Huayun,Huayun Xiang,hua yun,hua yun xiang,华云,华云乡","latitude":"27.57606","longitude":"114.13502","feature_class":"P","feature_code":"PPLA4","country_code":"CN","cc2":"","admin1_code":"03","admin2_code":"","admin3_code":"","admin4_code":"","population":"0","elevation":"","dem":"265","timezone":"Asia/Shanghai","modification_date":"2012-01-21"},{"geonameid":"7658326","name":"Yinhe","asciiname":"Yinhe","alternatenames":"Yinhe,Yinhe Zhen,yin he,yin he zhen,银河,银河镇","latitude":"27.69988","longitude":"114.11777","feature_class":"P","feature_code":"PPLA4","country_code":"CN","cc2":"","admin1_code":"03","admin2_code":"","admin3_code":"","admin4_code":"","population":"0","elevation":"","dem":"115","timezone":"Asia/Shanghai","modification_date":"2012-01-21"},{"geonameid":"7658327","name":"Xiangxing","asciiname":"Xiangxing","alternatenames":"Xiangxing,Xiangxing Xiang,xiang xing,xiang xing xiang,象形,象形乡","latitude":"27.12994","longitude":"114.22587","feature_class":"P","feature_code":"PPLA4","country_code":"CN","cc2":"","admin1_code":"03","admin2_code":"","admin3_code":"","admin4_code":"","population":"0","elevation":"","dem":"143","timezone":"Asia/Shanghai","modification_date":"2012-01-21"},{"geonameid":"7658328","name":"Zhangjiafang","asciiname":"Zhangjiafang","alternatenames":"Zhangjiafang,Zhangjiafang Xiang,zhang jia fang,zhang jia fang xiang,张佳坊,张佳坊乡","latitude":"27.51516","longitude":"114.00931","feature_class":"P","feature_code":"PPLA4","country_code":"CN","cc2":"","admin1_code":"03","admin2_code":"","admin3_code":"","admin4_code":"","population":"0","elevation":"","dem":"275","timezone":"Asia/Shanghai","modification_date":"2012-01-21"},{"geonameid":"7658330","name":"Lianzhou","asciiname":"Lianzhou","alternatenames":"Lianzhou,Lianzhou Xiang,lian zhou,lian zhou xiang,莲洲,莲洲乡","latitude":"27.04573","longitude":"114.25754","feature_class":"P","feature_code":"PPLA4","country_code":"CN","cc2":"","admin1_code":"03","admin2_code":"","admin3_code":"","admin4_code":"","population":"0","elevation":"","dem":"117","timezone":"Asia/Shanghai","modification_date":"2012-01-21"},{"geonameid":"7658331","name":"Dachong","asciiname":"Dachong","alternatenames":"Dachong,Dachong Xiang,da chong,da chong xiang,大冲,大冲乡","latitude":"27.33458","longitude":"114.84651","feature_class":"P","feature_code":"PPLA4","country_code":"CN","cc2":"","admin1_code":"03","admin2_code":"","admin3_code":"","admin4_code":"","population":"0","elevation":"","dem":"82","timezone":"Asia/Shanghai","modification_date":"2012-01-21"},{"geonameid":"7658333","name":"Henglong","asciiname":"Henglong","alternatenames":"Henglong,Henglong Zhen,heng long,heng long zhen,横龙,横龙镇","latitude":"27.39127","longitude":"114.55106","feature_class":"P","feature_code":"PPLA4","country_code":"CN","cc2":"","admin1_code":"03","admin2_code":"","admin3_code":"","admin4_code":"","population":"0","elevation":"","dem":"89","timezone":"Asia/Shanghai","modification_date":"2012-01-21"},{"geonameid":"7658334","name":"Guashe","asciiname":"Guashe","alternatenames":"Guashe,Guashe Xiang,gua she,gua she xiang,瓜畲,瓜畲乡","latitude":"27.41274","longitude":"114.72019","feature_class":"P","feature_code":"PPLA4","country_code":"CN","cc2":"","admin1_code":"03","admin2_code":"","admin3_code":"","admin4_code":"","population":"0","elevation":"","dem":"91","timezone":"Asia/Shanghai","modification_date":"2012-01-21"},{"geonameid":"7658339","name":"Longtian","asciiname":"Longtian","alternatenames":"Longtian,Longtian Xiang,long tian,long tian xiang,龙田,龙田乡","latitude":"27.02001","longitude":"114.03067","feature_class":"P","feature_code":"PPLA4","country_code":"CN","cc2":"","admin1_code":"03","admin2_code":"","admin3_code":"","admin4_code":"","population":"0","elevation":"","dem":"140","timezone":"Asia/Shanghai","modification_date":"2012-01-21"},{"geonameid":"7658344","name":"Nanmu","asciiname":"Nanmu","alternatenames":"Nanmu,Nanmu Xiang,nan mu,nan mu xiang,楠木,楠木乡","latitude":"27.9878","longitude":"114.16628","feature_class":"P","feature_code":"PPLA4","country_code":"CN","cc2":"","admin1_code":"03","admin2_code":"","admin3_code":"","admin4_code":"","population":"0","elevation":"","dem":"182","timezone":"Asia/Shanghai","modification_date":"2012-01-21"},{"geonameid":"7658345","name":"Yuankeng","asciiname":"Yuankeng","alternatenames":"Yuankeng,Yuankeng Xiang,yuan keng,yuan keng xiang,苑坑,苑坑乡","latitude":"27.64887","longitude":"114.72746","feature_class":"P","feature_code":"PPLA4","country_code":"CN","cc2":"","admin1_code":"03","admin2_code":"","admin3_code":"","admin4_code":"","population":"0","elevation":"","dem":"97","timezone":"Asia/Shanghai","modification_date":"2012-01-21"},{"geonameid":"7658348","name":"Jiulongshan","asciiname":"Jiulongshan","alternatenames":"Jiulongshan,Jiulongshan Xiang,jiu long shan,jiu long shan xiang,九龙山,九龙山乡","latitude":"27.64521","longitude":"114.83941","feature_class":"P","feature_code":"PPLA4","country_code":"CN","cc2":"","admin1_code":"03","admin2_code":"","admin3_code":"","admin4_code":"","population":"0","elevation":"","dem":"76","timezone":"Asia/Shanghai","modification_date":"2012-01-21"},