{"nextFile":"cities.11.json","rows":[{"geonameid":"6128089","name":"Rougemont","asciiname":"Rougemont","alternatenames":"","latitude":"45.43338","longitude":"-73.04914","feature_class":"P","feature_code":"PPL","country_code":"CA","cc2":"","admin1_code":"10","admin2_code":"16","admin3_code":"55037","admin4_code":"","population":"1183","elevation":"","dem":"49","timezone":"America/Toronto","modification_date":"2016-02-24"},{"geonameid":"6128577","name":"Rouyn-Noranda","asciiname":"Rouyn-Noranda","alternatenames":"Rouyn-Noranda,Ruehn-Noranda,Ruen-Noranda,Ruin Noranda,YUY,rwwan nwranda,rwyn-nwranda,Руен-Норанда,Руин Норанда,Руэн-Норанда,رووان نوراندا,روین-نوراندا","latitude":"48.23656","longitude":"-79.02311","feature_class":"P","feature_code":"PPL","country_code":"CA","cc2":"","admin1_code":"10","admin2_code":"08","admin3_code":"","admin4_code":"","population":"24023","elevation":"","dem":"299","timezone":"America/Toronto","modification_date":"2013-08-17"},{"geonameid":"6137063","name":"Sackville","asciiname":"Sackville","alternatenames":"Sakvill,XKV,Саквилл,سکولے، نیو برنسوک","latitude":"45.91875","longitude":"-64.38455","feature_class":"P","feature_code":"PPL","country_code":"CA","cc2":"","admin1_code":"04","admin2_code":"","admin3_code":"","admin4_code":"","population":"5411","elevation":"","dem":"13","timezone":"America/Moncton","modification_date":"2010-06-08"},{"geonameid":"6137270","name":"Saguenay","asciiname":"Saguenay","alternatenames":"Sagene,Sagenej,Sagenė,Sagne,Saguenay,YBG,sa ge nai,sageune,saghynyh,sagune,sagwnh  kbk,Сагеней,Сагне,סאגנה,ساغينيه,ساگونه، کبک,سگینے، کیوبک,サグネ,薩格奈,사그네","latitude":"48.41675","longitude":"-71.06573","feature_class":"P","feature_code":"PPL","country_code":"CA","cc2":"","admin1_code":"10","admin2_code":"02","admin3_code":"","admin4_code":"","population":"143692","elevation":"","dem":"84","timezone":"America/Toronto","modification_date":"2013-04-05"},{"geonameid":"6137381","name":"Saint-Ambroise","asciiname":"Saint-Ambroise","alternatenames":"","latitude":"48.55009","longitude":"-71.33238","feature_class":"P","feature_code":"PPL","country_code":"CA","cc2":"","admin1_code":"10","admin2_code":"02","admin3_code":"","admin4_code":"","population":"2015","elevation":"","dem":"125","timezone":"America/Toronto","modification_date":"2008-04-11"},{"geonameid":"6137404","name":"Saint-André-Avellin","asciiname":"Saint-Andre-Avellin","alternatenames":"","latitude":"45.7168","longitude":"-75.06599","feature_class":"P","feature_code":"PPL","country_code":"CA","cc2":"","admin1_code":"10","admin2_code":"07","admin3_code":"","admin4_code":"","population":"1868","elevation":"","dem":"177","timezone":"America/Toronto","modification_date":"2008-04-11"},{"geonameid":"6137411","name":"Saint Andrews","asciiname":"Saint Andrews","alternatenames":"","latitude":"45.0737","longitude":"-67.05312","feature_class":"P","feature_code":"PPL","country_code":"CA","cc2":"","admin1_code":"04","admin2_code":"1302","admin3_code":"","admin4_code":"","population":"1809","elevation":"","dem":"9","timezone":"America/Moncton","modification_date":"2014-09-20"},{"geonameid":"6137462","name":"Saint-Augustin","asciiname":"Saint-Augustin","alternatenames":"","latitude":"51.22602","longitude":"-58.65017","feature_class":"P","feature_code":"PPL","country_code":"CA","cc2":"","admin1_code":"10","admin2_code":"09","admin3_code":"","admin4_code":"","population":"3961","elevation":"","dem":"7","timezone":"America/Blanc-Sablon","modification_date":"2009-07-27"},{"geonameid":"6137489","name":"Saint-Basile-le-Grand","asciiname":"Saint-Basile-le-Grand","alternatenames":"Sen Bazil le Gran,san basyly ly jrand,sn-bazyl-lw-grand  kbk,Сен Базил ле Гран,سان باسيلي لي جراند,سن-بازیل-لو-گراند، کبک,سینٹ-بسلے-لے-گرینڈ، کیوبک","latitude":"45.53338","longitude":"-73.28246","feature_class":"P","feature_code":"PPL","country_code":"CA","cc2":"","admin1_code":"10","admin2_code":"16","admin3_code":"","admin4_code":"","population":"15605","elevation":"","dem":"13","timezone":"America/Toronto","modification_date":"2010-09-23"},{"geonameid":"6137533","name":"Saint-Bruno","asciiname":"Saint-Bruno","alternatenames":"","latitude":"48.46679","longitude":"-71.6491","feature_class":"P","feature_code":"PPL","country_code":"CA","cc2":"","admin1_code":"10","admin2_code":"02","admin3_code":"","admin4_code":"","population":"2636","elevation":"","dem":"150","timezone":"America/Toronto","modification_date":"2013-07-14"},{"geonameid":"6137539","name":"Saint-Bruno-de-Guigues","asciiname":"Saint-Bruno-de-Guigues","alternatenames":"","latitude":"47.46685","longitude":"-79.43296","feature_class":"P","feature_code":"PPL","country_code":"CA","cc2":"","admin1_code":"10","admin2_code":"08","admin3_code":"","admin4_code":"","population":"2928","elevation":"","dem":"228","timezone":"America/Toronto","modification_date":"2006-01-22"},{"geonameid":"6137540","name":"Saint-Bruno-de-Montarville","asciiname":"Saint-Bruno-de-Montarville","alternatenames":"Sen Brino de Montarvil,san brwnw dy mwntrafly,sn-brwnw-dw-mwntarwyl,Сен Брино де Монтарвил,سان برونو دي مونترافلي,سن-برونو-دو-مونتارویل,سینٹ-برونو-دے-مونترولے","latitude":"45.53341","longitude":"-73.34916","feature_class":"P","feature_code":"PPL","country_code":"CA","cc2":"","admin1_code":"10","admin2_code":"","admin3_code":"","admin4_code":"","population":"24388","elevation":"","dem":"41","timezone":"America/Toronto","modification_date":"2010-09-23"},{"geonameid":"6137571","name":"Saint-Césaire","asciiname":"Saint-Cesaire","alternatenames":"","latitude":"45.41678","longitude":"-72.99914","feature_class":"P","feature_code":"PPL","country_code":"CA","cc2":"","admin1_code":"10","admin2_code":"16","admin3_code":"","admin4_code":"","population":"3175","elevation":"","dem":"32","timezone":"America/Toronto","modification_date":"2008-04-11"},{"geonameid":"6137626","name":"Saint-Colomban","asciiname":"Saint-Colomban","alternatenames":"","latitude":"45.73338","longitude":"-74.13251","feature_class":"P","feature_code":"PPLA3","country_code":"CA","cc2":"","admin1_code":"10","admin2_code":"15","admin3_code":"75005","admin4_code":"","population":"0","elevation":"","dem":"149","timezone":"America/Toronto","modification_date":"2014-03-02"},{"geonameid":"6137631","name":"Saint-Côme--Linière","asciiname":"Saint-Come--Liniere","alternatenames":"","latitude":"46.06677","longitude":"-70.51573","feature_class":"P","feature_code":"PPL","country_code":"CA","cc2":"","admin1_code":"10","admin2_code":"12","admin3_code":"","admin4_code":"","population":"2167","elevation":"","dem":"310","timezone":"America/Toronto","modification_date":"2006-01-22"},{"geonameid":"6137633","name":"Saint-Constant","asciiname":"Saint-Constant","alternatenames":"Sen Konstan,san kwnstant,sn-kwnstan  kbk,Сен Констан,سان كونستانت,سن-کونستان، کبک,سینٹ-کانسٹنٹ، کیوبک","latitude":"45.36678","longitude":"-73.56588","feature_class":"P","feature_code":"PPL","country_code":"CA","cc2":"","admin1_code":"10","admin2_code":"16","admin3_code":"","admin4_code":"","population":"23957","elevation":"","dem":"26","timezone":"America/Toronto","modification_date":"2010-09-23"},{"geonameid":"6137649","name":"Saint-Cyrille-de-Wendover","asciiname":"Saint-Cyrille-de-Wendover","alternatenames":"","latitude":"45.93336","longitude":"-72.43241","feature_class":"P","feature_code":"PPL","country_code":"CA","cc2":"","admin1_code":"10","admin2_code":"17","admin3_code":"49070","admin4_code":"","population":"1279","elevation":"","dem":"76","timezone":"America/Toronto","modification_date":"2016-02-23"},{"geonameid":"6137655","name":"Saint-Damase","asciiname":"Saint-Damase","alternatenames":"","latitude":"45.53341","longitude":"-72.99914","feature_class":"P","feature_code":"PPL","country_code":"CA","cc2":"","admin1_code":"10","admin2_code":"16","admin3_code":"","admin4_code":"","population":"1349","elevation":"","dem":"30","timezone":"America/Toronto","modification_date":"2008-04-11"},{"geonameid":"6137676","name":"Saint-Denis-sur-Richelieu","asciiname":"Saint-Denis-sur-Richelieu","alternatenames":"sn-dwny-swr-ryshwlyw  kbk,سن-دونی-سور-ریشولیو، کبک,سینٹ-ڈینس-سر-ریچلیو، کیوبک","latitude":"45.78338","longitude":"-73.14915","feature_class":"P","feature_code":"PPL","country_code":"CA","cc2":"","admin1_code":"10","admin2_code":"16","admin3_code":"","admin4_code":"","population":"1067","elevation":"","dem":"17","timezone":"America/Toronto","modification_date":"2006-01-22"},{"geonameid":"6137696","name":"Sainte-Adèle","asciiname":"Sainte-Adele","alternatenames":"Ste-Adele,Ste-Adèle","latitude":"45.95008","longitude":"-74.13251","feature_class":"P","feature_code":"PPL","country_code":"CA","cc2":"","admin1_code":"10","admin2_code":"15","admin3_code":"","admin4_code":"","population":"10634","elevation":"","dem":"246","timezone":"America/Toronto","modification_date":"2013-07-18"},{"geonameid":"6137702","name":"Sainte-Agathe-des-Monts","asciiname":"Sainte-Agathe-des-Monts","alternatenames":"Sent Agat de Mon,Sent-Agat-de-Mon,sant aghath ds mwnts,snt-agat-dh-mwn,Сент Агат де Мон,Сент-Агат-де-Мон,سانت أغاث دس مونتس,سنت-آگات-ده-مون,سین-اگاٹھے-دس-مونٹس,サンタガット・デ・モン","latitude":"46.05009","longitude":"-74.28252","feature_class":"P","feature_code":"PPL","country_code":"CA","cc2":"","admin1_code":"10","admin2_code":"15","admin3_code":"","admin4_code":"","population":"5706","elevation":"","dem":"375","timezone":"America/Toronto","modification_date":"2006-01-22"},{"geonameid":"6137733","name":"Sainte-Anne-de-Bellevue","asciiname":"Sainte-Anne-de-Bellevue","alternatenames":"Sent An de Belvi,Sent-Ann-de-Bel'vju,snt-an-dw-blww  kbk,Сент Ан де Белви,Сент-Анн-де-Бельвю,سنت-آن-دو-بلوو، کبک,سین-این-دے-بلووے، کیوبک","latitude":"45.40618","longitude":"-73.9456","feature_class":"P","feature_code":"PPL","country_code":"CA","cc2":"","admin1_code":"10","admin2_code":"","admin3_code":"","admin4_code":"","population":"5197","elevation":"","dem":"34","timezone":"America/Toronto","modification_date":"2010-09-23"},{"geonameid":"6137749","name":"Sainte-Anne-des-Monts","asciiname":"Sainte-Anne-des-Monts","alternatenames":"Sent An de Mon,snt-an-dh-mwn  kbk,Сент Ан де Мон,سنت-آن-ده-مون، کبک,سین-این-دس-مونٹس، کیوبک","latitude":"49.12402","longitude":"-66.49243","feature_class":"P","feature_code":"PPL","country_code":"CA","cc2":"","admin1_code":"10","admin2_code":"11","admin3_code":"","admin4_code":"","population":"5602","elevation":"","dem":"15","timezone":"America/Toronto","modification_date":"2009-07-31"},{"geonameid":"6137753","name":"Sainte-Anne-des-Plaines","asciiname":"Sainte-Anne-des-Plaines","alternatenames":"Sent An de Plen,sant an dy blyn,snt-an-dh-pln  kbk,syn-ayn-ds-playns  kywbk,Сент Ан де Плен,سانت آن دي بلين,سنت-آن-ده-پلن، کبک,سین-این-دس-پلائنس، کیوبک","latitude":"45.76468","longitude":"-73.81156","feature_class":"P","feature_code":"PPL","country_code":"CA","cc2":"","admin1_code":"10","admin2_code":"15","admin3_code":"","admin4_code":"","population":"10680","elevation":"","dem":"67","timezone":"America/Toronto","modification_date":"2008-04-11"},{"geonameid":"6137781","name":"Sainte-Catherine","asciiname":"Sainte-Catherine","alternatenames":"","latitude":"46.31836","longitude":"-72.56632","feature_class":"P","feature_code":"PPL","country_code":"CA","cc2":"","admin1_code":"10","admin2_code":"","admin3_code":"","admin4_code":"","population":"16211","elevation":"","dem":"10","timezone":"America/Toronto","modification_date":"2010-09-23"},{"geonameid":"6137941","name":"Sainte-Julie","asciiname":"Sainte-Julie","alternatenames":"Sent Zhili,sant jwly,snt-zhwly  kbk,Сент Жили,سانت جولي,سنت-ژولی، کبک,سین-جلے، کیوبک","latitude":"45.58338","longitude":"-73.33246","feature_class":"P","feature_code":"PPL","country_code":"CA","cc2":"","admin1_code":"10","admin2_code":"16","admin3_code":"","admin4_code":"","population":"29019","elevation":"","dem":"37","timezone":"America/Toronto","modification_date":"2010-09-23"},{"geonameid":"6137947","name":"Sainte-Julienne","asciiname":"Sainte-Julienne","alternatenames":"","latitude":"45.96677","longitude":"-73.71587","feature_class":"P","feature_code":"PPL","country_code":"CA","cc2":"","admin1_code":"10","admin2_code":"14","admin3_code":"","admin4_code":"","population":"3211","elevation":"","dem":"116","timezone":"America/Toronto","modification_date":"2006-01-22"},{"geonameid":"6138032","name":"Sainte-Marthe-sur-le-Lac","asciiname":"Sainte-Marthe-sur-le-Lac","alternatenames":"","latitude":"45.53338","longitude":"-73.9325","feature_class":"P","feature_code":"PPL","country_code":"CA","cc2":"","admin1_code":"10","admin2_code":"15","admin3_code":"","admin4_code":"","population":"11311","elevation":"","dem":"35","timezone":"America/Toronto","modification_date":"2010-09-23"},{"geonameid":"6138038","name":"Sainte-Martine","asciiname":"Sainte-Martine","alternatenames":"","latitude":"45.25008","longitude":"-73.79919","feature_class":"P","feature_code":"PPL","country_code":"CA","cc2":"","admin1_code":"10","admin2_code":"16","admin3_code":"","admin4_code":"","population":"2535","elevation":"","dem":"33","timezone":"America/Toronto","modification_date":"2008-04-11"},{"geonameid":"6138103","name":"Sainte-Sophie","asciiname":"Sainte-Sophie","alternatenames":"","latitude":"45.81678","longitude":"-73.89919","feature_class":"P","feature_code":"PPL","country_code":"CA","cc2":"","admin1_code":"10","admin2_code":"15","admin3_code":"","admin4_code":"","population":"1634","elevation":"","dem":"73","timezone":"America/Toronto","modification_date":"2006-01-22"},{"geonameid":"6138118","name":"Sainte-Thècle","asciiname":"Sainte-Thecle","alternatenames":"snt-tkl  kbk,سنت-تکل، کبک,سین-تھکلے، کیوبک","latitude":"46.81676","longitude":"-72.49911","feature_class":"P","feature_code":"PPL","country_code":"CA","cc2":"","admin1_code":"10","admin2_code":"04","admin3_code":"35050","admin4_code":"","population":"1340","elevation":"","dem":"155","timezone":"America/Toronto","modification_date":"2016-02-23"},{"geonameid":"6138121","name":"Sainte-Thérèse","asciiname":"Sainte-Therese","alternatenames":"","latitude":"45.63922","longitude":"-73.82757","feature_class":"P","feature_code":"PPL","country_code":"CA","cc2":"","admin1_code":"10","admin2_code":"15","admin3_code":"","admin4_code":"","population":"25224","elevation":"","dem":"36","timezone":"America/Toronto","modification_date":"2010-09-23"},{"geonameid":"6138175","name":"Saint-Eustache","asciiname":"Saint-Eustache","alternatenames":"Fanum Sancti Eustachii,Sent Estash,Sent-Ehstash,sant awstash,sn-awstash  kbk,Сент Есташ,Сент-Эсташ,سانت أوستاش,سن-اوستاش، کبک","latitude":"45.565","longitude":"-73.90554","feature_class":"P","feature_code":"PPL","country_code":"CA","cc2":"","admin1_code":"10","admin2_code":"15","admin3_code":"","admin4_code":"","population":"42062","elevation":"","dem":"42","timezone":"America/Toronto","modification_date":"2010-09-22"},{"geonameid":"6138201","name":"Saint-Félicien","asciiname":"Saint-Felicien","alternatenames":"Sen Felisjen,Sen-Felis'en,san fylysyan,sn-flysyn  kbk,Сен Фелисјен,Сен-Фелисьен,Сен-Фелісьєн,سان فيليسيان,سن-فلیسین، کبک,سینٹ-فلیکیں ، کیوبک","latitude":"48.65007","longitude":"-72.44906","feature_class":"P","feature_code":"PPL","country_code":"CA","cc2":"","admin1_code":"10","admin2_code":"02","admin3_code":"91042","admin4_code":"","population":"8088","elevation":"","dem":"111","timezone":"America/Toronto","modification_date":"2016-02-24"},{"geonameid":"6138212","name":"Saint-Félix-de-Valois","asciiname":"Saint-Felix-de-Valois","alternatenames":"","latitude":"46.16677","longitude":"-73.43245","feature_class":"P","feature_code":"PPL","country_code":"CA","cc2":"","admin1_code":"10","admin2_code":"14","admin3_code":"","admin4_code":"","population":"3165","elevation":"","dem":"136","timezone":"America/Toronto","modification_date":"2008-04-11"},{"geonameid":"6138260","name":"Saint-Gabriel","asciiname":"Saint-Gabriel","alternatenames":"","latitude":"46.30007","longitude":"-73.38245","feature_class":"P","feature_code":"PPL","country_code":"CA","cc2":"","admin1_code":"10","admin2_code":"14","admin3_code":"","admin4_code":"","population":"2901","elevation":"","dem":"190","timezone":"America/Toronto","modification_date":"2008-04-11"},{"geonameid":"6138276","name":"Saint-Gédéon","asciiname":"Saint-Gedeon","alternatenames":"","latitude":"48.50009","longitude":"-71.76581","feature_class":"P","feature_code":"PPL","country_code":"CA","cc2":"","admin1_code":"10","admin2_code":"02","admin3_code":"","admin4_code":"","population":"1859","elevation":"","dem":"112","timezone":"America/Toronto","modification_date":"2008-04-11"},{"geonameid":"6138310","name":"Saint-Germain-de-Grantham","asciiname":"Saint-Germain-de-Grantham","alternatenames":"","latitude":"45.83337","longitude":"-72.56582","feature_class":"P","feature_code":"PPL","country_code":"CA","cc2":"","admin1_code":"10","admin2_code":"17","admin3_code":"49048","admin4_code":"","population":"2145","elevation":"","dem":"86","timezone":"America/Toronto","modification_date":"2016-02-23"},{"geonameid":"6138374","name":"Saint-Hyacinthe","asciiname":"Saint-Hyacinthe","alternatenames":"Gorad Sen-Iasent,Sankt-Giacint,Sent Ijasent,Sent-Iasent,XIM,san hyasnt  kybk,sn-ayysnt  kbk,Горад Сен-Іасент,Санкт-Гиацинт,Сент Ијасент,Сент-Іасент,Сент-Иасент,سان هياسنت، كيبك,سن-اییسنت، کبک","latitude":"45.63076","longitude":"-72.95699","feature_class":"P","feature_code":"PPL","country_code":"CA","cc2":"","admin1_code":"10","admin2_code":"16","admin3_code":"","admin4_code":"","population":"50326","elevation":"","dem":"32","timezone":"America/Toronto","modification_date":"2013-08-10"},{"geonameid":"6138413","name":"Saint-Jacques","asciiname":"Saint-Jacques","alternatenames":"","latitude":"45.95007","longitude":"-73.56586","feature_class":"P","feature_code":"PPL","country_code":"CA","cc2":"","admin1_code":"10","admin2_code":"14","admin3_code":"","admin4_code":"","population":"2985","elevation":"","dem":"55","timezone":"America/Toronto","modification_date":"2008-04-11"},{"geonameid":"6138495","name":"Saint-Jean-sur-Richelieu","asciiname":"Saint-Jean-sur-Richelieu","alternatenames":"Saint-Jean-sur-Richelieu,Sen Zhan sir Rishele,Sen-Zhan-sjur-Rishel'e,Sen-Zhan-sjur-Rishel'jo,YJN,san jan swr ryshlyw,sn-zhan-swr-ryshwlyw,Сен Жан сир Ришеље,Сен-Жан-сюр-Ришелье,Сен-Жан-сюр-Рішельйо,سان جان سور ريشليو,سن-ژان-سور-ریشولیو,سینٹ-ژاں -سر-ریچلیو","latitude":"45.30713","longitude":"-73.26259","feature_class":"P","feature_code":"PPL","country_code":"CA","cc2":"","admin1_code":"10","admin2_code":"16","admin3_code":"","admin4_code":"","population":"71613","elevation":"","dem":"32","timezone":"America/Toronto","modification_date":"2013-08-17"},{"geonameid":"6138501","name":"Saint-Jérôme","asciiname":"Saint-Jerome","alternatenames":"Saint-Jerome,Saint-Jérôme,Sen Zherom,Sen-Zherom,san jyrwm,sn-zhrwm  kbk,Сен Жером,Сен-Жером,سان جيروم,سن-ژروم، کبک","latitude":"45.78036","longitude":"-74.00365","feature_class":"P","feature_code":"PPL","country_code":"CA","cc2":"","admin1_code":"10","admin2_code":"15","admin3_code":"","admin4_code":"","population":"54948","elevation":"","dem":"95","timezone":"America/Toronto","modification_date":"2016-01-24"},{"geonameid":"6138517","name":"Saint John","asciiname":"Saint John","alternatenames":"Gorad Sent-Dzhon,Saint John,Saint-Jean,Sejnt Dzhon,Sent DZon,Sent-Dzhon,Urbs Sancti Ioannis Canadensis,YSJ,seinteujon,senta jona,sentcxhn,sentojon,sheng yue han,snt gwn,snt jan,Горад Сент-Джон,Сейнт Джон,Сент Џон,Сент-Джон,סנט גון,سنت جان,سینٹ جان,سینٹ جان، نیو برنسوک,सेंट जॉन,เซนต์จอห์น,სენტ-ჯონი,セントジョン,セント・ジョン,圣约翰,세인트존","latitude":"45.27271","longitude":"-66.06766","feature_class":"P","feature_code":"PPL","country_code":"CA","cc2":"","admin1_code":"04","admin2_code":"","admin3_code":"","admin4_code":"","population":"87857","elevation":"","dem":"5","timezone":"America/Moncton","modification_date":"2013-02-27"},{"geonameid":"6138558","name":"Saint-Joseph-de-Coleraine","asciiname":"Saint-Joseph-de-Coleraine","alternatenames":"","latitude":"45.96677","longitude":"-71.36577","feature_class":"P","feature_code":"PPL","country_code":"CA","cc2":"","admin1_code":"10","admin2_code":"12","admin3_code":"","admin4_code":"","population":"1319","elevation":"","dem":"273","timezone":"America/Toronto","modification_date":"2006-01-22"},{"geonameid":"6138610","name":"Saint-Laurent","asciiname":"Saint-Laurent","alternatenames":"Saint-Laurent,Sen Loran,Sen-Loran,St Laurent,Ville Saint-Laurent,Ville St Laurent,Сен Лоран,Сен-Лоран,سینٹ-لارنٹ، کیوبک","latitude":"45.50008","longitude":"-73.66585","feature_class":"P","feature_code":"PPLX","country_code":"CA","cc2":"","admin1_code":"10","admin2_code":"","admin3_code":"","admin4_code":"","population":"77391","elevation":"","dem":"41","timezone":"America/Toronto","modification_date":"2010-03-11"},{"geonameid":"6138617","name":"Saint-Lazare","asciiname":"Saint-Lazare","alternatenames":"Sen Lazar,san lazar  kybk,sn-lazar  kbk,Сен Лазар,سان لازار، كيبك,سن-لازار، کبک","latitude":"45.40008","longitude":"-74.13256","feature_class":"P","feature_code":"PPL","country_code":"CA","cc2":"","admin1_code":"10","admin2_code":"16","admin3_code":"","admin4_code":"","population":"17016","elevation":"","dem":"56","timezone":"America/Toronto","modification_date":"2010-09-23"},{"geonameid":"6138625","name":"Saint-Léonard","asciiname":"Saint-Leonard","alternatenames":"","latitude":"45.58773","longitude":"-73.59501","feature_class":"P","feature_code":"PPLX","country_code":"CA","cc2":"","admin1_code":"10","admin2_code":"06","admin3_code":"","admin4_code":"","population":"73423","elevation":"","dem":"43","timezone":"America/Toronto","modification_date":"2013-07-18"},{"geonameid":"6138643","name":"Saint-Lin-Laurentides","asciiname":"Saint-Lin-Laurentides","alternatenames":"","latitude":"45.85008","longitude":"-73.76588","feature_class":"P","feature_code":"PPL","country_code":"CA","cc2":"","admin1_code":"10","admin2_code":"14","admin3_code":"","admin4_code":"","population":"14159","elevation":"","dem":"59","timezone":"America/Toronto","modification_date":"2011-10-18"},{"geonameid":"6138719","name":"Saint-Marc-des-Carrières","asciiname":"Saint-Marc-des-Carrieres","alternatenames":"","latitude":"46.68335","longitude":"-72.0491","feature_class":"P","feature_code":"PPL","country_code":"CA","cc2":"","admin1_code":"10","admin2_code":"03","admin3_code":"","admin4_code":"","population":"2358","elevation":"","dem":"47","timezone":"America/Toronto","modification_date":"2008-04-11"},{"geonameid":"6138802","name":"Saint-Michel-des-Saints","asciiname":"Saint-Michel-des-Saints","alternatenames":"","latitude":"46.68338","longitude":"-73.91589","feature_class":"P","feature_code":"PPL","country_code":"CA","cc2":"","admin1_code":"10","admin2_code":"14","admin3_code":"","admin4_code":"","population":"1835","elevation":"","dem":"364","timezone":"America/Toronto","modification_date":"2008-04-11"},{"geonameid":"6138916","name":"Saint-Pie","asciiname":"Saint-Pie","alternatenames":"","latitude":"45.50318","longitude":"-72.90853","feature_class":"P","feature_code":"PPLA3","country_code":"CA","cc2":"","admin1_code":"10","admin2_code":"16","admin3_code":"54008","admin4_code":"","population":"0","elevation":"","dem":"38","timezone":"America/Toronto","modification_date":"2014-03-02"},{"geonameid":"6138980","name":"Saint-Raymond","asciiname":"Saint-Raymond","alternatenames":"Saint-Raymond de Portneuf","latitude":"45.46698","longitude":"-73.60948","feature_class":"P","feature_code":"PPL","country_code":"CA","cc2":"","admin1_code":"10","admin2_code":"","admin3_code":"","admin4_code":"","population":"9273","elevation":"","dem":"50","timezone":"America/Toronto","modification_date":"2013-07-15"},{"geonameid":"6138987","name":"Saint-Rémi","asciiname":"Saint-Remi","alternatenames":"","latitude":"45.26678","longitude":"-73.61588","feature_class":"P","feature_code":"PPL","country_code":"CA","cc2":"","admin1_code":"10","admin2_code":"16","admin3_code":"","admin4_code":"","population":"4192","elevation":"","dem":"55","timezone":"America/Toronto","modification_date":"2008-04-11"},{"geonameid":"6139045","name":"Saint-Sauveur","asciiname":"Saint-Sauveur","alternatenames":"","latitude":"45.88686","longitude":"-74.17943","feature_class":"P","feature_code":"PPL","country_code":"CA","cc2":"","admin1_code":"10","admin2_code":"15","admin3_code":"","admin4_code":"","population":"9191","elevation":"","dem":"254","timezone":"America/Toronto","modification_date":"2011-09-26"},{"geonameid":"6139154","name":"Saint-Tite","asciiname":"Saint-Tite","alternatenames":"Sen Tit,sn-tyt  kbk,Сен Тит,سن-تیت، کبک","latitude":"46.73336","longitude":"-72.56581","feature_class":"P","feature_code":"PPL","country_code":"CA","cc2":"","admin1_code":"10","admin2_code":"04","admin3_code":"35027","admin4_code":"","population":"2456","elevation":"","dem":"134","timezone":"America/Toronto","modification_date":"2016-02-24"},{"geonameid":"6139289","name":"Salaberry-de-Valleyfield","asciiname":"Salaberry-de-Valleyfield","alternatenames":"Salaberi de Valefeld,Salaberri-de-Vallifild,salabry-dw-wlyfyld,salbyry dy falyfyld,Салабери де Валефелд,Салаберри-де-Валлифилд,سالابری-دو-ولیفیلد,سالبيري دي فاليفيلد","latitude":"45.25008","longitude":"-74.13253","feature_class":"P","feature_code":"PPL","country_code":"CA","cc2":"","admin1_code":"10","admin2_code":"16","admin3_code":"","admin4_code":"","population":"38662","elevation":"","dem":"46","timezone":"America/Toronto","modification_date":"2008-04-11"},{"geonameid":"6139354","name":"Salisbury","asciiname":"Salisbury","alternatenames":"","latitude":"46.03905","longitude":"-65.04628","feature_class":"P","feature_code":"PPL","country_code":"CA","cc2":"","admin1_code":"04","admin2_code":"","admin3_code":"","admin4_code":"","population":"1891","elevation":"","dem":"45","timezone":"America/Moncton","modification_date":"2008-04-11"},{"geonameid":"6139413","name":"Salmo","asciiname":"Salmo","alternatenames":"","latitude":"49.19986","longitude":"-117.2689","feature_class":"P","feature_code":"PPL","country_code":"CA","cc2":"","admin1_code":"02","admin2_code":"","admin3_code":"","admin4_code":"","population":"1125","elevation":"","dem":"665","timezone":"America/Vancouver","modification_date":"2008-04-11"},{"geonameid":"6139416","name":"Salmon Arm","asciiname":"Salmon Arm","alternatenames":"Sehlmon-Arm,YSN,Сэлмон-Арм","latitude":"50.6998","longitude":"-119.30237","feature_class":"P","feature_code":"PPL","country_code":"CA","cc2":"","admin1_code":"02","admin2_code":"","admin3_code":"","admin4_code":"","population":"16205","elevation":"","dem":"347","timezone":"America/Vancouver","modification_date":"2008-05-13"},{"geonameid":"6141190","name":"Sarnia","asciiname":"Sarnia","alternatenames":"Gorad Sarnija,Sarnia,Sarnija,YZR,carniya,sa ni ya shi,sania,sarnya,Горад Сарнія,Сарния,Сарнија,Сарнія,سارنيا,سارنیا,سارنیہ,சார்னியா,サーニア,薩尼亞市,사니아","latitude":"42.97866","longitude":"-82.40407","feature_class":"P","feature_code":"PPL","country_code":"CA","cc2":"","admin1_code":"08","admin2_code":"6049019","admin3_code":"","admin4_code":"","population":"82998","elevation":"","dem":"185","timezone":"America/Toronto","modification_date":"2014-11-30"},{"geonameid":"6141256","name":"Saskatoon","asciiname":"Saskatoon","alternatenames":"Gorad Saskatun,Saskatoon,Saskatoun,Saskatun,Saskatuna,Saskatunas,Saskatuno,Saskatūna,Saskatūnas,YXE,caskatun,sa si ka tong,saeseukeotun,saskatuna,saskatwn,sasukato~un,ssqtwn,Σασκατούν,Горад Саскатун,Саскатун,Սասկատուն,ססקטון,ساسكاتون,ساسکاتون,ساسکاٹون,सास्काटून,சாஸ்கடூன்,სასკატუნი,サスカトゥーン,萨斯卡通,새스커툰","latitude":"52.11679","longitude":"-106.63452","feature_class":"P","feature_code":"PPL","country_code":"CA","cc2":"","admin1_code":"11","admin2_code":"","admin3_code":"","admin4_code":"","population":"198958","elevation":"","dem":"501","timezone":"America/Regina","modification_date":"2010-01-29"},{"geonameid":"6141439","name":"Sault Ste. Marie","asciiname":"Sault Ste. Marie","alternatenames":"Sault Sainte Marie,Sault Ste. Marie,Sault-Sainte-Marie,Su Sent Mari,Su-Sent-Mari,YAM,su sent ma ri,su sheng ma li,suseinteumali,susentomari,sw saynt mary,Су Сент Мари,Су-Сент-Мари,Су-Сент-Марі,سالٹ سٹی ماری,سو ساينت ماري,سو سنت‌ماری,سو سینت ماری، انٹاریو,ซูเซนต์มารี,სუ-სენტ-მარი,スーセントマリー,蘇聖瑪麗,수세인트마리","latitude":"46.51677","longitude":"-84.33325","feature_class":"P","feature_code":"PPLA2","country_code":"CA","cc2":"","admin1_code":"08","admin2_code":"5883638","admin3_code":"","admin4_code":"","population":"74948","elevation":"","dem":"186","timezone":"America/Toronto","modification_date":"2013-11-02"},{"geonameid":"6143367","name":"Sechelt","asciiname":"Sechelt","alternatenames":"YHS","latitude":"49.47512","longitude":"-123.75903","feature_class":"P","feature_code":"PPL","country_code":"CA","cc2":"","admin1_code":"02","admin2_code":"5929","admin3_code":"","admin4_code":"","population":"5977","elevation":"","dem":"10","timezone":"America/Vancouver","modification_date":"2013-09-23"},{"geonameid":"6144054","name":"Selkirk","asciiname":"Selkirk","alternatenames":"Selkirk,slkrk,Селкирк,Селкірк,سل کرک، مینی ٹوبا,سلکرک","latitude":"50.1436","longitude":"-96.88452","feature_class":"P","feature_code":"PPL","country_code":"CA","cc2":"","admin1_code":"03","admin2_code":"","admin3_code":"","admin4_code":"","population":"9653","elevation":"","dem":"227","timezone":"America/Winnipeg","modification_date":"2008-04-11"},{"geonameid":"6144195","name":"Senneterre","asciiname":"Senneterre","alternatenames":"Senneterre,XFK","latitude":"48.39302","longitude":"-77.23951","feature_class":"P","feature_code":"PPL","country_code":"CA","cc2":"","admin1_code":"10","admin2_code":"08","admin3_code":"89040","admin4_code":"","population":"3228","elevation":"","dem":"314","timezone":"America/Toronto","modification_date":"2015-08-29"},{"geonameid":"6144312","name":"Sept-Îles","asciiname":"Sept-Iles","alternatenames":"Set Il,Set-Il',YZV,sat ayl,st-ayl  kbk,Сет Ил,Сет-Іль,Сет-Иль,سات إيل,ست-ایل، کبک","latitude":"50.20011","longitude":"-66.38208","feature_class":"P","feature_code":"PPL","country_code":"CA","cc2":"","admin1_code":"10","admin2_code":"09","admin3_code":"","admin4_code":"","population":"22582","elevation":"","dem":"5","timezone":"America/Toronto","modification_date":"2013-04-05"},{"geonameid":"6144602","name":"Sexsmith","asciiname":"Sexsmith","alternatenames":"Seksmit,Сексмит","latitude":"55.34998","longitude":"-118.78602","feature_class":"P","feature_code":"PPL","country_code":"CA","cc2":"","admin1_code":"01","admin2_code":"","admin3_code":"","admin4_code":"","population":"1743","elevation":"","dem":"719","timezone":"America/Edmonton","modification_date":"2008-04-11"},{"geonameid":"6145425","name":"Shaunavon","asciiname":"Shaunavon","alternatenames":"","latitude":"49.65005","longitude":"-108.4181","feature_class":"P","feature_code":"PPL","country_code":"CA","cc2":"","admin1_code":"11","admin2_code":"","admin3_code":"","admin4_code":"","population":"1658","elevation":"","dem":"916","timezone":"America/Regina","modification_date":"2008-04-11"},{"geonameid":"6145489","name":"Shawinigan","asciiname":"Shawinigan","alternatenames":"Shavinigan,XFL,shau~inigan,shawynygan,shawynyghan,Шавиниган,شاوينيغان,شاوینیگان,シャウィニガン","latitude":"46.56675","longitude":"-72.74913","feature_class":"P","feature_code":"PPLA3","country_code":"CA","cc2":"","admin1_code":"10","admin2_code":"04","admin3_code":"","admin4_code":"","population":"49161","elevation":"","dem":"123","timezone":"America/Toronto","modification_date":"2016-02-23"},{"geonameid":"6145563","name":"Shawville","asciiname":"Shawville","alternatenames":"","latitude":"45.60011","longitude":"-76.4827","feature_class":"P","feature_code":"PPL","country_code":"CA","cc2":"","admin1_code":"10","admin2_code":"07","admin3_code":"","admin4_code":"","population":"1608","elevation":"","dem":"159","timezone":"America/Toronto","modification_date":"2008-04-11"},{"geonameid":"6145668","name":"Shediac","asciiname":"Shediac","alternatenames":"Shed'jak,Shediac,Shédiac,Шедьяк","latitude":"46.21981","longitude":"-64.54107","feature_class":"P","feature_code":"PPL","country_code":"CA","cc2":"","admin1_code":"04","admin2_code":"","admin3_code":"","admin4_code":"","population":"4735","elevation":"","dem":"16","timezone":"America/Moncton","modification_date":"2008-07-25"},{"geonameid":"6145887","name":"Shelburne","asciiname":"Shelburne","alternatenames":"shlbrn  nwa askwshya,شلبرن، نوا اسکوشیا","latitude":"43.76325","longitude":"-65.32355","feature_class":"P","feature_code":"PPL","country_code":"CA","cc2":"","admin1_code":"07","admin2_code":"","admin3_code":"","admin4_code":"","population":"1939","elevation":"","dem":"10","timezone":"America/Halifax","modification_date":"2014-12-28"},{"geonameid":"6145890","name":"Shelburne","asciiname":"Shelburne","alternatenames":"Shelbern,Шелберн","latitude":"44.0787","longitude":"-80.20408","feature_class":"P","feature_code":"PPL","country_code":"CA","cc2":"","admin1_code":"08","admin2_code":"","admin3_code":"","admin4_code":"","population":"4390","elevation":"","dem":"497","timezone":"America/Toronto","modification_date":"2008-04-11"},{"geonameid":"6145951","name":"Shellbrook","asciiname":"Shellbrook","alternatenames":"","latitude":"53.21679","longitude":"-106.40109","feature_class":"P","feature_code":"PPL","country_code":"CA","cc2":"","admin1_code":"11","admin2_code":"","admin3_code":"","admin4_code":"","population":"1192","elevation":"","dem":"494","timezone":"America/Regina","modification_date":"2008-04-11"},{"geonameid":"6146143","name":"Sherbrooke","asciiname":"Sherbrooke","alternatenames":"Gorad Shehrbruk,Serbrukas,Sherbruk,YSC,she bu lu,she bu lu ke,sheruburukku,shrbrwk,shyrbrwk,syeleubeulukeu,Šerbrukas,Горад Шэрбрук,Шербрук,شربروک,شيربروك,شیربروک,შერბრუკი,シェルブルック,舍布碌,舍布魯克,셰르브루크","latitude":"45.40008","longitude":"-71.89908","feature_class":"P","feature_code":"PPL","country_code":"CA","cc2":"","admin1_code":"10","admin2_code":"05","admin3_code":"","admin4_code":"","population":"129447","elevation":"","dem":"175","timezone":"America/Toronto","modification_date":"2010-01-29"},{"geonameid":"6146279","name":"Sherwood Park","asciiname":"Sherwood Park","alternatenames":"Shervud Park,Шервуд Парк","latitude":"53.51684","longitude":"-113.3187","feature_class":"P","feature_code":"PPL","country_code":"CA","cc2":"","admin1_code":"01","admin2_code":"","admin3_code":"","admin4_code":"","population":"55063","elevation":"729","dem":"722","timezone":"America/Edmonton","modification_date":"2007-02-13"},{"geonameid":"6147353","name":"Sicamous","asciiname":"Sicamous","alternatenames":"","latitude":"50.83312","longitude":"-118.98565","feature_class":"P","feature_code":"PPL","country_code":"CA","cc2":"","admin1_code":"02","admin2_code":"","admin3_code":"","admin4_code":"","population":"2732","elevation":"","dem":"355","timezone":"America/Vancouver","modification_date":"2008-04-11"},{"geonameid":"6149374","name":"Slave Lake","asciiname":"Slave Lake","alternatenames":"Slejv Lejk,YZH,Слејв Лејк","latitude":"55.28344","longitude":"-114.76896","feature_class":"P","feature_code":"PPL","country_code":"CA","cc2":"","admin1_code":"01","admin2_code":"","admin3_code":"","admin4_code":"","population":"7661","elevation":"","dem":"583","timezone":"America/Edmonton","modification_date":"2008-04-11"},{"geonameid":"6149996","name":"Smithers","asciiname":"Smithers","alternatenames":"YYD,smydhrz,سميذرز","latitude":"54.78036","longitude":"-127.17428","feature_class":"P","feature_code":"PPL","country_code":"CA","cc2":"","admin1_code":"02","admin2_code":"","admin3_code":"","admin4_code":"","population":"5438","elevation":"","dem":"494","timezone":"America/Vancouver","modification_date":"2008-04-11"},{"geonameid":"6150174","name":"Smiths Falls","asciiname":"Smiths Falls","alternatenames":"Smiths Falls,YSH","latitude":"44.90452","longitude":"-76.02333","feature_class":"P","feature_code":"PPL","country_code":"CA","cc2":"","admin1_code":"08","admin2_code":"6049130","admin3_code":"","admin4_code":"","population":"10553","elevation":"","dem":"131","timezone":"America/Toronto","modification_date":"2013-10-06"},{"geonameid":"6150293","name":"Smoky Lake","asciiname":"Smoky Lake","alternatenames":"","latitude":"54.11687","longitude":"-112.46863","feature_class":"P","feature_code":"PPL","country_code":"CA","cc2":"","admin1_code":"01","admin2_code":"","admin3_code":"","admin4_code":"","population":"1063","elevation":"","dem":"618","timezone":"America/Edmonton","modification_date":"2008-04-11"},{"geonameid":"6151264","name":"Sooke","asciiname":"Sooke","alternatenames":"","latitude":"48.37463","longitude":"-123.72762","feature_class":"P","feature_code":"PPL","country_code":"CA","cc2":"","admin1_code":"02","admin2_code":"","admin3_code":"","admin4_code":"","population":"6145","elevation":"","dem":"39","timezone":"America/Vancouver","modification_date":"2008-04-11"},{"geonameid":"6151352","name":"Sorel-Tracy","asciiname":"Sorel-Tracy","alternatenames":"Sorel,Sorel Trasi,Sorel'-Trasi,Sorel'-Trehsi,Sorel'-Trejsi,swrl-trasy,swryl-trysy,Сорел Траси,Сорель-Трасі,Сорель-Трейси,Сорель-Трэси,سورل-تراسی,سوريل-تريسي","latitude":"46.03336","longitude":"-73.11585","feature_class":"P","feature_code":"PPL","country_code":"CA","cc2":"","admin1_code":"10","admin2_code":"16","admin3_code":"","admin4_code":"","population":"33591","elevation":"","dem":"15","timezone":"America/Toronto","modification_date":"2010-01-29"},{"geonameid":"6151455","name":"Souris","asciiname":"Souris","alternatenames":"Suris,Сурис","latitude":"46.3501","longitude":"-62.24862","feature_class":"P","feature_code":"PPL","country_code":"CA","cc2":"","admin1_code":"09","admin2_code":"","admin3_code":"","admin4_code":"","population":"1284","elevation":"","dem":"8","timezone":"America/Halifax","modification_date":"2008-04-11"},{"geonameid":"6151456","name":"Souris","asciiname":"Souris","alternatenames":"","latitude":"49.6172","longitude":"-100.2612","feature_class":"P","feature_code":"PPL","country_code":"CA","cc2":"","admin1_code":"03","admin2_code":"","admin3_code":"","admin4_code":"","population":"1752","elevation":"","dem":"428","timezone":"America/Winnipeg","modification_date":"2008-04-11"},{"geonameid":"6152244","name":"South Huron","asciiname":"South Huron","alternatenames":"","latitude":"43.31679","longitude":"-81.51647","feature_class":"P","feature_code":"PPL","country_code":"CA","cc2":"","admin1_code":"08","admin2_code":"","admin3_code":"","admin4_code":"","population":"9982","elevation":"","dem":"246","timezone":"America/Toronto","modification_date":"2013-05-05"},{"geonameid":"6152561","name":"South River","asciiname":"South River","alternatenames":"","latitude":"45.8334","longitude":"-79.38293","feature_class":"P","feature_code":"PPL","country_code":"CA","cc2":"","admin1_code":"08","admin2_code":"","admin3_code":"","admin4_code":"","population":"1193","elevation":"","dem":"369","timezone":"America/Toronto","modification_date":"2008-04-11"},{"geonameid":"6153250","name":"Sparwood","asciiname":"Sparwood","alternatenames":"","latitude":"49.73332","longitude":"-114.88532","feature_class":"P","feature_code":"PPL","country_code":"CA","cc2":"","admin1_code":"02","admin2_code":"","admin3_code":"","admin4_code":"","population":"3667","elevation":"","dem":"1140","timezone":"America/Edmonton","modification_date":"2012-08-15"},{"geonameid":"6153766","name":"Spirit River","asciiname":"Spirit River","alternatenames":"","latitude":"55.78327","longitude":"-118.83607","feature_class":"P","feature_code":"PPL","country_code":"CA","cc2":"","admin1_code":"01","admin2_code":"","admin3_code":"","admin4_code":"","population":"1157","elevation":"","dem":"616","timezone":"America/Edmonton","modification_date":"2008-04-11"},{"geonameid":"6154202","name":"Springhill","asciiname":"Springhill","alternatenames":"","latitude":"45.65015","longitude":"-64.04873","feature_class":"P","feature_code":"PPL","country_code":"CA","cc2":"","admin1_code":"07","admin2_code":"","admin3_code":"","admin4_code":"","population":"3940","elevation":"","dem":"192","timezone":"America/Halifax","modification_date":"2008-04-11"},{"geonameid":"6154383","name":"Spruce Grove","asciiname":"Spruce Grove","alternatenames":"Spras Grouvas,Sprus Grouv,Sprus-Grouv,Spryus-Qruv,asprws grww,sbrws ghrwwf,si pu lu si ge luo fu,sprws grww,Спрус Гроув,Спрус-Гроув,اسپروس گروو,سبروس غرووف,سپروس گروو,斯普鲁斯格罗夫","latitude":"53.53344","longitude":"-113.91874","feature_class":"P","feature_code":"PPL","country_code":"CA","cc2":"","admin1_code":"01","admin2_code":"","admin3_code":"","admin4_code":"","population":"17767","elevation":"","dem":"704","timezone":"America/Edmonton","modification_date":"2008-04-11"},{"geonameid":"6155033","name":"St. Albert","asciiname":"St. Albert","alternatenames":"Saint Albert,Saint-Albert,Sen Alberas,Sent Albert,sant albrt,seinteuaelbeoteu,sheng ai bo te,snt albrt,Сент Алберт,سانت ألبرت,سنت آلبرت,سینٹ البرٹ,سینٹ البرٹ، البرٹا,სენტ-ალბერტი,圣艾伯特,세인트앨버트","latitude":"53.63344","longitude":"-113.63533","feature_class":"P","feature_code":"PPL","country_code":"CA","cc2":"","admin1_code":"01","admin2_code":"","admin3_code":"","admin4_code":"","population":"57719","elevation":"","dem":"663","timezone":"America/Edmonton","modification_date":"2010-09-22"},{"geonameid":"6155721","name":"St. Catharines","asciiname":"St. Catharines","alternatenames":"Gorad Sent-Kataryns,Saint Catharines,Sankta Katarino,Sent Katerinsas,Sent Ketrins,Sent-Katarins,Sent-Keterins,St. Catharines,YCM,sant kathrynz,seinteukaeseolinseu,sentokyasarinzu,sheng kai se lin si,snt katrynz  antaryw,Горад Сент-Катарынс,Сент Кетринс,Сент-Катаринс,Сент-Кетерінс,Սենթ Քաթարինս,سانت كاثرينز,سنت کاترینز، انتاریو,سینٹ کیتھرائنز,เซนต์แคเทอรีนส์,სენტ-კატარინსი,セントキャサリンズ,圣凯瑟琳斯,세인트캐서린스","latitude":"43.17126","longitude":"-79.24267","feature_class":"P","feature_code":"PPL","country_code":"CA","cc2":"","admin1_code":"08","admin2_code":"6087883","admin3_code":"","admin4_code":"","population":"131989","elevation":"","dem":"102","timezone":"America/Toronto","modification_date":"2015-06-04"},{"geonameid":"6156102","name":"Steinbach","asciiname":"Steinbach","alternatenames":"Stajnbak,Stajnbek,si tan ba ke,Стайнбак,Стайнбек,Стајнбак,سٹین بیچ، مانیٹوبا,سٹینباخ,斯坦巴克","latitude":"49.52579","longitude":"-96.68451","feature_class":"P","feature_code":"PPL","country_code":"CA","cc2":"","admin1_code":"03","admin2_code":"","admin3_code":"","admin4_code":"","population":"9607","elevation":"","dem":"263","timezone":"America/Winnipeg","modification_date":"2008-04-11"},{"geonameid":"6156244","name":"Stephenville","asciiname":"Stephenville","alternatenames":"YJT","latitude":"48.55001","longitude":"-58.5818","feature_class":"P","feature_code":"PPL","country_code":"CA","cc2":"","admin1_code":"05","admin2_code":"","admin3_code":"","admin4_code":"","population":"6278","elevation":"","dem":"15","timezone":"America/St_Johns","modification_date":"2008-04-11"},{"geonameid":"6156245","name":"Stephenville Crossing","asciiname":"Stephenville Crossing","alternatenames":"","latitude":"48.50001","longitude":"-58.4318","feature_class":"P","feature_code":"PPL","country_code":"CA","cc2":"","admin1_code":"05","admin2_code":"","admin3_code":"","admin4_code":"","population":"1183","elevation":"","dem":"-9999","timezone":"America/St_Johns","modification_date":"2008-04-11"},{"geonameid":"6156307","name":"Stettler","asciiname":"Stettler","alternatenames":"Stetler,Стетлер","latitude":"52.31683","longitude":"-112.71861","feature_class":"P","feature_code":"PPL","country_code":"CA","cc2":"","admin1_code":"01","admin2_code":"","admin3_code":"","admin4_code":"","population":"5494","elevation":"","dem":"814","timezone":"America/Edmonton","modification_date":"2008-04-11"},{"geonameid":"6157355","name":"Stonewall","asciiname":"Stonewall","alternatenames":"Stounvol,Стоунвол","latitude":"50.13441","longitude":"-97.32676","feature_class":"P","feature_code":"PPL","country_code":"CA","cc2":"","admin1_code":"03","admin2_code":"","admin3_code":"","admin4_code":"","population":"4177","elevation":"","dem":"256","timezone":"America/Winnipeg","modification_date":"2008-04-11"},{"geonameid":"6157536","name":"Stony Plain","asciiname":"Stony Plain","alternatenames":"Stoni Plejn,si tuo ni pu lai en,Стони Плејн,斯托尼普莱恩","latitude":"53.53343","longitude":"-114.00205","feature_class":"P","feature_code":"PPL","country_code":"CA","cc2":"","admin1_code":"01","admin2_code":"","admin3_code":"","admin4_code":"","population":"8939","elevation":"","dem":"705","timezone":"America/Edmonton","modification_date":"2008-04-11"},{"geonameid":"6157977","name":"Stratford","asciiname":"Stratford","alternatenames":"Stratford,Stretford,astratfwrd  antaryw,seuteulaespeodeu,si te la te fu,startfwrd,sutoratofodo,Стратфорд,Стретфорд,استراتفورد، انتاریو,ستارتفورد,سٹارٹ فورڈ,ストラトフォード,斯特拉特福,스트랫퍼드","latitude":"43.36679","longitude":"-80.94972","feature_class":"P","feature_code":"PPL","country_code":"CA","cc2":"","admin1_code":"08","admin2_code":"","admin3_code":"","admin4_code":"","population":"30233","elevation":"","dem":"365","timezone":"America/Toronto","modification_date":"2010-01-29"},{"geonameid":"6158023","name":"Strathmore","asciiname":"Strathmore","alternatenames":"Stratmor,Стратмор","latitude":"51.05011","longitude":"-113.38523","feature_class":"P","feature_code":"PPL","country_code":"CA","cc2":"","admin1_code":"01","admin2_code":"","admin3_code":"","admin4_code":"","population":"10009","elevation":"","dem":"976","timezone":"America/Edmonton","modification_date":"2008-04-11"},{"geonameid":"6158357","name":"St. Thomas","asciiname":"St. Thomas","alternatenames":"Saint Thomas,Sent Tomas,St. Thomas,YQS,sant twmas,sentotomasu,sheng tang ma shi,snt twmas  antaryw,Сент Томас,سانت توماس,سنت توماس، انتاریو,سینٹ تھامس,سینٹ تھامس، اونٹاریو,セントトーマス,聖湯瑪士","latitude":"42.77361","longitude":"-81.18038","feature_class":"P","feature_code":"PPL","country_code":"CA","cc2":"","admin1_code":"08","admin2_code":"","admin3_code":"","admin4_code":"","population":"36110","elevation":"","dem":"232","timezone":"America/Toronto","modification_date":"2013-10-06"},{"geonameid":"6159232","name":"Summerland","asciiname":"Summerland","alternatenames":"","latitude":"49.59977","longitude":"-119.66911","feature_class":"P","feature_code":"PPL","country_code":"CA","cc2":"","admin1_code":"02","admin2_code":"","admin3_code":"","admin4_code":"","population":"6292","elevation":"","dem":"475","timezone":"America/Vancouver","modification_date":"2008-04-11"},{"geonameid":"6159244","name":"Summerside","asciiname":"Summerside","alternatenames":"Samersajd,YSU,sa mo sai de,samrsayd,Самерсајд,سامرساید,萨默赛德","latitude":"46.39593","longitude":"-63.78762","feature_class":"P","feature_code":"PPL","country_code":"CA","cc2":"","admin1_code":"09","admin2_code":"","admin3_code":"","admin4_code":"","population":"14808","elevation":"","dem":"16","timezone":"America/Halifax","modification_date":"2008-04-11"},{"geonameid":"6159474","name":"Sundre","asciiname":"Sundre","alternatenames":"","latitude":"51.8001","longitude":"-114.63532","feature_class":"P","feature_code":"PPL","country_code":"CA","cc2":"","admin1_code":"01","admin2_code":"","admin3_code":"","admin4_code":"","population":"2384","elevation":"","dem":"1089","timezone":"America/Edmonton","modification_date":"2008-04-11"},{"geonameid":"6159905","name":"Surrey","asciiname":"Surrey","alternatenames":"Sari,Suri,Surrej,sare,seoli,su li,swry,swry  kwlwmbya albrytanyt,Сари,Суррей,Съри,סארי,سوري، كولومبيا البريطانية,سوری,サレー,素里,서리","latitude":"49.10635","longitude":"-122.82509","feature_class":"P","feature_code":"PPL","country_code":"CA","cc2":"","admin1_code":"02","admin2_code":"","admin3_code":"","admin4_code":"","population":"394976","elevation":"","dem":"82","timezone":"America/Vancouver","modification_date":"2010-09-22"},{"geonameid":"6159980","name":"Sussex","asciiname":"Sussex","alternatenames":"","latitude":"45.72266","longitude":"-65.50663","feature_class":"P","feature_code":"PPL","country_code":"CA","cc2":"","admin1_code":"04","admin2_code":"","admin3_code":"","admin4_code":"","population":"4048","elevation":"","dem":"23","timezone":"America/Moncton","modification_date":"2008-04-11"},{"geonameid":"6160070","name":"Sutton","asciiname":"Sutton","alternatenames":"","latitude":"45.10008","longitude":"-72.61582","feature_class":"P","feature_code":"PPL","country_code":"CA","cc2":"","admin1_code":"10","admin2_code":"16","admin3_code":"","admin4_code":"","population":"3805","elevation":"","dem":"176","timezone":"America/Toronto","modification_date":"2010-09-23"},{"geonameid":"6160291","name":"Swan Hills","asciiname":"Swan Hills","alternatenames":"","latitude":"54.71681","longitude":"-115.40226","feature_class":"P","feature_code":"PPL","country_code":"CA","cc2":"","admin1_code":"01","admin2_code":"","admin3_code":"","admin4_code":"","population":"1900","elevation":"","dem":"1139","timezone":"America/Edmonton","modification_date":"2008-04-11"},{"geonameid":"6160362","name":"Swan River","asciiname":"Swan River","alternatenames":"Svon River,ZJN,tian e he,Свон Ривер,天鹅河","latitude":"52.1058","longitude":"-101.26759","feature_class":"P","feature_code":"PPL","country_code":"CA","cc2":"","admin1_code":"03","admin2_code":"","admin3_code":"","admin4_code":"","population":"4198","elevation":"","dem":"340","timezone":"America/Winnipeg","modification_date":"2008-04-11"},{"geonameid":"6160603","name":"Swift Current","asciiname":"Swift Current","alternatenames":"Svift Karent,Svift-Kerrent,YYN,si wei fu te ka lun te,swyft kwrnt,Свифт Карент,Свіфт-Керрент,سويفت كورنت,斯威夫特卡伦特","latitude":"50.28337","longitude":"-107.80135","feature_class":"P","feature_code":"PPL","country_code":"CA","cc2":"","admin1_code":"11","admin2_code":"","admin3_code":"","admin4_code":"","population":"14703","elevation":"","dem":"742","timezone":"America/Swift_Current","modification_date":"2008-04-11"},{"geonameid":"6160806","name":"Sylvan Lake","asciiname":"Sylvan Lake","alternatenames":"Silvan Lejk,Силван Лејк","latitude":"52.31681","longitude":"-114.0853","feature_class":"P","feature_code":"PPL","country_code":"CA","cc2":"","admin1_code":"01","admin2_code":"","admin3_code":"","admin4_code":"","population":"10518","elevation":"","dem":"933","timezone":"America/Edmonton","modification_date":"2008-04-11"},{"geonameid":"6160919","name":"Taber","asciiname":"Taber","alternatenames":"Tejber,Тејбер","latitude":"49.78703","longitude":"-112.14603","feature_class":"P","feature_code":"PPL","country_code":"CA","cc2":"","admin1_code":"01","admin2_code":"","admin3_code":"","admin4_code":"","population":"8163","elevation":"","dem":"813","timezone":"America/Edmonton","modification_date":"2012-07-24"},{"geonameid":"6162654","name":"Témiscaming","asciiname":"Temiscaming","alternatenames":"Temiskaming,tmyskamng  kbk,Темискаминг,تمیسکامنگ، کبک","latitude":"46.72122","longitude":"-79.09712","feature_class":"P","feature_code":"PPL","country_code":"CA","cc2":"","admin1_code":"10","admin2_code":"08","admin3_code":"","admin4_code":"","population":"1854","elevation":"","dem":"240","timezone":"America/Toronto","modification_date":"2008-04-11"},{"geonameid":"6162659","name":"Temiskaming Shores","asciiname":"Temiskaming Shores","alternatenames":"New Liskeard,Temiskaming Shors,di mi si ka ming hu an shi,timisukamingushoazu,tymyskymynj shwrz,Темискаминг Шорс,تيميسكيمينج شورز,ٹیمسکامنگ شورز,ティミスカミングショアーズ,蒂米斯卡明湖岸市","latitude":"47.49376","longitude":"-79.71529","feature_class":"P","feature_code":"PPL","country_code":"CA","cc2":"","admin1_code":"08","admin2_code":"","admin3_code":"","admin4_code":"","population":"10442","elevation":"","dem":"248","timezone":"America/Toronto","modification_date":"2010-09-22"},{"geonameid":"6162949","name":"Terrace","asciiname":"Terrace","alternatenames":"Teras,YXT,tyras,Терас,تيراس,ٹیریس، برٹش کولمبیا","latitude":"54.51634","longitude":"-128.60345","feature_class":"P","feature_code":"PPL","country_code":"CA","cc2":"","admin1_code":"02","admin2_code":"","admin3_code":"","admin4_code":"","population":"19443","elevation":"","dem":"70","timezone":"America/Vancouver","modification_date":"2006-01-22"},{"geonameid":"6163012","name":"Terrebonne","asciiname":"Terrebonne","alternatenames":"Terbon,trbwn  kbk,tyrbwn,Тербон,تربون، کبک,تيربون","latitude":"45.70004","longitude":"-73.64732","feature_class":"P","feature_code":"PPL","country_code":"CA","cc2":"","admin1_code":"10","admin2_code":"14","admin3_code":"","admin4_code":"","population":"94703","elevation":"","dem":"18","timezone":"America/Toronto","modification_date":"2010-09-22"},{"geonameid":"6164499","name":"The Pas","asciiname":"The Pas","alternatenames":"De Pa,De-Pa,Le Pas,The Pas,YQD,Де Па,Де-Па,دی پاس، مینی ٹوبا","latitude":"53.82509","longitude":"-101.25413","feature_class":"P","feature_code":"PPL","country_code":"CA","cc2":"","admin1_code":"03","admin2_code":"","admin3_code":"","admin4_code":"","population":"6055","elevation":"","dem":"267","timezone":"America/Winnipeg","modification_date":"2013-09-23"},{"geonameid":"6164831","name":"Thessalon","asciiname":"Thessalon","alternatenames":"","latitude":"46.25006","longitude":"-83.5666","feature_class":"P","feature_code":"PPL","country_code":"CA","cc2":"","admin1_code":"08","admin2_code":"","admin3_code":"","admin4_code":"","population":"1464","elevation":"","dem":"175","timezone":"America/Toronto","modification_date":"2008-04-11"},{"geonameid":"6165406","name":"Thompson","asciiname":"Thompson","alternatenames":"Tompson,YTH,tang pu sen,twmbswn,Томпсон,تومبسون,تھامپسن، مینی ٹوبا,تھومپسن,汤普森","latitude":"55.7435","longitude":"-97.85579","feature_class":"P","feature_code":"PPL","country_code":"CA","cc2":"","admin1_code":"03","admin2_code":"","admin3_code":"","admin4_code":"","population":"12467","elevation":"","dem":"205","timezone":"America/Winnipeg","modification_date":"2008-04-11"},{"geonameid":"6165719","name":"Thorold","asciiname":"Thorold","alternatenames":"Torold,sororudo,thwrwld,Торолд,تھورولڈ,ثورولد,ソロルド","latitude":"43.11682","longitude":"-79.19958","feature_class":"P","feature_code":"PPL","country_code":"CA","cc2":"","admin1_code":"08","admin2_code":"","admin3_code":"","admin4_code":"","population":"18224","elevation":"","dem":"178","timezone":"America/Toronto","modification_date":"2010-09-22"},{"geonameid":"6165875","name":"Three Hills","asciiname":"Three Hills","alternatenames":"","latitude":"51.70012","longitude":"-113.26863","feature_class":"P","feature_code":"PPL","country_code":"CA","cc2":"","admin1_code":"01","admin2_code":"","admin3_code":"","admin4_code":"","population":"3051","elevation":"","dem":"897","timezone":"America/Edmonton","modification_date":"2008-04-11"},{"geonameid":"6166142","name":"Thunder Bay","asciiname":"Thunder Bay","alternatenames":"Tander Bej,Tander Bejus,Tander Bėjus,Tander-Bej,Thunder Bay,Tundurbej,YQT,sandabei,sang de bei,seondeobei,thandr bay,thandr by,Тандер Беј,Тандер-Бей,Тъндърбей,תאנדר ביי,تھنڈر بے,تھنڈربے، انٹاریو,ثاندر باي,ثاندر بی,തണ്ടർ ബേ,サンダーベイ,桑德贝,선더베이","latitude":"48.38202","longitude":"-89.25018","feature_class":"P","feature_code":"PPL","country_code":"CA","cc2":"","admin1_code":"08","admin2_code":"6166139","admin3_code":"","admin4_code":"","population":"99334","elevation":"","dem":"188","timezone":"America/Thunder_Bay","modification_date":"2013-10-06"},{"geonameid":"6166224","name":"Thurso","asciiname":"Thurso","alternatenames":"","latitude":"45.6001","longitude":"-75.24931","feature_class":"P","feature_code":"PPL","country_code":"CA","cc2":"","admin1_code":"10","admin2_code":"07","admin3_code":"","admin4_code":"","population":"2476","elevation":"","dem":"55","timezone":"America/Toronto","modification_date":"2008-04-11"},{"geonameid":"6166739","name":"Timmins","asciiname":"Timmins","alternatenames":"Timins,Timmins,YTS,di ming si,timinseu,timinzu,tymyns,tymyns  antaryw,tymynz,Тиминс,Тіммінс,טימינס,تيمينز,تیمینس، انتاریو,ٹیمنز,ティミンズ,蒂明斯,티민스","latitude":"48.46686","longitude":"-81.33312","feature_class":"P","feature_code":"PPL","country_code":"CA","cc2":"","admin1_code":"08","admin2_code":"","admin3_code":"","admin4_code":"","population":"42997","elevation":"","dem":"301","timezone":"America/Toronto","modification_date":"2010-09-22"},{"geonameid":"6166987","name":"Tisdale","asciiname":"Tisdale","alternatenames":"YTT","latitude":"52.85002","longitude":"-104.05096","feature_class":"P","feature_code":"PPL","country_code":"CA","cc2":"","admin1_code":"11","admin2_code":"","admin3_code":"","admin4_code":"","population":"2862","elevation":"","dem":"448","timezone":"America/Regina","modification_date":"2008-04-11"},{"geonameid":"6167125","name":"Tobermory","asciiname":"Tobermory","alternatenames":"","latitude":"45.25007","longitude":"-81.66647","feature_class":"P","feature_code":"PPL","country_code":"CA","cc2":"","admin1_code":"08","admin2_code":"","admin3_code":"","admin4_code":"","population":"1427","elevation":"","dem":"192","timezone":"America/Toronto","modification_date":"2012-01-31"},{"geonameid":"6167254","name":"Tofield","asciiname":"Tofield","alternatenames":"","latitude":"53.36684","longitude":"-112.66862","feature_class":"P","feature_code":"PPL","country_code":"CA","cc2":"","admin1_code":"01","admin2_code":"","admin3_code":"","admin4_code":"","population":"1911","elevation":"","dem":"697","timezone":"America/Edmonton","modification_date":"2008-04-11"},{"geonameid":"6167817","name":"Torbay","asciiname":"Torbay","alternatenames":"","latitude":"47.66659","longitude":"-52.73135","feature_class":"P","feature_code":"PPL","country_code":"CA","cc2":"","admin1_code":"05","admin2_code":"","admin3_code":"","admin4_code":"","population":"3097","elevation":"","dem":"69","timezone":"America/St_Johns","modification_date":"2006-01-22"},{"geonameid":"6167865","name":"Toronto","asciiname":"Toronto","alternatenames":"Gorad Taronta,Torontas,Toronto,Torontu,Torontum,Torontó,YTO,duo lun duo,roranro,taronto,teareantea,tho rxn to,tolonto,toramto,toranto,toronto,twrntw,twrwntw,Τορόντο,Горад Таронта,Торонто,Տորոնտո,טאראנטא,טורונטו,تورنتو,تورونتو,ٹورانٹو,ٹورنٹو,टोरण्टो,टोरन्टो,टोराँटो,तोरन्तो,টরোন্টো,ਟੋਰਾਂਟੋ,ரொறன்ரோ,టొరంటో,ಟೊರಾಂಟೋ,ടോറോണ്ടോ,โทรอนโต,တိုရွန်တိုမြို့,ტორონტო,トロント,多伦多,多倫多,토론토","latitude":"43.70011","longitude":"-79.4163","feature_class":"P","feature_code":"PPLA","country_code":"CA","cc2":"","admin1_code":"08","admin2_code":"","admin3_code":"","admin4_code":"","population":"2600000","elevation":"","dem":"175","timezone":"America/Toronto","modification_date":"2015-04-24"},{"geonameid":"6168326","name":"Trail","asciiname":"Trail","alternatenames":"Trejl,YZZ,trayl,Трејл,ترايل,ٹریل، برٹش کولمبیا","latitude":"49.09983","longitude":"-117.70223","feature_class":"P","feature_code":"PPL","country_code":"CA","cc2":"","admin1_code":"02","admin2_code":"","admin3_code":"","admin4_code":"","population":"9707","elevation":"","dem":"422","timezone":"America/Vancouver","modification_date":"2008-04-11"},{"geonameid":"6169141","name":"Trois-Rivières","asciiname":"Trois-Rivieres","alternatenames":"Gorad Trua-Ryuer,Troa Rivier,Troa Rivjer,Trois-Rivieres,Trois-Rivières,Trua Rivjeras,Trua-Riv'er,Trua-River,Urbs Trifluvianensis,YRQ,san he shi,teulualibieleu,torowaribieru,torowarivu~ieru,trw-rywyayr,trwa ryfyyr,trwa rywyr,Горад Труа-Рыўер,Троа Ривиер,Троа Ривјер,Труа-Ривьер,Труа-Рівєр,ترو-ریویائر,تروا ريفيير,تروا ریویر,トロワリビエール,トロワリヴィエール,三河市,트루아리비에르","latitude":"46.34515","longitude":"-72.5477","feature_class":"P","feature_code":"PPL","country_code":"CA","cc2":"","admin1_code":"10","admin2_code":"04","admin3_code":"","admin4_code":"","population":"119693","elevation":"","dem":"16","timezone":"America/Toronto","modification_date":"2013-10-06"},{"geonameid":"6169587","name":"Truro","asciiname":"Truro","alternatenames":"Truro,XLZ,trwrw  nwa askwshya,Труро,ترورو، نوا اسکوشیا","latitude":"45.36685","longitude":"-63.26538","feature_class":"P","feature_code":"PPL","country_code":"CA","cc2":"","admin1_code":"07","admin2_code":"","admin3_code":"","admin4_code":"","population":"20650","elevation":"","dem":"17","timezone":"America/Halifax","modification_date":"2006-01-22"},{"geonameid":"6170118","name":"Tumbler Ridge","asciiname":"Tumbler Ridge","alternatenames":"TUX","latitude":"55.13027","longitude":"-120.99415","feature_class":"P","feature_code":"PPL","country_code":"CA","cc2":"","admin1_code":"02","admin2_code":"","admin3_code":"","admin4_code":"","population":"2454","elevation":"830","dem":"838","timezone":"America/Dawson_Creek","modification_date":"2012-05-08"},{"geonameid":"6171332","name":"Two Hills","asciiname":"Two Hills","alternatenames":"","latitude":"53.71686","longitude":"-111.75181","feature_class":"P","feature_code":"PPL","country_code":"CA","cc2":"","admin1_code":"01","admin2_code":"","admin3_code":"","admin4_code":"","population":"1147","elevation":"","dem":"621","timezone":"America/Edmonton","modification_date":"2008-04-11"},{"geonameid":"6171633","name":"Ucluelet","asciiname":"Ucluelet","alternatenames":"Gioukloulet,Juklulet,you ke lu li te,ywklwlt,Γιούκλουλετ,Юклулет,اکلویلیٹ,یوکلولت,尤克盧利特","latitude":"48.94153","longitude":"-125.54635","feature_class":"P","feature_code":"PPL","country_code":"CA","cc2":"","admin1_code":"02","admin2_code":"5923","admin3_code":"","admin4_code":"","population":"1566","elevation":"","dem":"24","timezone":"America/Vancouver","modification_date":"2013-09-14"},{"geonameid":"6172009","name":"Unity","asciiname":"Unity","alternatenames":"","latitude":"52.45014","longitude":"-109.16816","feature_class":"P","feature_code":"PPL","country_code":"CA","cc2":"","admin1_code":"11","admin2_code":"","admin3_code":"","admin4_code":"","population":"2096","elevation":"","dem":"633","timezone":"America/Regina","modification_date":"2008-04-11"},{"geonameid":"6172932","name":"Uxbridge","asciiname":"Uxbridge","alternatenames":"Uksbridzh,ywksbrydj,Уксбридж,يوكسبريدج","latitude":"44.10012","longitude":"-79.11628","feature_class":"P","feature_code":"PPL","country_code":"CA","cc2":"","admin1_code":"08","admin2_code":"","admin3_code":"","admin4_code":"","population":"11531","elevation":"","dem":"274","timezone":"America/Toronto","modification_date":"2015-01-01"},{"geonameid":"6172998","name":"Valcourt","asciiname":"Valcourt","alternatenames":"Valkur,walkwr  kbk,Валкур,والکور، کبک","latitude":"45.50008","longitude":"-72.31581","feature_class":"P","feature_code":"PPL","country_code":"CA","cc2":"","admin1_code":"10","admin2_code":"05","admin3_code":"","admin4_code":"","population":"2451","elevation":"","dem":"200","timezone":"America/Toronto","modification_date":"2006-01-22"},{"geonameid":"6173001","name":"Val-David","asciiname":"Val-David","alternatenames":"","latitude":"46.03338","longitude":"-74.21592","feature_class":"P","feature_code":"PPL","country_code":"CA","cc2":"","admin1_code":"10","admin2_code":"15","admin3_code":"","admin4_code":"","population":"1211","elevation":"","dem":"325","timezone":"America/Toronto","modification_date":"2006-01-22"},{"geonameid":"6173012","name":"Val-des-Monts","asciiname":"Val-des-Monts","alternatenames":"","latitude":"45.6501","longitude":"-75.66604","feature_class":"P","feature_code":"PPL","country_code":"CA","cc2":"","admin1_code":"10","admin2_code":"07","admin3_code":"","admin4_code":"","population":"9539","elevation":"","dem":"141","timezone":"America/Toronto","modification_date":"2008-07-13"},{"geonameid":"6173017","name":"Val-d'Or","asciiname":"Val-d'Or","alternatenames":"Val d'Or,Val'-d'Or,Val-d'Or,Val-d’Or,YVO,fal dwr  kybk,wal-dwr,Вал д'Ор,Валь-д'Ор,فال دور، كيبك,وال-دور","latitude":"48.0974","longitude":"-77.79737","feature_class":"P","feature_code":"PPL","country_code":"CA","cc2":"","admin1_code":"10","admin2_code":"08","admin3_code":"89008","admin4_code":"","population":"31123","elevation":"","dem":"338","timezone":"America/Toronto","modification_date":"2015-09-06"},{"geonameid":"6173220","name":"Valleyview","asciiname":"Valleyview","alternatenames":"Valivju,falyfyw,Валивју,فاليفيو,ولی‌ویو، آلبرتا","latitude":"55.06673","longitude":"-117.28585","feature_class":"P","feature_code":"PPL","country_code":"CA","cc2":"","admin1_code":"01","admin2_code":"","admin3_code":"","admin4_code":"","population":"1951","elevation":"","dem":"692","timezone":"America/Edmonton","modification_date":"2008-04-11"},{"geonameid":"6173331","name":"Vancouver","asciiname":"Vancouver","alternatenames":"Ban'kouber,Fankuver,Fankûver,Gorad Vankuver,Vancouver,Vancuverium,Vanguve,Vangúve,Vankuver,Vankuvera,Vankuveris,Vankuvero,Vankuvur,Vankūvera,Venkuver,Venkûver,Wankuwer,Wankuwér,YVR,baenkubeo,bankuba,bankuba shi,bhyanakubhara,fankwfr,vainakuvara,vainkuvara,vankuvar,vhamkuvhara,wen ge hua,wnkwwr,wnkwwr  brytysh klmbya,wnqwbr,wynkwwr,Βανκούβερ,Ванкувер,Ванкувър,Горад Ванкувер,Վանկուվեր,ונקובר,فانكوفر,ونکوور,ونکوور، بریتیش کلمبیا,وینکوور,वैंकूवर,व्हँकूव्हर,ভ্যানকুভার,ਵੈਨਕੂਵਰ,வான்கூவர்,แวนคูเวอร์,ཝན་ཁུ་ཝེར།,ဗန်ကူးဗားမြို့,ვანკუვერი,ቫንኩቨር,バンクーバー,バンクーバー市,溫哥華,밴쿠버","latitude":"49.24966","longitude":"-123.11934","feature_class":"P","feature_code":"PPL","country_code":"CA","cc2":"","admin1_code":"02","admin2_code":"","admin3_code":"","admin4_code":"","population":"600000","elevation":"","dem":"70","timezone":"America/Vancouver","modification_date":"2015-09-05"},{"geonameid":"6173361","name":"Vanderhoof","asciiname":"Vanderhoof","alternatenames":"Vanderkhuf,fan de hu fu,fandrhwf,wndrhwf  brytysh klmbya,Вандерхуф,فاندرهوف,وندرهوف، بریتیش کلمبیا,范德胡夫","latitude":"54.01657","longitude":"-124.01982","feature_class":"P","feature_code":"PPL","country_code":"CA","cc2":"","admin1_code":"02","admin2_code":"","admin3_code":"","admin4_code":"","population":"1462","elevation":"","dem":"635","timezone":"America/Vancouver","modification_date":"2008-04-11"},{"geonameid":"6173508","name":"Varennes","asciiname":"Varennes","alternatenames":"Varen,warn  kbk,Варен,وارن، کبک","latitude":"45.68338","longitude":"-73.43246","feature_class":"P","feature_code":"PPL","country_code":"CA","cc2":"","admin1_code":"10","admin2_code":"16","admin3_code":"","admin4_code":"","population":"20950","elevation":"","dem":"15","timezone":"America/Toronto","modification_date":"2010-09-23"},{"geonameid":"6173570","name":"Vaudreuil-Dorion","asciiname":"Vaudreuil-Dorion","alternatenames":"Vodrej Dorion,Vodrej-Dorion,fwdrwydwrywn,wwdrwy-dwrywn,Водрей-Доріон,Водреј Дорион,فودرويدوريون,وودروی-دوریون","latitude":"45.40008","longitude":"-74.03251","feature_class":"P","feature_code":"PPL","country_code":"CA","cc2":"","admin1_code":"10","admin2_code":"16","admin3_code":"","admin4_code":"","population":"25789","elevation":"","dem":"22","timezone":"America/Toronto","modification_date":"2010-09-23"},{"geonameid":"6173577","name":"Vaughan","asciiname":"Vaughan","alternatenames":"Von,bon,fawjan,vu~on,wan,wang shi,Вон,فاوجان,وان,وان، انٹاریو,واگھن,ヴォーン,旺市,본","latitude":"43.8361","longitude":"-79.49827","feature_class":"P","feature_code":"PPL","country_code":"CA","cc2":"","admin1_code":"08","admin2_code":"","admin3_code":"","admin4_code":"","population":"238866","elevation":"","dem":"218","timezone":"America/Toronto","modification_date":"2011-12-07"},{"geonameid":"6173635","name":"Vegreville","asciiname":"Vegreville","alternatenames":"Vegrevil,Vegrevil',Vegrevill,wgrwyl  albrta,Вегревил,Вегревилл,Веґревіль,وگرویل، آلبرتا","latitude":"53.50015","longitude":"-112.05182","feature_class":"P","feature_code":"PPL","country_code":"CA","cc2":"","admin1_code":"01","admin2_code":"","admin3_code":"","admin4_code":"","population":"5678","elevation":"","dem":"635","timezone":"America/Edmonton","modification_date":"2008-04-11"},{"geonameid":"6173750","name":"Verchères","asciiname":"Vercheres","alternatenames":"wrshr  kbk,ورشر، کبک","latitude":"45.78338","longitude":"-73.34916","feature_class":"P","feature_code":"PPL","country_code":"CA","cc2":"","admin1_code":"10","admin2_code":"","admin3_code":"","admin4_code":"","population":"4030","elevation":"","dem":"2","timezone":"America/Toronto","modification_date":"2006-01-22"},{"geonameid":"6173801","name":"Vermilion","asciiname":"Vermilion","alternatenames":"Vermilion,YVG,wrmylywn  albrta,Вермилион,ورمیلیون، آلبرتا","latitude":"53.35409","longitude":"-110.85849","feature_class":"P","feature_code":"PPL","country_code":"CA","cc2":"","admin1_code":"01","admin2_code":"","admin3_code":"","admin4_code":"","population":"4151","elevation":"","dem":"617","timezone":"America/Edmonton","modification_date":"2013-08-25"},{"geonameid":"6173864","name":"Vernon","asciiname":"Vernon","alternatenames":"Vernon,YVE,fu nong,fyrnwn,wrnn  brytysh klmbya,wrnn  brٹsh kwlmbya,Вернон,فيرنون,ورنن، برٹش کولمبیا,ورنن، بریتیش کلمبیا,弗农","latitude":"50.26729","longitude":"-119.27337","feature_class":"P","feature_code":"PPL","country_code":"CA","cc2":"","admin1_code":"02","admin2_code":"5937","admin3_code":"","admin4_code":"","population":"47274","elevation":"","dem":"383","timezone":"America/Vancouver","modification_date":"2015-01-11"},{"geonameid":"6174041","name":"Victoria","asciiname":"Victoria","alternatenames":"Victoria,Victòria,Viktori,Viktoria,Viktoria Vretanikis Kolomvias,Viktorija,Viktorio,Viktoriya,Wiktoriye,YYJ,bigtolia,bikutoria,fktwrya,vhiktoriya,vikatori'a,viktoriya,vu~ikutoria,wei duo li ya,wiktxreiy,wyktwrya  brytysh klmbya,wyqtwryh,Βικτώρια Βρετανικής Κολομβίας,Виктори,Виктория,Викторија,Вікторія,Վիկտորիա,ויקטוריה,فكتوريا,وکٹوریا,وکٹوریا، برٹش کولمبیا,ویکتوریا، بریتیش کلمبیا,व्हिक्टोरिया,ਵਿਕਟੋਰੀਆ,விக்டோரியா,วิกตอเรีย,ვიქტორია,ビクトリア,ヴィクトリア,維多利亞,빅토리아","latitude":"48.43294","longitude":"-123.3693","feature_class":"P","feature_code":"PPLA","country_code":"CA","cc2":"","admin1_code":"02","admin2_code":"","admin3_code":"","admin4_code":"","population":"289625","elevation":"","dem":"6","timezone":"America/Vancouver","modification_date":"2015-06-04"},{"geonameid":"6174151","name":"Victoriaville","asciiname":"Victoriaville","alternatenames":"Viktoriavill,Viktorijavil,Viktorijavil',bikutoriabiru,fyktwrya fyl,wyktwryawyl,Викториавилл,Викторијавил,Вікторіявіль,فيكتوريا فيل,ویکتوریاویل,ビクトリアビル","latitude":"46.05007","longitude":"-71.96579","feature_class":"P","feature_code":"PPL","country_code":"CA","cc2":"","admin1_code":"10","admin2_code":"17","admin3_code":"39062","admin4_code":"","population":"34426","elevation":"","dem":"131","timezone":"America/Toronto","modification_date":"2016-02-23"},{"geonameid":"6174254","name":"Viking","asciiname":"Viking","alternatenames":"Vajking,Вајкинг","latitude":"53.10014","longitude":"-111.76844","feature_class":"P","feature_code":"PPL","country_code":"CA","cc2":"","admin1_code":"01","admin2_code":"","admin3_code":"","admin4_code":"","population":"1106","elevation":"","dem":"683","timezone":"America/Edmonton","modification_date":"2008-04-11"},{"geonameid":"6174335","name":"Ville-Marie","asciiname":"Ville-Marie","alternatenames":"","latitude":"47.33345","longitude":"-79.43297","feature_class":"P","feature_code":"PPL","country_code":"CA","cc2":"","admin1_code":"10","admin2_code":"08","admin3_code":"","admin4_code":"","population":"2831","elevation":"","dem":"204","timezone":"America/Toronto","modification_date":"2008-04-11"},{"geonameid":"6174457","name":"Virden","asciiname":"Virden","alternatenames":"Verden,Верден,ورڈن، مینی ٹوبا","latitude":"49.8508","longitude":"-100.93262","feature_class":"P","feature_code":"PPL","country_code":"CA","cc2":"","admin1_code":"03","admin2_code":"","admin3_code":"","admin4_code":"","population":"3237","elevation":"","dem":"442","timezone":"America/Winnipeg","modification_date":"2008-04-11"},{"geonameid":"6174687","name":"Vulcan","asciiname":"Vulcan","alternatenames":"Valkan,Валкан","latitude":"50.40008","longitude":"-113.25189","feature_class":"P","feature_code":"PPL","country_code":"CA","cc2":"","admin1_code":"01","admin2_code":"","admin3_code":"","admin4_code":"","population":"1853","elevation":"","dem":"1043","timezone":"America/Edmonton","modification_date":"2008-04-11"},{"geonameid":"6174727","name":"Wabana","asciiname":"Wabana","alternatenames":"","latitude":"47.63319","longitude":"-52.94806","feature_class":"P","feature_code":"PPL","country_code":"CA","cc2":"","admin1_code":"05","admin2_code":"","admin3_code":"","admin4_code":"","population":"2362","elevation":"","dem":"84","timezone":"America/St_Johns","modification_date":"2008-04-11"},{"geonameid":"6174914","name":"Wadena","asciiname":"Wadena","alternatenames":"","latitude":"51.94999","longitude":"-103.80102","feature_class":"P","feature_code":"PPL","country_code":"CA","cc2":"","admin1_code":"11","admin2_code":"","admin3_code":"","admin4_code":"","population":"1319","elevation":"","dem":"542","timezone":"America/Regina","modification_date":"2008-04-11"},{"geonameid":"6175059","name":"Wainwright","asciiname":"Wainwright","alternatenames":"Vejnrajt,Вејнрајт","latitude":"52.83904","longitude":"-110.85723","feature_class":"P","feature_code":"PPL","country_code":"CA","cc2":"","admin1_code":"01","admin2_code":"","admin3_code":"","admin4_code":"","population":"5380","elevation":"","dem":"678","timezone":"America/Edmonton","modification_date":"2008-04-11"},{"geonameid":"6175108","name":"Wakefield","asciiname":"Wakefield","alternatenames":"","latitude":"45.6668","longitude":"-75.83265","feature_class":"P","feature_code":"PPL","country_code":"CA","cc2":"","admin1_code":"10","admin2_code":"07","admin3_code":"","admin4_code":"","population":"2000","elevation":"","dem":"305","timezone":"America/Toronto","modification_date":"2006-05-26"},{"geonameid":"6175609","name":"Walpole Island","asciiname":"Walpole Island","alternatenames":"","latitude":"42.6152","longitude":"-82.51398","feature_class":"P","feature_code":"PPLL","country_code":"CA","cc2":"","admin1_code":"08","admin2_code":"6049019","admin3_code":"","admin4_code":"","population":"1878","elevation":"","dem":"176","timezone":"America/Detroit","modification_date":"2014-11-23"},{"geonameid":"6176226","name":"Warman","asciiname":"Warman","alternatenames":"Vorman,Ворман","latitude":"52.31679","longitude":"-106.56791","feature_class":"P","feature_code":"PPL","country_code":"CA","cc2":"","admin1_code":"11","admin2_code":"","admin3_code":"","admin4_code":"","population":"3252","elevation":"","dem":"507","timezone":"America/Regina","modification_date":"2008-04-11"},{"geonameid":"6176393","name":"Warwick","asciiname":"Warwick","alternatenames":"","latitude":"45.95007","longitude":"-71.9824","feature_class":"P","feature_code":"PPL","country_code":"CA","cc2":"","admin1_code":"10","admin2_code":"17","admin3_code":"39077","admin4_code":"","population":"3340","elevation":"","dem":"168","timezone":"America/Toronto","modification_date":"2016-02-23"},{"geonameid":"6176421","name":"Wasaga Beach","asciiname":"Wasaga Beach","alternatenames":"Wasaga,Wasaga Beach","latitude":"44.5168","longitude":"-80.01637","feature_class":"P","feature_code":"PPL","country_code":"CA","cc2":"","admin1_code":"08","admin2_code":"","admin3_code":"","admin4_code":"","population":"7567","elevation":"","dem":"188","timezone":"America/Toronto","modification_date":"2010-03-11"},{"geonameid":"6176821","name":"Waterloo","asciiname":"Waterloo","alternatenames":"Vaterloo,Ватерлоо","latitude":"45.35008","longitude":"-72.51582","feature_class":"P","feature_code":"PPL","country_code":"CA","cc2":"","admin1_code":"10","admin2_code":"16","admin3_code":"47025","admin4_code":"","population":"4064","elevation":"","dem":"210","timezone":"America/Toronto","modification_date":"2016-02-24"},{"geonameid":"6176823","name":"Waterloo","asciiname":"Waterloo","alternatenames":"Uoterlu,Vaterloo,Voterlu,hua tie lu,u~otaru,watrlw,watrlw  antaryw,woteollu,Ватерлоо,Вотерлу,Уотерлу,واترلو,واترلو، انتاریو,واٹرلو، انٹاریو,ウォータールー,滑鐵盧,워털루","latitude":"43.4668","longitude":"-80.51639","feature_class":"P","feature_code":"PPL","country_code":"CA","cc2":"","admin1_code":"08","admin2_code":"","admin3_code":"","admin4_code":"","population":"97475","elevation":"","dem":"325","timezone":"America/Toronto","modification_date":"2010-01-29"},{"geonameid":"6176928","name":"Watrous","asciiname":"Watrous","alternatenames":"","latitude":"51.66677","longitude":"-105.46788","feature_class":"P","feature_code":"PPL","country_code":"CA","cc2":"","admin1_code":"11","admin2_code":"","admin3_code":"","admin4_code":"","population":"1689","elevation":"","dem":"543","timezone":"America/Regina","modification_date":"2008-04-11"},{"geonameid":"6176992","name":"Watson Lake","asciiname":"Watson Lake","alternatenames":"Uotson-Lejk,YQH,Уотсон-Лейк","latitude":"60.06349","longitude":"-128.70893","feature_class":"P","feature_code":"PPL","country_code":"CA","cc2":"","admin1_code":"12","admin2_code":"","admin3_code":"","admin4_code":"","population":"1547","elevation":"","dem":"678","timezone":"America/Vancouver","modification_date":"2010-05-27"},{"geonameid":"6177869","name":"Welland","asciiname":"Welland","alternatenames":"Veland,Velland,u~erando,wei lan,wellaendeu,wlnd  antaryw,wyland,Веланд,Велланд,ولند، انتاریو,ويلاند,ویلینڈ,ウェランド,威蘭,웰랜드","latitude":"42.98342","longitude":"-79.24958","feature_class":"P","feature_code":"PPL","country_code":"CA","cc2":"","admin1_code":"08","admin2_code":"","admin3_code":"","admin4_code":"","population":"50331","elevation":"","dem":"180","timezone":"America/Toronto","modification_date":"2010-09-22"},{"geonameid":"6178038","name":"Wembley","asciiname":"Wembley","alternatenames":"","latitude":"55.14995","longitude":"-119.13602","feature_class":"P","feature_code":"PPL","country_code":"CA","cc2":"","admin1_code":"01","admin2_code":"","admin3_code":"","admin4_code":"","population":"1574","elevation":"","dem":"729","timezone":"America/Edmonton","modification_date":"2008-04-11"},{"geonameid":"6178582","name":"West End","asciiname":"West End","alternatenames":"","latitude":"49.28333","longitude":"-123.13333","feature_class":"P","feature_code":"PPL","country_code":"CA","cc2":"","admin1_code":"02","admin2_code":"","admin3_code":"","admin4_code":"","population":"44560","elevation":"","dem":"49","timezone":"America/Vancouver","modification_date":"2013-09-09"},{"geonameid":"6179138","name":"Westlock","asciiname":"Westlock","alternatenames":"","latitude":"54.15016","longitude":"-113.86876","feature_class":"P","feature_code":"PPL","country_code":"CA","cc2":"","admin1_code":"01","admin2_code":"","admin3_code":"","admin4_code":"","population":"5067","elevation":"","dem":"651","timezone":"America/Edmonton","modification_date":"2008-04-11"},{"geonameid":"6179226","name":"Westmount","asciiname":"Westmount","alternatenames":"Uehstmaunt,Uestmaunt,Vestmaunt,uesutomaunto,wstmwnt  kbk,wysmawnt,Вестмаунт,Уестмаунт,Уэстмаунт,وستمونت، کبک,ويسماونت,ウエストマウント","latitude":"45.48341","longitude":"-73.59918","feature_class":"P","feature_code":"PPL","country_code":"CA","cc2":"","admin1_code":"10","admin2_code":"","admin3_code":"","admin4_code":"","population":"20494","elevation":"","dem":"52","timezone":"America/Toronto","modification_date":"2010-09-23"},{"geonameid":"6179602","name":"Wetaskiwin","asciiname":"Wetaskiwin","alternatenames":"Vetaskisin,Vetaskivin,Vetaskivinas,Vetaskişin,wei ta si ji wen,wetaseukiwin,wtaskwyn,wtaskywyn,Ветаскивин,وتاسكوين,وتاسکیوین,ویٹاسکیون,韦塔斯基温,웨타스키윈","latitude":"52.96683","longitude":"-113.36869","feature_class":"P","feature_code":"PPL","country_code":"CA","cc2":"","admin1_code":"01","admin2_code":"","admin3_code":"","admin4_code":"","population":"11302","elevation":"","dem":"758","timezone":"America/Edmonton","modification_date":"2008-04-11"},{"geonameid":"6179652","name":"Weyburn","asciiname":"Weyburn","alternatenames":"Vejbern,wybrn,Вейберн,Вејберн,ويبرن","latitude":"49.66675","longitude":"-103.85109","feature_class":"P","feature_code":"PPL","country_code":"CA","cc2":"","admin1_code":"11","admin2_code":"","admin3_code":"","admin4_code":"","population":"9362","elevation":"","dem":"568","timezone":"America/Regina","modification_date":"2008-04-11"},{"geonameid":"6180144","name":"Whistler","asciiname":"Whistler","alternatenames":"Uislur,Uistler,Visler,Vistler,Vistlera,Vistleris,Whistler,Whistler Village,Whistler i British Columbia,YWS,hwiseulleo,u~isura,wei shi na,wyslr  kwlwmbya albrytanyt,Вислер,Вістлер,Уислър,Уистлер,ويسلر، كولومبيا البريطانية,ウィスラー,威士拿,휘슬러","latitude":"50.1164","longitude":"-122.96946","feature_class":"P","feature_code":"PPL","country_code":"CA","cc2":"","admin1_code":"02","admin2_code":"","admin3_code":"","admin4_code":"","population":"10600","elevation":"","dem":"688","timezone":"America/Vancouver","modification_date":"2015-05-23"},{"geonameid":"6180266","name":"White City","asciiname":"White City","alternatenames":"","latitude":"50.43338","longitude":"-104.36778","feature_class":"P","feature_code":"PPL","country_code":"CA","cc2":"","admin1_code":"11","admin2_code":"","admin3_code":"","admin4_code":"","population":"1813","elevation":"","dem":"606","timezone":"America/Regina","modification_date":"2006-01-22"},{"geonameid":"6180285","name":"Whitecourt","asciiname":"Whitecourt","alternatenames":"Vajtkort,YZU,Вајткорт","latitude":"54.15015","longitude":"-115.68548","feature_class":"P","feature_code":"PPL","country_code":"CA","cc2":"","admin1_code":"01","admin2_code":"","admin3_code":"","admin4_code":"","population":"8763","elevation":"","dem":"689","timezone":"America/Edmonton","modification_date":"2008-04-11"},{"geonameid":"6180550","name":"Whitehorse","asciiname":"Whitehorse","alternatenames":"Equus Albus,Gorad Uajtkhors,Gouaitchors,Uaithors,Uajtkhors,Vaithorsas,Vajtkhors,Vaythors,Whitehorse,YXY,bai ma shi,howaitohosu,hwaiteuhoseu,vait'hars,wayt hwrs,wayٹ ہars  ywkwn,wyythwrs,Γουάιτχορς,Вайтхорс,Вајтхорс,Горад Уайтхорс,Уайтхорс,וייטהורס,وائٹ ہارس، یوکون,وايت هورس,وایت‌هورس، یوکان,வைட்ஹார்ஸ்,უაიტჰორსი,ホワイトホース,白馬市,화이트호스","latitude":"60.71611","longitude":"-135.05375","feature_class":"P","feature_code":"PPLA","country_code":"CA","cc2":"","admin1_code":"12","admin2_code":"","admin3_code":"","admin4_code":"","population":"23272","elevation":"707","dem":"630","timezone":"America/Whitehorse","modification_date":"2010-07-29"},{"geonameid":"6180961","name":"White Rock","asciiname":"White Rock","alternatenames":"Vajt Rok,White Rock,bai shi,howaitorokku,hwaiteulog,wayt rak   brytysh klmbya,wayt rwk,Вајт Рок,وائٹ راک,وائٹ راک، برٹش کولمبیا,وايت روك,وایت راک ، بریتیش کلمبیا,ホワイトロック,白石,화이트록","latitude":"49.01636","longitude":"-122.8026","feature_class":"P","feature_code":"PPL","country_code":"CA","cc2":"","admin1_code":"02","admin2_code":"5915","admin3_code":"","admin4_code":"","population":"66450","elevation":"","dem":"-9999","timezone":"America/Vancouver","modification_date":"2013-08-28"},{"geonameid":"6182001","name":"Wilkie","asciiname":"Wilkie","alternatenames":"","latitude":"52.41683","longitude":"-108.70142","feature_class":"P","feature_code":"PPL","country_code":"CA","cc2":"","admin1_code":"11","admin2_code":"","admin3_code":"","admin4_code":"","population":"1198","elevation":"","dem":"662","timezone":"America/Regina","modification_date":"2008-04-11"},{"geonameid":"6182212","name":"Williams Lake","asciiname":"Williams Lake","alternatenames":"Columetza,Vilijams Lejk,Williams,Williams Lake,YWL,wei lian mu si hu,wlymzlyk,wylyamz lyk,Вилијамс Лејк,ولیمزلیک,ويليامز ليك,威廉姆斯湖","latitude":"52.14153","longitude":"-122.14451","feature_class":"P","feature_code":"PPL","country_code":"CA","cc2":"","admin1_code":"02","admin2_code":"","admin3_code":"","admin4_code":"","population":"14168","elevation":"","dem":"674","timezone":"America/Vancouver","modification_date":"2014-07-21"},{"geonameid":"6182958","name":"Windsor","asciiname":"Windsor","alternatenames":"Uinsor,Vindzor,wyndswr. nwa askwshya,Виндзор,Уинсор,ویندسور٬ نوا اسکوشیا","latitude":"44.98345","longitude":"-64.13204","feature_class":"P","feature_code":"PPL","country_code":"CA","cc2":"","admin1_code":"07","admin2_code":"","admin3_code":"","admin4_code":"","population":"3864","elevation":"","dem":"11","timezone":"America/Halifax","modification_date":"2010-01-29"},{"geonameid":"6182959","name":"Windsor","asciiname":"Windsor","alternatenames":"Vindzor,Виндзор","latitude":"45.56678","longitude":"-71.99909","feature_class":"P","feature_code":"PPL","country_code":"CA","cc2":"","admin1_code":"10","admin2_code":"05","admin3_code":"","admin4_code":"","population":"5408","elevation":"","dem":"173","timezone":"America/Toronto","modification_date":"2010-01-29"},{"geonameid":"6182962","name":"Windsor","asciiname":"Windsor","alternatenames":"Uindzur,Uinsor,Vindzor,Vindzoras,Windsor,YQG,u'indasara,uindzori,uinza,u~inza,wen sha,winjeo,wndswr,wyndzwr,wynzr  antaryw,Виндзор,Віндзор,Уиндзър,Уинсор,וינדזור,وندسور,ونڈسر، انٹاریو,ونڈسور,وینزر، انتاریو,উইন্ডসর,უინძორი,ウィンザー,ウインザー,温莎,윈저","latitude":"42.30008","longitude":"-83.01654","feature_class":"P","feature_code":"PPL","country_code":"CA","cc2":"","admin1_code":"08","admin2_code":"","admin3_code":"","admin4_code":"","population":"278013","elevation":"","dem":"190","timezone":"America/Toronto","modification_date":"2012-05-04"},{"geonameid":"6183141","name":"Wingham","asciiname":"Wingham","alternatenames":"wyngham  antaryw,وینگهام، انتاریو","latitude":"43.88793","longitude":"-81.31145","feature_class":"P","feature_code":"PPL","country_code":"CA","cc2":"","admin1_code":"08","admin2_code":"","admin3_code":"","admin4_code":"","population":"2923","elevation":"","dem":"318","timezone":"America/Toronto","modification_date":"2009-07-31"},{"geonameid":"6183204","name":"Winkler","asciiname":"Winkler","alternatenames":"Uinkler,Vinkler,wnklr,Винклер,Вінклер,Уинклер,ونکلر,ونکلر، مینی ٹوبا","latitude":"49.1817","longitude":"-97.94104","feature_class":"P","feature_code":"PPL","country_code":"CA","cc2":"","admin1_code":"03","admin2_code":"","admin3_code":"","admin4_code":"","population":"8270","elevation":"","dem":"271","timezone":"America/Winnipeg","modification_date":"2008-04-11"},{"geonameid":"6183235","name":"Winnipeg","asciiname":"Winnipeg","alternatenames":"Gorad Vinipeg,Gouinipenk,Uinipeg,Uinnipeg,Vinipeg,Vinipega,Vinipegas,Vinipego,Vinnipeg,Vinnipega,Vinnipeq,WPG,Winnipeg,Winnipeg City,Winnipég,YWG,u~inipegu,vinipaiga,vinipega,vinippek,wen ni bo,win ni phek,winipeg,wny pyg,wnypg,wynybygh,wynypg,Γουίνιπεγκ,Винипег,Виннипег,Вінніпег,Вінніпеґ,Горад Вініпег,Уинипег,Уиннипег,Վիննիպեգ,ויניפג,ونی پیگ,ونیپگ,وينيبيغ,وینیپگ,विनिपेग,ਵਿਨੀਪੈਗ,வினிப்பெக்,วินนิเพก,ဝင်နီပက်မြို့,უინიპეგი,ᐄᐧᓂᐯᐠ,ウィニペグ,温尼伯,위니펙","latitude":"49.8844","longitude":"-97.14704","feature_class":"P","feature_code":"PPLA","country_code":"CA","cc2":"","admin1_code":"03","admin2_code":"","admin3_code":"","admin4_code":"","population":"632063","elevation":"","dem":"245","timezone":"America/Winnipeg","modification_date":"2013-09-23"},{"geonameid":"6183858","name":"Wolfville","asciiname":"Wolfville","alternatenames":"wlf wyl,ولف ویل","latitude":"45.08345","longitude":"-64.36546","feature_class":"P","feature_code":"PPL","country_code":"CA","cc2":"","admin1_code":"07","admin2_code":"","admin3_code":"","admin4_code":"","population":"3523","elevation":"","dem":"53","timezone":"America/Halifax","modification_date":"2008-04-11"},{"geonameid":"6184365","name":"Woodstock","asciiname":"Woodstock","alternatenames":"Vudstok,hu shi tuo,uddosutokku,wwdstak  antaryw,wwdstwk,Вудсток,وودستاک، انتاریو,وودستوك,وڈسٹوک,ウッドストック,胡士托","latitude":"43.13339","longitude":"-80.7497","feature_class":"P","feature_code":"PPLA2","country_code":"CA","cc2":"","admin1_code":"08","admin2_code":"6095780","admin3_code":"","admin4_code":"","population":"33892","elevation":"","dem":"299","timezone":"America/Toronto","modification_date":"2014-10-29"},{"geonameid":"6185021","name":"Wynyard","asciiname":"Wynyard","alternatenames":"","latitude":"51.76674","longitude":"-104.18436","feature_class":"P","feature_code":"PPL","country_code":"CA","cc2":"","admin1_code":"11","admin2_code":"","admin3_code":"","admin4_code":"","population":"1793","elevation":"","dem":"559","timezone":"America/Regina","modification_date":"2008-04-11"},{"geonameid":"6185138","name":"Yamachiche","asciiname":"Yamachiche","alternatenames":"yamashysh  kbk,یاماشیش، کبک,یاماچچے ، کیوبک","latitude":"46.26676","longitude":"-72.83243","feature_class":"P","feature_code":"PPL","country_code":"CA","cc2":"","admin1_code":"10","admin2_code":"04","admin3_code":"51020","admin4_code":"","population":"1255","elevation":"","dem":"4","timezone":"America/Toronto","modification_date":"2016-02-23"},{"geonameid":"6185217","name":"Yarmouth","asciiname":"Yarmouth","alternatenames":"Jarmut,YQI,Yarmouth,yameoseu,yarmwt,Ярмут,یارموت,یارموتھ، نوا سکوٹیا,야머스","latitude":"43.83345","longitude":"-66.11557","feature_class":"P","feature_code":"PPL","country_code":"CA","cc2":"","admin1_code":"07","admin2_code":"","admin3_code":"","admin4_code":"","population":"7500","elevation":"","dem":"26","timezone":"America/Halifax","modification_date":"2008-04-11"},{"geonameid":"6185377","name":"Yellowknife","asciiname":"Yellowknife","alternatenames":"Cultellus Flavus,Ellounajf,Geloounaif,Gorad Elaunajf,Jehllounajf,Jellounajf,Jelounaifa,Jelounaifas,Jelounajf,YZF,Yellounayf,Yellowknife,huang dao zhen,ielounaipi,ieronaifu,ye luo na fu,yellonaipeu,yelonaihp,ylwknyfے,ylwnayf,ylwnyyp,Γελοουνάιφ,Єллоунайф,Јелоунајф,Горад Елаўнайф,Йеллоунайф,Йелоунайф,Йэллоунайф,ילונייף,يلونايف,یلونایف,یلوکنیفے,யெலோனைஃப்,იელოუნაიფი,イエローナイフ,耶罗纳夫,黃刀鎮,옐로나이프","latitude":"62.456","longitude":"-114.35255","feature_class":"P","feature_code":"PPLA","country_code":"CA","cc2":"","admin1_code":"13","admin2_code":"","admin3_code":"","admin4_code":"","population":"15865","elevation":"","dem":"248","timezone":"America/Yellowknife","modification_date":"2010-07-30"},{"geonameid":"6185607","name":"Yorkton","asciiname":"Yorkton","alternatenames":"Jorkton,YQV,Yorkton,yue ke dun,ywrktn,ywrktwn,Јорктон,Йорктон,يوركتن,یورکتون,约克顿","latitude":"51.2167","longitude":"-102.46766","feature_class":"P","feature_code":"PPL","country_code":"CA","cc2":"","admin1_code":"11","admin2_code":"","admin3_code":"","admin4_code":"","population":"15669","elevation":"498","dem":"504","timezone":"America/Regina","modification_date":"2013-10-06"},{"geonameid":"6295855","name":"Beauceville","asciiname":"Beauceville","alternatenames":"Bosvil,CWHV,bwsfyl,bwswyl  kbk,Босвил,بوسفيل,بوسویل، کبک,بیوسولے","latitude":"46.21785","longitude":"-70.77873","feature_class":"P","feature_code":"PPL","country_code":"CA","cc2":"","admin1_code":"10","admin2_code":"12","admin3_code":"","admin4_code":"","population":"6226","elevation":"229","dem":"174","timezone":"America/Toronto","modification_date":"2011-06-14"},{"geonameid":"6324729","name":"Halifax","asciiname":"Halifax","alternatenames":"Galifaks,Halifax,YHZ,Галифакс","latitude":"44.64533","longitude":"-63.57239","feature_class":"P","feature_code":"PPLA","country_code":"CA","cc2":"","admin1_code":"07","admin2_code":"","admin3_code":"","admin4_code":"","population":"359111","elevation":"","dem":"23","timezone":"America/Halifax","modification_date":"2014-07-18"},{"geonameid":"6324733","name":"St. John's","asciiname":"St. John's","alternatenames":"Agios Ioannis Neas Gis,Baile Naoimh Eoin,Baile Naoimh Eòin,Baile Sheain,Baile Sheáin,Gorad Sent-Dzhons,Saint John,Saint John's,Saint-Jean,Saint-Jean de Terre-Neuve,San Juan de Terranova,Sanctus Ioannes Terrae Novae,Sejnt Dzhons,Sent DZons,Sent Dzonsas,Sent Džonsas,Sent-Dzhons,St Johns,St. John's,St. John's pa Newfoundland,St. John's på Newfoundland,St. John’s,YYT,ceyint jans,sant jwnz,seinteujonseu,sentojonzu,sheng yue han si,snt g'wns,Άγιος Ιωάννης Νέας Γης,Горад Сент-Джонс,Сейнт Джонс,Сент Џонс,Сент-Джонс,סנט ג'ונס,سانت جونز,سینٹ جان,سینٹ جانز، نیوفنلینڈ اور لیبراڈار,செயின்ட் ஜான்ஸ்,სენტ-ჯონზი,セントジョンズ,聖約翰斯,세인트존스","latitude":"47.56494","longitude":"-52.70931","feature_class":"P","feature_code":"PPLA","country_code":"CA","cc2":"","admin1_code":"05","admin2_code":"","admin3_code":"","admin4_code":"","population":"99182","elevation":"","dem":"35","timezone":"America/St_Johns","modification_date":"2014-07-21"},{"geonameid":"6325479","name":"Beaupré","asciiname":"Beaupre","alternatenames":"","latitude":"47.04428","longitude":"-70.89529","feature_class":"P","feature_code":"PPL","country_code":"CA","cc2":"","admin1_code":"10","admin2_code":"03","admin3_code":"","admin4_code":"","population":"2803","elevation":"","dem":"21","timezone":"America/Toronto","modification_date":"2011-12-14"},{"geonameid":"6325486","name":"Château-Richer","asciiname":"Chateau-Richer","alternatenames":"","latitude":"46.96031","longitude":"-71.03219","feature_class":"P","feature_code":"PPL","country_code":"CA","cc2":"","admin1_code":"10","admin2_code":"03","admin3_code":"","admin4_code":"","population":"3563","elevation":"","dem":"6","timezone":"America/Toronto","modification_date":"2010-09-23"},{"geonameid":"6325494","name":"Québec","asciiname":"Quebec","alternatenames":"Altepetl Quebec,Bandaraya Quebec,Cathair Quebec,Cathair Québec,Ciutat de Quebec,Gorad Kvebek,Jiji la Quebec,Kebec Vile,Kebek,Kebeko,Kebeku,Kempek,Kevek tava,Kota Quebec,Kuehbehk,Kvebek,Kvebeka,Kvebekas,Kwebek,Kwebek Shehiri,Kwébék,Kwébék Shehiri,Kébéc Vile,Kévek táva,Lungsod ng Quebec,Lungsod ng Québec,Quebec,Quebec Ceety,Quebec City,Quebec Hiria,Quebec llaqta,Quebec-chhi,Quebec-su,Quebecborg,Quebecceaster,Quebecstad,Quebecum urbs,Québec,Québec-chhī,Québec-sṳ,Québecborg,Siudad ti Quebec,Tchubec,Thanh pho Quebec,Thành phố Québec,Vila de Quebec,Vila de Quebèc,Ville de Quebec,Ville de Québec,YQB,kbk,kebaika sahira,kh wibek,kiyupek nakaram,kui bei ke shi,kvebeka siti,kwebeg,kyubeka nagara,mdynt kybk,qwwybq syty,Κεμπέκ,Горад Квебек,Квебек,Куэбэк,Քվեբեկ,קוויבק סיטי,مدينة كيبك,کبک,کیوبک شہر,क्यूबेक नगर,क्वेबेक सिटी,ਕੇਬੈਕ ਸ਼ਹਿਰ,கியூபெக் நகரம்,ควิเบก,კვებეკი,ケベック・シティー,魁北克市,퀘벡","latitude":"46.81228","longitude":"-71.21454","feature_class":"P","feature_code":"PPLA","country_code":"CA","cc2":"","admin1_code":"10","admin2_code":"","admin3_code":"","admin4_code":"","population":"528595","elevation":"","dem":"54","timezone":"America/Toronto","modification_date":"2014-11-06"},{"geonameid":"6325521","name":"Lévis","asciiname":"Levis","alternatenames":"Levi,li wei,lwy  kbk,lyfys,lyws,revu~i,Леви,Леві,لوی، کبک,ليفيس,لیوس,レヴィ,利维","latitude":"46.80326","longitude":"-71.17793","feature_class":"P","feature_code":"PPL","country_code":"CA","cc2":"","admin1_code":"10","admin2_code":"12","admin3_code":"25213","admin4_code":"","population":"126396","elevation":"","dem":"87","timezone":"America/Blanc-Sablon","modification_date":"2015-09-04"},{"geonameid":"6325529","name":"Montmagny","asciiname":"Montmagny","alternatenames":"Monmani,mwnmayyny  kbk,mwntmaghny  kybk,Монмані,Монмањи,مونتماغني، كيبك,مونمایینی، کبک","latitude":"46.98043","longitude":"-70.55493","feature_class":"P","feature_code":"PPL","country_code":"CA","cc2":"","admin1_code":"10","admin2_code":"12","admin3_code":"","admin4_code":"","population":"11724","elevation":"","dem":"15","timezone":"America/Toronto","modification_date":"2010-09-23"},{"geonameid":"6325572","name":"Neuville","asciiname":"Neuville","alternatenames":"Nevil,nwwyl  kbk,nywfyl,Невил,نوویل، کبک,نيوفيل","latitude":"46.69823","longitude":"-71.58275","feature_class":"P","feature_code":"PPL","country_code":"CA","cc2":"","admin1_code":"10","admin2_code":"03","admin3_code":"","admin4_code":"","population":"3638","elevation":"","dem":"18","timezone":"America/Toronto","modification_date":"2010-09-23"},{"geonameid":"6354895","name":"Rimouski","asciiname":"Rimouski","alternatenames":"Rimuski,YXK,rymwsky,Римуски,Рімускі,ريموسكي,ریموسکی,ᕆᒧᔅᑭ","latitude":"48.44879","longitude":"-68.52396","feature_class":"P","feature_code":"PPL","country_code":"CA","cc2":"","admin1_code":"10","admin2_code":"01","admin3_code":"","admin4_code":"","population":"42240","elevation":"","dem":"23","timezone":"America/Toronto","modification_date":"2010-09-22"},{"geonameid":"6354897","name":"Rivière-du-Loup","asciiname":"Riviere-du-Loup","alternatenames":"Riv'er-dju-Lu,River-dju-Lju,Riviere-du-Loup,Rivière-du-Loup,Rivjer di Lu,YRI,ryfry dw lwb,rywyyr-dw-lw,Ривьер-дю-Лу,Ривјер ди Лу,Рівєр-дю-Лю,ريفري دو لوب,ریوییر-دو-لو,ᑲᐱᑎᑌᒍᐁᔅ","latitude":"47.82699","longitude":"-69.54243","feature_class":"P","feature_code":"PPL","country_code":"CA","cc2":"","admin1_code":"10","admin2_code":"01","admin3_code":"","admin4_code":"","population":"18586","elevation":"","dem":"56","timezone":"America/Toronto","modification_date":"2013-08-24"},{"geonameid":"6354908","name":"Sydney","asciiname":"Sydney","alternatenames":"Baile Shidni,Sidni,YQY,shidoni,sydny. nwa askwshya,Сидни,سیدنی٬ نوا اسکوشیا,シドニー","latitude":"46.1351","longitude":"-60.1831","feature_class":"P","feature_code":"PPL","country_code":"CA","cc2":"","admin1_code":"07","admin2_code":"","admin3_code":"","admin4_code":"","population":"105968","elevation":"","dem":"6","timezone":"America/Glace_Bay","modification_date":"2010-09-22"},{"geonameid":"6354950","name":"Tofino","asciiname":"Tofino","alternatenames":"Tofino,YAZ,tu fen nu,Τοφίνο,Тофино,吐芬奴","latitude":"49.15314","longitude":"-125.90744","feature_class":"P","feature_code":"PPL","country_code":"CA","cc2":"","admin1_code":"02","admin2_code":"5923","admin3_code":"","admin4_code":"","population":"1655","elevation":"","dem":"20","timezone":"America/Vancouver","modification_date":"2014-09-21"},{"geonameid":"6534203","name":"L'Ancienne-Lorette","asciiname":"L'Ancienne-Lorette","alternatenames":"","latitude":"46.79392","longitude":"-71.35191","feature_class":"P","feature_code":"PPL","country_code":"CA","cc2":"","admin1_code":"10","admin2_code":"","admin3_code":"","admin4_code":"","population":"16516","elevation":"","dem":"27","timezone":"America/Toronto","modification_date":"2010-09-22"},{"geonameid":"6545023","name":"Edmundston","asciiname":"Edmundston","alternatenames":"Edmundston,Ehdmundston,ai de meng ci dun,edomonsuton,Едмундстон,Эдмундстон,اڈمنڈسٹن,エドモンストン,埃德蒙兹顿","latitude":"47.3737","longitude":"-68.32512","feature_class":"P","feature_code":"PPL","country_code":"CA","cc2":"","admin1_code":"04","admin2_code":"","admin3_code":"","admin4_code":"","population":"16643","elevation":"200","dem":"154","timezone":"America/Moncton","modification_date":"2010-09-22"},{"geonameid":"6639619","name":"Sainte Catherine de la Jacques Cartier","asciiname":"Sainte Catherine de la Jacques Cartier","alternatenames":"","latitude":"46.85244","longitude":"-71.62056","feature_class":"P","feature_code":"PPL","country_code":"CA","cc2":"","admin1_code":"10","admin2_code":"03","admin3_code":"","admin4_code":"","population":"5021","elevation":"","dem":"159","timezone":"America/Toronto","modification_date":"2010-09-23"},{"geonameid":"6690232","name":"Baie-Saint-Paul","asciiname":"Baie-Saint-Paul","alternatenames":"Be Sen Pol,Be-Sen-Pol',bay syn pal,bh-sn-pl  kbk,byh san bwl,Бе Сен Пол,Бе-Сен-Поль,بائ سین پال,به-سن-پل، کبک,بيه سان بول","latitude":"47.44109","longitude":"-70.49858","feature_class":"P","feature_code":"PPL","country_code":"CA","cc2":"","admin1_code":"10","admin2_code":"03","admin3_code":"","admin4_code":"","population":"7288","elevation":"","dem":"7","timezone":"America/Toronto","modification_date":"2010-09-22"},{"geonameid":"6693777","name":"Carleton-sur-Mer","asciiname":"Carleton-sur-Mer","alternatenames":"Karlton sir Mer,karltwn swr myr,karltwn-swr-mr,Карлтон сир Мер,كارلتون سور مير,کارلتون-سور-مر,کارلیٹن سر مر","latitude":"48.10749","longitude":"-66.128","feature_class":"P","feature_code":"PPL","country_code":"CA","cc2":"","admin1_code":"10","admin2_code":"11","admin3_code":"","admin4_code":"","population":"4077","elevation":"","dem":"7","timezone":"America/Toronto","modification_date":"2010-09-22"},{"geonameid":"6696258","name":"Campbellton","asciiname":"Campbellton","alternatenames":"Kehmpbelton,kan bei er dun,Кэмпбелтон,کیمپبلٹن,坎贝尔顿","latitude":"48.00751","longitude":"-66.67272","feature_class":"P","feature_code":"PPL","country_code":"CA","cc2":"","admin1_code":"04","admin2_code":"11","admin3_code":"","admin4_code":"","population":"7384","elevation":"","dem":"9","timezone":"America/Moncton","modification_date":"2010-09-22"},