{"nextFile":"cities.65.json","rows":[{"geonameid":"720679","name":"Füzesgyarmat","asciiname":"Fuzesgyarmat","alternatenames":"Fuzesgyarmat,Füzesgyarmat","latitude":"47.1","longitude":"21.21667","feature_class":"P","feature_code":"PPL","country_code":"HU","cc2":"","admin1_code":"03","admin2_code":"","admin3_code":"","admin4_code":"","population":"6426","elevation":"","dem":"86","timezone":"Europe/Budapest","modification_date":"2012-01-18"},{"geonameid":"720687","name":"Füzesabony","asciiname":"Fuzesabony","alternatenames":"Fuzesabony,Füzesabony","latitude":"47.75","longitude":"20.41667","feature_class":"P","feature_code":"PPLA2","country_code":"HU","cc2":"","admin1_code":"11","admin2_code":"","admin3_code":"","admin4_code":"","population":"8182","elevation":"","dem":"112","timezone":"Europe/Budapest","modification_date":"2014-11-05"},{"geonameid":"720776","name":"Földes","asciiname":"Foldes","alternatenames":"Foldes,Földes","latitude":"47.3","longitude":"21.36667","feature_class":"P","feature_code":"PPL","country_code":"HU","cc2":"","admin1_code":"10","admin2_code":"","admin3_code":"","admin4_code":"","population":"4345","elevation":"","dem":"87","timezone":"Europe/Budapest","modification_date":"2012-05-06"},{"geonameid":"720780","name":"Földeák","asciiname":"Foldeak","alternatenames":"Foldeak,Földeák","latitude":"46.31667","longitude":"20.5","feature_class":"P","feature_code":"PPL","country_code":"HU","cc2":"","admin1_code":"06","admin2_code":"","admin3_code":"","admin4_code":"","population":"3255","elevation":"","dem":"81","timezone":"Europe/Budapest","modification_date":"2012-01-18"},{"geonameid":"720846","name":"Fényeslitke","asciiname":"Fenyeslitke","alternatenames":"Fenyeslitke,Fényeslitke","latitude":"48.27133","longitude":"22.10009","feature_class":"P","feature_code":"PPL","country_code":"HU","cc2":"","admin1_code":"18","admin2_code":"","admin3_code":"","admin4_code":"","population":"2425","elevation":"","dem":"104","timezone":"Europe/Budapest","modification_date":"2012-01-18"},{"geonameid":"720857","name":"Felsőzsolca","asciiname":"Felsozsolca","alternatenames":"Felsozsolca,Felsőzsolca","latitude":"48.1","longitude":"20.86667","feature_class":"P","feature_code":"PPL","country_code":"HU","cc2":"","admin1_code":"04","admin2_code":"","admin3_code":"","admin4_code":"","population":"7040","elevation":"","dem":"112","timezone":"Europe/Budapest","modification_date":"2012-01-18"},{"geonameid":"720862","name":"Felsőtárkány","asciiname":"Felsotarkany","alternatenames":"Felsotarkany,Felsőtárkány","latitude":"47.96667","longitude":"20.41667","feature_class":"P","feature_code":"PPL","country_code":"HU","cc2":"","admin1_code":"11","admin2_code":"","admin3_code":"","admin4_code":"","population":"3223","elevation":"","dem":"256","timezone":"Europe/Budapest","modification_date":"2016-03-10"},{"geonameid":"720988","name":"Fehérgyarmat","asciiname":"Fehergyarmat","alternatenames":"Fehergyarmat,Fehérgyarmat","latitude":"47.98333","longitude":"22.51667","feature_class":"P","feature_code":"PPLA2","country_code":"HU","cc2":"","admin1_code":"18","admin2_code":"","admin3_code":"","admin4_code":"","population":"9031","elevation":"","dem":"111","timezone":"Europe/Budapest","modification_date":"2014-11-05"},{"geonameid":"720992","name":"Fegyvernek","asciiname":"Fegyvernek","alternatenames":"Fegyvernek","latitude":"47.26667","longitude":"20.53333","feature_class":"P","feature_code":"PPL","country_code":"HU","cc2":"","admin1_code":"20","admin2_code":"","admin3_code":"","admin4_code":"","population":"6972","elevation":"","dem":"84","timezone":"Europe/Budapest","modification_date":"2012-01-18"},{"geonameid":"721022","name":"Farkaslyuk","asciiname":"Farkaslyuk","alternatenames":"Farkaslyuk Banyatelep,Farkaslyuk Bányatelep,Farkaslyuki Banyatelep,Farkaslyuki Bányatelep","latitude":"48.18333","longitude":"20.31667","feature_class":"P","feature_code":"PPL","country_code":"HU","cc2":"","admin1_code":"04","admin2_code":"","admin3_code":"","admin4_code":"","population":"1922","elevation":"","dem":"289","timezone":"Europe/Budapest","modification_date":"2007-11-05"},{"geonameid":"721068","name":"Fábiánsebestyén","asciiname":"Fabiansebestyen","alternatenames":"Fabiansebestyen,Fábiánsebestyén","latitude":"46.68333","longitude":"20.46667","feature_class":"P","feature_code":"PPL","country_code":"HU","cc2":"","admin1_code":"06","admin2_code":"","admin3_code":"","admin4_code":"","population":"2276","elevation":"","dem":"79","timezone":"Europe/Budapest","modification_date":"2012-01-18"},{"geonameid":"721119","name":"Erdőtelek","asciiname":"Erdotelek","alternatenames":"","latitude":"47.68333","longitude":"20.31667","feature_class":"P","feature_code":"PPL","country_code":"HU","cc2":"","admin1_code":"11","admin2_code":"","admin3_code":"","admin4_code":"","population":"3443","elevation":"","dem":"106","timezone":"Europe/Budapest","modification_date":"2006-01-17"},{"geonameid":"721158","name":"Encsencs","asciiname":"Encsencs","alternatenames":"Encsencs","latitude":"47.73333","longitude":"22.11667","feature_class":"P","feature_code":"PPL","country_code":"HU","cc2":"","admin1_code":"18","admin2_code":"","admin3_code":"","admin4_code":"","population":"2087","elevation":"","dem":"153","timezone":"Europe/Budapest","modification_date":"2012-01-18"},{"geonameid":"721159","name":"Encs","asciiname":"Encs","alternatenames":"Abaujdevecser,Abaújdevecser,Ehnch,Ench,Encs,Fugod,Fügöd,Gibart,Gibárt,en qi,Енч,Энч,恩奇","latitude":"48.33333","longitude":"21.13333","feature_class":"P","feature_code":"PPLA2","country_code":"HU","cc2":"","admin1_code":"04","admin2_code":"","admin3_code":"","admin4_code":"","population":"6886","elevation":"","dem":"131","timezone":"Europe/Budapest","modification_date":"2014-11-05"},{"geonameid":"721161","name":"Emőd","asciiname":"Emod","alternatenames":"Emod,Emőd","latitude":"47.93333","longitude":"20.81667","feature_class":"P","feature_code":"PPL","country_code":"HU","cc2":"","admin1_code":"04","admin2_code":"","admin3_code":"","admin4_code":"","population":"5382","elevation":"","dem":"108","timezone":"Europe/Budapest","modification_date":"2012-02-02"},{"geonameid":"721189","name":"Elek","asciiname":"Elek","alternatenames":"Elek","latitude":"46.53333","longitude":"21.25","feature_class":"P","feature_code":"PPL","country_code":"HU","cc2":"","admin1_code":"03","admin2_code":"","admin3_code":"","admin4_code":"","population":"5465","elevation":"","dem":"93","timezone":"Europe/Budapest","modification_date":"2012-01-18"},{"geonameid":"721208","name":"Egyek","asciiname":"Egyek","alternatenames":"","latitude":"47.63333","longitude":"20.9","feature_class":"P","feature_code":"PPL","country_code":"HU","cc2":"","admin1_code":"10","admin2_code":"","admin3_code":"","admin4_code":"","population":"5573","elevation":"","dem":"86","timezone":"Europe/Budapest","modification_date":"2006-01-17"},{"geonameid":"721225","name":"Egerszalók","asciiname":"Egerszalok","alternatenames":"Egerszalok,Egerszalók","latitude":"47.86667","longitude":"20.33333","feature_class":"P","feature_code":"PPL","country_code":"HU","cc2":"","admin1_code":"11","admin2_code":"","admin3_code":"","admin4_code":"","population":"1952","elevation":"","dem":"193","timezone":"Europe/Budapest","modification_date":"2012-05-06"},{"geonameid":"721239","name":"Eger","asciiname":"Eger","alternatenames":"Agria,Eger,Egera,Egeris,Egra,Egri,Ehger,Erlau,Eğri,Gorad Ehger,Jager,Jegra,Jáger,Szarvasko,Szarvaskő,agr,ai ge er,aygyr,egeleu,egeri,egeru,Јегра,Горад Эгер,Егер,Еґер,Эгер,אגר,ערלוי,اگر,ایگیر,ეგერი,エゲル,埃格爾,에게르","latitude":"47.90265","longitude":"20.37329","feature_class":"P","feature_code":"PPLA","country_code":"HU","cc2":"","admin1_code":"11","admin2_code":"","admin3_code":"","admin4_code":"","population":"56647","elevation":"","dem":"168","timezone":"Europe/Budapest","modification_date":"2015-06-17"},{"geonameid":"721246","name":"Edelény","asciiname":"Edeleny","alternatenames":"Balajt,Edeleny,Edelény,Ladbesenyo,Ládbesenyő","latitude":"48.3","longitude":"20.73333","feature_class":"P","feature_code":"PPLA2","country_code":"HU","cc2":"","admin1_code":"04","admin2_code":"","admin3_code":"","admin4_code":"","population":"11037","elevation":"","dem":"131","timezone":"Europe/Budapest","modification_date":"2014-11-05"},{"geonameid":"721257","name":"Ebes","asciiname":"Ebes","alternatenames":"Ebes","latitude":"47.46667","longitude":"21.5","feature_class":"P","feature_code":"PPL","country_code":"HU","cc2":"","admin1_code":"10","admin2_code":"","admin3_code":"","admin4_code":"","population":"4468","elevation":"","dem":"100","timezone":"Europe/Budapest","modification_date":"2012-01-18"},{"geonameid":"721304","name":"Domoszló","asciiname":"Domoszlo","alternatenames":"","latitude":"47.83333","longitude":"20.11667","feature_class":"P","feature_code":"PPL","country_code":"HU","cc2":"","admin1_code":"11","admin2_code":"","admin3_code":"","admin4_code":"","population":"2105","elevation":"","dem":"192","timezone":"Europe/Budapest","modification_date":"2006-01-17"},{"geonameid":"721309","name":"Dombrád","asciiname":"Dombrad","alternatenames":"Dombrad,Dombrád","latitude":"48.23333","longitude":"21.93333","feature_class":"P","feature_code":"PPL","country_code":"HU","cc2":"","admin1_code":"18","admin2_code":"","admin3_code":"","admin4_code":"","population":"4276","elevation":"","dem":"96","timezone":"Europe/Budapest","modification_date":"2012-01-18"},{"geonameid":"721314","name":"Dombegyház","asciiname":"Dombegyhaz","alternatenames":"Dombegyhaz,Dombegyház","latitude":"46.33333","longitude":"21.13333","feature_class":"P","feature_code":"PPL","country_code":"HU","cc2":"","admin1_code":"03","admin2_code":"","admin3_code":"","admin4_code":"","population":"2380","elevation":"","dem":"97","timezone":"Europe/Budapest","modification_date":"2012-05-06"},{"geonameid":"721316","name":"Domaszék","asciiname":"Domaszek","alternatenames":"Domaszek,Domaszék","latitude":"46.24917","longitude":"20.01111","feature_class":"P","feature_code":"PPL","country_code":"HU","cc2":"","admin1_code":"06","admin2_code":"","admin3_code":"","admin4_code":"","population":"4242","elevation":"","dem":"83","timezone":"Europe/Budapest","modification_date":"2012-01-18"},{"geonameid":"721338","name":"Döge","asciiname":"Doge","alternatenames":"Doge,Döge","latitude":"48.26246","longitude":"22.06339","feature_class":"P","feature_code":"PPL","country_code":"HU","cc2":"","admin1_code":"18","admin2_code":"","admin3_code":"","admin4_code":"","population":"2181","elevation":"","dem":"96","timezone":"Europe/Budapest","modification_date":"2012-01-18"},{"geonameid":"721349","name":"Doboz","asciiname":"Doboz","alternatenames":"Doboz","latitude":"46.73333","longitude":"21.25","feature_class":"P","feature_code":"PPL","country_code":"HU","cc2":"","admin1_code":"03","admin2_code":"","admin3_code":"","admin4_code":"","population":"4466","elevation":"","dem":"84","timezone":"Europe/Budapest","modification_date":"2012-01-18"},{"geonameid":"721404","name":"Dévaványa","asciiname":"Devavanya","alternatenames":"Devavanya,Dévaványa","latitude":"47.03333","longitude":"20.96667","feature_class":"P","feature_code":"PPL","country_code":"HU","cc2":"","admin1_code":"03","admin2_code":"","admin3_code":"","admin4_code":"","population":"8796","elevation":"","dem":"83","timezone":"Europe/Budapest","modification_date":"2012-01-18"},{"geonameid":"721411","name":"Deszk","asciiname":"Deszk","alternatenames":"Deska,Deszk,Deszka","latitude":"46.21802","longitude":"20.24322","feature_class":"P","feature_code":"PPL","country_code":"HU","cc2":"","admin1_code":"06","admin2_code":"","admin3_code":"","admin4_code":"","population":"3245","elevation":"","dem":"78","timezone":"Europe/Budapest","modification_date":"2012-01-18"},{"geonameid":"721428","name":"Derecske","asciiname":"Derecske","alternatenames":"Derecske","latitude":"47.35","longitude":"21.56667","feature_class":"P","feature_code":"PPLA2","country_code":"HU","cc2":"","admin1_code":"10","admin2_code":"","admin3_code":"","admin4_code":"","population":"9207","elevation":"","dem":"96","timezone":"Europe/Budapest","modification_date":"2014-11-05"},{"geonameid":"721444","name":"Demecser","asciiname":"Demecser","alternatenames":"Demecser","latitude":"48.11648","longitude":"21.92624","feature_class":"P","feature_code":"PPL","country_code":"HU","cc2":"","admin1_code":"18","admin2_code":"","admin3_code":"","admin4_code":"","population":"4558","elevation":"","dem":"100","timezone":"Europe/Budapest","modification_date":"2013-01-11"},{"geonameid":"721472","name":"Debrecen","asciiname":"Debrecen","alternatenames":"DEB,Debrecen,Debrecena,Debrecenas,Debrecin,Debrecinum,Debreczyn,Debrecín,Debretin,Debrețin,Ntempretsen,dbrsn,dbrtsn,dbrzn,de bu lei sen,debeulechen,debretseni,deburetsu~en,dybrysyn,Ντέμπρετσεν,Дебрецен,Дебрецин,Դեբրեցեն,דברצן,دبرتسن,دبرسن,دیبریسین,დებრეცენი,デブレツェン,德布勒森,데브레첸","latitude":"47.53333","longitude":"21.63333","feature_class":"P","feature_code":"PPLA","country_code":"HU","cc2":"","admin1_code":"10","admin2_code":"","admin3_code":"","admin4_code":"","population":"204124","elevation":"","dem":"123","timezone":"Europe/Budapest","modification_date":"2015-06-17"},{"geonameid":"721559","name":"Csorvás","asciiname":"Csorvas","alternatenames":"Csorvas,Csorvás","latitude":"46.63333","longitude":"20.83333","feature_class":"P","feature_code":"PPL","country_code":"HU","cc2":"","admin1_code":"03","admin2_code":"","admin3_code":"","admin4_code":"","population":"5643","elevation":"","dem":"89","timezone":"Europe/Budapest","modification_date":"2012-01-18"},{"geonameid":"721592","name":"Csongrád","asciiname":"Csongrad","alternatenames":"Csongrad,Csongrád","latitude":"46.71332","longitude":"20.14241","feature_class":"P","feature_code":"PPLA2","country_code":"HU","cc2":"","admin1_code":"06","admin2_code":"","admin3_code":"","admin4_code":"","population":"18580","elevation":"","dem":"81","timezone":"Europe/Budapest","modification_date":"2015-07-14"},{"geonameid":"721611","name":"Csökmő","asciiname":"Csokmo","alternatenames":"Csokmo,Csökmő","latitude":"47.03333","longitude":"21.3","feature_class":"P","feature_code":"PPL","country_code":"HU","cc2":"","admin1_code":"10","admin2_code":"","admin3_code":"","admin4_code":"","population":"2170","elevation":"","dem":"86","timezone":"Europe/Budapest","modification_date":"2012-01-18"},{"geonameid":"721712","name":"Cserkeszőlő","asciiname":"Cserkeszolo","alternatenames":"Cserkeszollo,Cserkeszolo,Cserkeszőllő,Cserkeszőlő","latitude":"46.8632","longitude":"20.18701","feature_class":"P","feature_code":"PPL","country_code":"HU","cc2":"","admin1_code":"20","admin2_code":"","admin3_code":"","admin4_code":"","population":"2182","elevation":"","dem":"87","timezone":"Europe/Budapest","modification_date":"2012-01-18"},{"geonameid":"721789","name":"Csenger","asciiname":"Csenger","alternatenames":"Csenger","latitude":"47.83582","longitude":"22.68096","feature_class":"P","feature_code":"PPLA2","country_code":"HU","cc2":"","admin1_code":"18","admin2_code":"","admin3_code":"","admin4_code":"","population":"5225","elevation":"","dem":"120","timezone":"Europe/Budapest","modification_date":"2014-11-05"},{"geonameid":"721856","name":"Csanytelek","asciiname":"Csanytelek","alternatenames":"Csanytelek","latitude":"46.59501","longitude":"20.12342","feature_class":"P","feature_code":"PPL","country_code":"HU","cc2":"","admin1_code":"06","admin2_code":"","admin3_code":"","admin4_code":"","population":"2937","elevation":"","dem":"79","timezone":"Europe/Budapest","modification_date":"2012-01-18"},{"geonameid":"721861","name":"Csanádpalota","asciiname":"Csanadpalota","alternatenames":"Csanadpalota,Csanádpalota","latitude":"46.25","longitude":"20.73333","feature_class":"P","feature_code":"PPL","country_code":"HU","cc2":"","admin1_code":"06","admin2_code":"","admin3_code":"","admin4_code":"","population":"3224","elevation":"","dem":"86","timezone":"Europe/Budapest","modification_date":"2012-01-18"},{"geonameid":"721864","name":"Csanádapáca","asciiname":"Csanadapaca","alternatenames":"Csanadapaca,Csanádapáca","latitude":"46.55","longitude":"20.88333","feature_class":"P","feature_code":"PPL","country_code":"HU","cc2":"","admin1_code":"03","admin2_code":"","admin3_code":"","admin4_code":"","population":"2811","elevation":"","dem":"90","timezone":"Europe/Budapest","modification_date":"2012-01-18"},{"geonameid":"721913","name":"Cigánd","asciiname":"Cigand","alternatenames":"Cigand,Cigánd","latitude":"48.25561","longitude":"21.89195","feature_class":"P","feature_code":"PPLA2","country_code":"HU","cc2":"","admin1_code":"04","admin2_code":"","admin3_code":"","admin4_code":"","population":"3245","elevation":"","dem":"96","timezone":"Europe/Budapest","modification_date":"2014-11-05"},{"geonameid":"721923","name":"Cibakháza","asciiname":"Cibakhaza","alternatenames":"Cibakhaza,Cibakháza","latitude":"46.95976","longitude":"20.19753","feature_class":"P","feature_code":"PPL","country_code":"HU","cc2":"","admin1_code":"20","admin2_code":"","admin3_code":"","admin4_code":"","population":"4565","elevation":"","dem":"85","timezone":"Europe/Budapest","modification_date":"2012-01-18"},{"geonameid":"721986","name":"Buj","asciiname":"Buj","alternatenames":"Buj","latitude":"48.1","longitude":"21.65","feature_class":"P","feature_code":"PPL","country_code":"HU","cc2":"","admin1_code":"18","admin2_code":"","admin3_code":"","admin4_code":"","population":"2496","elevation":"","dem":"98","timezone":"Europe/Budapest","modification_date":"2012-01-18"},{"geonameid":"722011","name":"Bucsa","asciiname":"Bucsa","alternatenames":"Bucsa","latitude":"47.2","longitude":"21","feature_class":"P","feature_code":"PPL","country_code":"HU","cc2":"","admin1_code":"03","admin2_code":"","admin3_code":"","admin4_code":"","population":"2479","elevation":"","dem":"85","timezone":"Europe/Budapest","modification_date":"2012-01-18"},{"geonameid":"722057","name":"Borsodnádasd","asciiname":"Borsodnadasd","alternatenames":"Borsodnadasd,Borsodnádasd","latitude":"48.11667","longitude":"20.25","feature_class":"P","feature_code":"PPL","country_code":"HU","cc2":"","admin1_code":"04","admin2_code":"","admin3_code":"","admin4_code":"","population":"3546","elevation":"","dem":"229","timezone":"Europe/Budapest","modification_date":"2012-02-02"},{"geonameid":"722118","name":"Boldva","asciiname":"Boldva","alternatenames":"Boldva","latitude":"48.21667","longitude":"20.8","feature_class":"P","feature_code":"PPL","country_code":"HU","cc2":"","admin1_code":"04","admin2_code":"","admin3_code":"","admin4_code":"","population":"2456","elevation":"","dem":"120","timezone":"Europe/Budapest","modification_date":"2012-02-02"},{"geonameid":"722133","name":"Bököny","asciiname":"Bokony","alternatenames":"Bokony,Bököny","latitude":"47.73333","longitude":"21.75","feature_class":"P","feature_code":"PPL","country_code":"HU","cc2":"","admin1_code":"18","admin2_code":"","admin3_code":"","admin4_code":"","population":"3310","elevation":"","dem":"134","timezone":"Europe/Budapest","modification_date":"2012-01-18"},{"geonameid":"722171","name":"Bogács","asciiname":"Bogacs","alternatenames":"Bogacs,Bogács","latitude":"47.9","longitude":"20.53333","feature_class":"P","feature_code":"PPL","country_code":"HU","cc2":"","admin1_code":"04","admin2_code":"","admin3_code":"","admin4_code":"","population":"2112","elevation":"","dem":"165","timezone":"Europe/Budapest","modification_date":"2012-01-18"},{"geonameid":"722223","name":"Bőcs","asciiname":"Bocs","alternatenames":"Bocs,Bőcs","latitude":"48.05","longitude":"20.96667","feature_class":"P","feature_code":"PPL","country_code":"HU","cc2":"","admin1_code":"04","admin2_code":"","admin3_code":"","admin4_code":"","population":"2677","elevation":"","dem":"102","timezone":"Europe/Budapest","modification_date":"2012-01-18"},{"geonameid":"722278","name":"Biharnagybajom","asciiname":"Biharnagybajom","alternatenames":"Biharnagybajom","latitude":"47.21667","longitude":"21.23333","feature_class":"P","feature_code":"PPL","country_code":"HU","cc2":"","admin1_code":"10","admin2_code":"","admin3_code":"","admin4_code":"","population":"2936","elevation":"","dem":"86","timezone":"Europe/Budapest","modification_date":"2012-01-18"},{"geonameid":"722281","name":"Biharkeresztes","asciiname":"Biharkeresztes","alternatenames":"Biharkeresztes","latitude":"47.13333","longitude":"21.71667","feature_class":"P","feature_code":"PPL","country_code":"HU","cc2":"","admin1_code":"10","admin2_code":"","admin3_code":"","admin4_code":"","population":"4237","elevation":"","dem":"98","timezone":"Europe/Budapest","modification_date":"2012-01-18"},{"geonameid":"722300","name":"Besenyszög","asciiname":"Besenyszog","alternatenames":"Besenyszog,Besenyszög","latitude":"47.3","longitude":"20.26667","feature_class":"P","feature_code":"PPL","country_code":"HU","cc2":"","admin1_code":"20","admin2_code":"","admin3_code":"","admin4_code":"","population":"3460","elevation":"","dem":"81","timezone":"Europe/Budapest","modification_date":"2012-01-18"},{"geonameid":"722301","name":"Besenyőtelek","asciiname":"Besenyotelek","alternatenames":"","latitude":"47.7","longitude":"20.43333","feature_class":"P","feature_code":"PPL","country_code":"HU","cc2":"","admin1_code":"11","admin2_code":"","admin3_code":"","admin4_code":"","population":"2847","elevation":"","dem":"103","timezone":"Europe/Budapest","modification_date":"2006-01-17"},{"geonameid":"722324","name":"Berettyóújfalu","asciiname":"Berettyoujfalu","alternatenames":"Berettyoujfalu,Berettyóújfalu","latitude":"47.21667","longitude":"21.55","feature_class":"P","feature_code":"PPLA2","country_code":"HU","cc2":"","admin1_code":"10","admin2_code":"","admin3_code":"","admin4_code":"","population":"16090","elevation":"","dem":"93","timezone":"Europe/Budapest","modification_date":"2014-11-05"},{"geonameid":"722424","name":"Bélapátfalva","asciiname":"Belapatfalva","alternatenames":"Belapatfalva,Bélapátfalva","latitude":"48.05","longitude":"20.36667","feature_class":"P","feature_code":"PPLA2","country_code":"HU","cc2":"","admin1_code":"11","admin2_code":"","admin3_code":"","admin4_code":"","population":"3401","elevation":"","dem":"398","timezone":"Europe/Budapest","modification_date":"2014-11-05"},{"geonameid":"722431","name":"Békésszentandrás","asciiname":"Bekesszentandras","alternatenames":"Bekesszentadras,Bekesszentandras,Békésszentadrás,Békésszentandrás","latitude":"46.86667","longitude":"20.48333","feature_class":"P","feature_code":"PPL","country_code":"HU","cc2":"","admin1_code":"03","admin2_code":"","admin3_code":"","admin4_code":"","population":"4103","elevation":"","dem":"82","timezone":"Europe/Budapest","modification_date":"2012-01-18"},{"geonameid":"722432","name":"Békéssámson","asciiname":"Bekessamson","alternatenames":"Bekessamson,Békéssámson","latitude":"46.41667","longitude":"20.63333","feature_class":"P","feature_code":"PPL","country_code":"HU","cc2":"","admin1_code":"03","admin2_code":"","admin3_code":"","admin4_code":"","population":"2581","elevation":"","dem":"85","timezone":"Europe/Budapest","modification_date":"2012-01-18"},{"geonameid":"722437","name":"Békéscsaba","asciiname":"Bekescsaba","alternatenames":"Bekescab,Bekescaba,Bekescsaba,Bekeshchaba,Bekesska Caba,Bekeščab,Bekeščaba,Bichisciaba,Bichișciaba,Békešská Čaba,Békéscsaba,Gerla,Mezomegyer,Mezőmegyer,Nagymajor,bei kai shen qiao bao,bekeshuchaba,bekesyucheobeo,bykyschaba,bykyshchaba,Бекешчаба,בקשצאבה,بیکیسچابا,بیکیشچابا,ბეკეშჩაბა,ベーケーシュチャバ,貝凱什喬包,베케슈처버","latitude":"46.68333","longitude":"21.1","feature_class":"P","feature_code":"PPLA","country_code":"HU","cc2":"","admin1_code":"03","admin2_code":"","admin3_code":"","admin4_code":"","population":"65206","elevation":"","dem":"87","timezone":"Europe/Budapest","modification_date":"2015-06-17"},{"geonameid":"722439","name":"Békés","asciiname":"Bekes","alternatenames":"Bekes,Bekes megye,Bekesh,Békés,Békés megye,Comitatul Bekes,Comitatul Békés,Бекеш","latitude":"46.76667","longitude":"21.13333","feature_class":"P","feature_code":"PPLA2","country_code":"HU","cc2":"","admin1_code":"03","admin2_code":"","admin3_code":"","admin4_code":"","population":"21198","elevation":"","dem":"83","timezone":"Europe/Budapest","modification_date":"2014-11-05"},{"geonameid":"722448","name":"Bekecs","asciiname":"Bekecs","alternatenames":"Bekecs","latitude":"48.15","longitude":"21.18333","feature_class":"P","feature_code":"PPL","country_code":"HU","cc2":"","admin1_code":"04","admin2_code":"","admin3_code":"","admin4_code":"","population":"2446","elevation":"","dem":"100","timezone":"Europe/Budapest","modification_date":"2012-01-18"},{"geonameid":"722477","name":"Battonya","asciiname":"Battonya","alternatenames":"Battonya","latitude":"46.28333","longitude":"21.01667","feature_class":"P","feature_code":"PPL","country_code":"HU","cc2":"","admin1_code":"03","admin2_code":"","admin3_code":"","admin4_code":"","population":"6604","elevation":"","dem":"100","timezone":"Europe/Budapest","modification_date":"2012-01-18"},{"geonameid":"722555","name":"Báránd","asciiname":"Barand","alternatenames":"Barand,Báránd","latitude":"47.3","longitude":"21.23333","feature_class":"P","feature_code":"PPL","country_code":"HU","cc2":"","admin1_code":"10","admin2_code":"","admin3_code":"","admin4_code":"","population":"2728","elevation":"","dem":"87","timezone":"Europe/Budapest","modification_date":"2012-01-18"},{"geonameid":"722636","name":"Balmazújváros","asciiname":"Balmazujvaros","alternatenames":"Balmazujvaros,Balmazújváros","latitude":"47.61667","longitude":"21.35","feature_class":"P","feature_code":"PPLA2","country_code":"HU","cc2":"","admin1_code":"10","admin2_code":"","admin3_code":"","admin4_code":"","population":"18012","elevation":"","dem":"89","timezone":"Europe/Budapest","modification_date":"2014-11-05"},{"geonameid":"722650","name":"Balkány","asciiname":"Balkany","alternatenames":"","latitude":"47.77066","longitude":"21.86314","feature_class":"P","feature_code":"PPL","country_code":"HU","cc2":"","admin1_code":"18","admin2_code":"","admin3_code":"","admin4_code":"","population":"6798","elevation":"","dem":"138","timezone":"Europe/Budapest","modification_date":"2008-03-26"},{"geonameid":"722676","name":"Balástya","asciiname":"Balastya","alternatenames":"Balastya,Balástya,Felsokozpont,Felsőközpont","latitude":"46.42277","longitude":"20.00816","feature_class":"P","feature_code":"PPL","country_code":"HU","cc2":"","admin1_code":"06","admin2_code":"","admin3_code":"","admin4_code":"","population":"3564","elevation":"","dem":"85","timezone":"Europe/Budapest","modification_date":"2012-01-18"},{"geonameid":"722682","name":"Baktalórántháza","asciiname":"Baktaloranthaza","alternatenames":"Baktaloranthaza,Baktalórántháza","latitude":"48","longitude":"22.08333","feature_class":"P","feature_code":"PPLA2","country_code":"HU","cc2":"","admin1_code":"18","admin2_code":"","admin3_code":"","admin4_code":"","population":"4265","elevation":"","dem":"130","timezone":"Europe/Budapest","modification_date":"2014-11-05"},{"geonameid":"722691","name":"Baks","asciiname":"Baks","alternatenames":"Baks,Baksi-major,Baksiret,Baksirét","latitude":"46.54297","longitude":"20.10213","feature_class":"P","feature_code":"PPL","country_code":"HU","cc2":"","admin1_code":"06","admin2_code":"","admin3_code":"","admin4_code":"","population":"2292","elevation":"","dem":"80","timezone":"Europe/Budapest","modification_date":"2012-01-18"},{"geonameid":"722738","name":"Bagamér","asciiname":"Bagamer","alternatenames":"Bagamer,Bagamér","latitude":"47.44882","longitude":"21.989","feature_class":"P","feature_code":"PPL","country_code":"HU","cc2":"","admin1_code":"10","admin2_code":"","admin3_code":"","admin4_code":"","population":"2433","elevation":"","dem":"129","timezone":"Europe/Budapest","modification_date":"2012-01-18"},{"geonameid":"722775","name":"Aszaló","asciiname":"Aszalo","alternatenames":"Aszalo,Aszaló","latitude":"48.21667","longitude":"20.96667","feature_class":"P","feature_code":"PPL","country_code":"HU","cc2":"","admin1_code":"04","admin2_code":"","admin3_code":"","admin4_code":"","population":"2008","elevation":"","dem":"115","timezone":"Europe/Budapest","modification_date":"2012-01-18"},{"geonameid":"722802","name":"Arnót","asciiname":"Arnot","alternatenames":"","latitude":"48.13058","longitude":"20.85832","feature_class":"P","feature_code":"PPL","country_code":"HU","cc2":"","admin1_code":"04","admin2_code":"","admin3_code":"","admin4_code":"","population":"2493","elevation":"","dem":"112","timezone":"Europe/Budapest","modification_date":"2010-04-07"},{"geonameid":"722803","name":"Arló","asciiname":"Arlo","alternatenames":"Arlo,Arló","latitude":"48.18333","longitude":"20.26667","feature_class":"P","feature_code":"PPL","country_code":"HU","cc2":"","admin1_code":"04","admin2_code":"","admin3_code":"","admin4_code":"","population":"4129","elevation":"","dem":"257","timezone":"Europe/Budapest","modification_date":"2012-01-18"},{"geonameid":"722823","name":"Aranyosapáti","asciiname":"Aranyosapati","alternatenames":"Aranyosapati,Aranyosapáti,Kopocsapati,Kopócsapáti,Revaranyos,Révaranyos","latitude":"48.20595","longitude":"22.25916","feature_class":"P","feature_code":"PPL","country_code":"HU","cc2":"","admin1_code":"18","admin2_code":"","admin3_code":"","admin4_code":"","population":"2142","elevation":"","dem":"108","timezone":"Europe/Budapest","modification_date":"2012-01-18"},{"geonameid":"722849","name":"Apátfalva","asciiname":"Apatfalva","alternatenames":"","latitude":"46.16667","longitude":"20.58333","feature_class":"P","feature_code":"PPL","country_code":"HU","cc2":"","admin1_code":"06","admin2_code":"","admin3_code":"","admin4_code":"","population":"3268","elevation":"","dem":"82","timezone":"Europe/Budapest","modification_date":"2010-04-07"},{"geonameid":"722852","name":"Apagy","asciiname":"Apagy","alternatenames":"Apagy","latitude":"47.96431","longitude":"21.93539","feature_class":"P","feature_code":"PPL","country_code":"HU","cc2":"","admin1_code":"18","admin2_code":"","admin3_code":"","admin4_code":"","population":"2348","elevation":"","dem":"117","timezone":"Europe/Budapest","modification_date":"2012-01-18"},{"geonameid":"722872","name":"Andornaktálya","asciiname":"Andornaktalya","alternatenames":"","latitude":"47.85","longitude":"20.41667","feature_class":"P","feature_code":"PPL","country_code":"HU","cc2":"","admin1_code":"11","admin2_code":"","admin3_code":"","admin4_code":"","population":"2636","elevation":"","dem":"172","timezone":"Europe/Budapest","modification_date":"2006-01-17"},{"geonameid":"722876","name":"Anarcs","asciiname":"Anarcs","alternatenames":"Anarcs","latitude":"48.17642","longitude":"22.11167","feature_class":"P","feature_code":"PPL","country_code":"HU","cc2":"","admin1_code":"18","admin2_code":"","admin3_code":"","admin4_code":"","population":"2021","elevation":"","dem":"106","timezone":"Europe/Budapest","modification_date":"2012-01-18"},{"geonameid":"722882","name":"Alsózsolca","asciiname":"Alsozsolca","alternatenames":"","latitude":"48.06982","longitude":"20.88046","feature_class":"P","feature_code":"PPL","country_code":"HU","cc2":"","admin1_code":"04","admin2_code":"","admin3_code":"","admin4_code":"","population":"6044","elevation":"","dem":"113","timezone":"Europe/Budapest","modification_date":"2010-04-07"},{"geonameid":"722973","name":"Alattyán","asciiname":"Alattyan","alternatenames":"Alattyan,Alattyán","latitude":"47.42705","longitude":"20.04219","feature_class":"P","feature_code":"PPL","country_code":"HU","cc2":"","admin1_code":"20","admin2_code":"","admin3_code":"","admin4_code":"","population":"2004","elevation":"","dem":"89","timezone":"Europe/Budapest","modification_date":"2012-01-18"},{"geonameid":"722998","name":"Ajak","asciiname":"Ajak","alternatenames":"Ajak","latitude":"48.17664","longitude":"22.06273","feature_class":"P","feature_code":"PPL","country_code":"HU","cc2":"","admin1_code":"18","admin2_code":"","admin3_code":"","admin4_code":"","population":"3983","elevation":"","dem":"101","timezone":"Europe/Budapest","modification_date":"2012-01-18"},{"geonameid":"723030","name":"Abony","asciiname":"Abony","alternatenames":"Abony","latitude":"47.1899","longitude":"20.00476","feature_class":"P","feature_code":"PPL","country_code":"HU","cc2":"","admin1_code":"16","admin2_code":"","admin3_code":"","admin4_code":"","population":"16342","elevation":"","dem":"91","timezone":"Europe/Budapest","modification_date":"2012-01-18"},{"geonameid":"723036","name":"Abaújszántó","asciiname":"Abaujszanto","alternatenames":"Abaujsanto,Abaujszanto,Abaújszántó,Gorad Abaujsanta,ao bao wu yi sang tuo,Абауйсанто,Горад Абаўйсанта,اباوج‌س‌زانتا,奥包乌伊桑托","latitude":"48.28333","longitude":"21.2","feature_class":"P","feature_code":"PPL","country_code":"HU","cc2":"","admin1_code":"04","admin2_code":"","admin3_code":"","admin4_code":"","population":"3366","elevation":"","dem":"129","timezone":"Europe/Budapest","modification_date":"2012-02-02"},{"geonameid":"723041","name":"Abasár","asciiname":"Abasar","alternatenames":"Abasar,Abasár,Palosvorosmart,Pálosvörösmart","latitude":"47.79705","longitude":"20.00324","feature_class":"P","feature_code":"PPL","country_code":"HU","cc2":"","admin1_code":"11","admin2_code":"","admin3_code":"","admin4_code":"","population":"3189","elevation":"","dem":"175","timezone":"Europe/Budapest","modification_date":"2012-01-18"},{"geonameid":"723044","name":"Abádszalók","asciiname":"Abadszalok","alternatenames":"Abadszalok,Abádszalók","latitude":"47.46667","longitude":"20.6","feature_class":"P","feature_code":"PPL","country_code":"HU","cc2":"","admin1_code":"20","admin2_code":"","admin3_code":"","admin4_code":"","population":"4654","elevation":"","dem":"87","timezone":"Europe/Budapest","modification_date":"2012-01-18"},{"geonameid":"3042441","name":"Zsombó","asciiname":"Zsombo","alternatenames":"Zsombo,Zsombó","latitude":"46.32566","longitude":"19.97464","feature_class":"P","feature_code":"PPL","country_code":"HU","cc2":"","admin1_code":"06","admin2_code":"","admin3_code":"","admin4_code":"","population":"3268","elevation":"","dem":"87","timezone":"Europe/Budapest","modification_date":"2012-01-18"},{"geonameid":"3042504","name":"Zsámbok","asciiname":"Zsambok","alternatenames":"Zsambok,Zsámbok","latitude":"47.54381","longitude":"19.61048","feature_class":"P","feature_code":"PPL","country_code":"HU","cc2":"","admin1_code":"16","admin2_code":"","admin3_code":"","admin4_code":"","population":"2474","elevation":"","dem":"130","timezone":"Europe/Budapest","modification_date":"2012-05-06"},{"geonameid":"3042507","name":"Zsámbék","asciiname":"Zsambek","alternatenames":"Zsambek,Zsámbék","latitude":"47.54814","longitude":"18.72011","feature_class":"P","feature_code":"PPL","country_code":"HU","cc2":"","admin1_code":"16","admin2_code":"","admin3_code":"","admin4_code":"","population":"4791","elevation":"","dem":"168","timezone":"Europe/Budapest","modification_date":"2012-02-02"},{"geonameid":"3042516","name":"Zomba","asciiname":"Zomba","alternatenames":"Zomba","latitude":"46.41084","longitude":"18.56577","feature_class":"P","feature_code":"PPL","country_code":"HU","cc2":"","admin1_code":"21","admin2_code":"","admin3_code":"","admin4_code":"","population":"2286","elevation":"","dem":"120","timezone":"Europe/Budapest","modification_date":"2012-05-06"},{"geonameid":"3042536","name":"Zirc","asciiname":"Zirc","alternatenames":"","latitude":"47.26362","longitude":"17.87373","feature_class":"P","feature_code":"PPL","country_code":"HU","cc2":"","admin1_code":"23","admin2_code":"","admin3_code":"","admin4_code":"","population":"7314","elevation":"","dem":"395","timezone":"Europe/Budapest","modification_date":"2007-06-13"},{"geonameid":"3042569","name":"Zánka","asciiname":"Zanka","alternatenames":"Zanka,Zánka","latitude":"46.87146","longitude":"17.68473","feature_class":"P","feature_code":"PPL","country_code":"HU","cc2":"","admin1_code":"23","admin2_code":"","admin3_code":"","admin4_code":"","population":"1003","elevation":"","dem":"110","timezone":"Europe/Budapest","modification_date":"2012-03-06"},{"geonameid":"3042575","name":"Zámoly","asciiname":"Zamoly","alternatenames":"Zamoly,Zámoly","latitude":"47.31667","longitude":"18.4081","feature_class":"P","feature_code":"PPL","country_code":"HU","cc2":"","admin1_code":"08","admin2_code":"","admin3_code":"","admin4_code":"","population":"2194","elevation":"","dem":"146","timezone":"Europe/Budapest","modification_date":"2012-05-06"},{"geonameid":"3042580","name":"Zamárdi","asciiname":"Zamardi","alternatenames":"Balatonzamardi,Balatonzamárdi,Zamardi,Zamárdi","latitude":"46.88488","longitude":"17.95366","feature_class":"P","feature_code":"PPL","country_code":"HU","cc2":"","admin1_code":"17","admin2_code":"","admin3_code":"","admin4_code":"","population":"2211","elevation":"","dem":"105","timezone":"Europe/Budapest","modification_date":"2012-01-18"},{"geonameid":"3042603","name":"Zalaszentgrót","asciiname":"Zalaszentgrot","alternatenames":"Csaford,Csáford,Tekenye,Zalakoppany,Zalakoppány,Zalaszentgrot,Zalaszentgrót,Zalaudvarnok","latitude":"46.94474","longitude":"17.07925","feature_class":"P","feature_code":"PPLA2","country_code":"HU","cc2":"","admin1_code":"24","admin2_code":"","admin3_code":"","admin4_code":"","population":"7796","elevation":"","dem":"124","timezone":"Europe/Budapest","modification_date":"2014-11-05"},{"geonameid":"3042617","name":"Zalalövő","asciiname":"Zalalovo","alternatenames":"Zalalovo,Zalalövő","latitude":"46.84802","longitude":"16.5875","feature_class":"P","feature_code":"PPL","country_code":"HU","cc2":"","admin1_code":"24","admin2_code":"","admin3_code":"","admin4_code":"","population":"3195","elevation":"","dem":"199","timezone":"Europe/Budapest","modification_date":"2012-05-06"},{"geonameid":"3042621","name":"Zalakomár","asciiname":"Zalakomar","alternatenames":"Zalakomar,Zalakomár","latitude":"46.53795","longitude":"17.18094","feature_class":"P","feature_code":"PPL","country_code":"HU","cc2":"","admin1_code":"24","admin2_code":"","admin3_code":"","admin4_code":"","population":"3103","elevation":"","dem":"124","timezone":"Europe/Budapest","modification_date":"2012-05-06"},{"geonameid":"3042638","name":"Zalaegerszeg","asciiname":"Zalaegerszeg","alternatenames":"Jegersek,Zalaederseg,Zalaegerseg,Zalaegersegas,Zalaegerszeg,Zalaegerszegium,Zalaehgerseg,jeolleoegeleusegeu,zalaegersegi,zalaygrsg,zalaygyrshyg,zaraegerusegu,zuo luo ai ge sai ge,Залаегерсег,Залаеґерсеґ,Залаэгерсег,זאלאגרסג,زالائگرسگ,زالائگیرشیگ,ზალაეგერსეგი,ザラエゲルセグ,佐洛埃格塞格,절러에게르세그","latitude":"46.84","longitude":"16.84389","feature_class":"P","feature_code":"PPLA","country_code":"HU","cc2":"","admin1_code":"24","admin2_code":"","admin3_code":"","admin4_code":"","population":"61898","elevation":"","dem":"152","timezone":"Europe/Budapest","modification_date":"2015-06-17"},{"geonameid":"3042652","name":"Zákányszék","asciiname":"Zakanyszek","alternatenames":"Szegi Tanya,Zakanyszek,Zákányszék","latitude":"46.27453","longitude":"19.88975","feature_class":"P","feature_code":"PPL","country_code":"HU","cc2":"","admin1_code":"06","admin2_code":"","admin3_code":"","admin4_code":"","population":"2747","elevation":"","dem":"94","timezone":"Europe/Budapest","modification_date":"2012-01-18"},{"geonameid":"3042661","name":"Zagyvaszántó","asciiname":"Zagyvaszanto","alternatenames":"","latitude":"47.77703","longitude":"19.67092","feature_class":"P","feature_code":"PPL","country_code":"HU","cc2":"","admin1_code":"11","admin2_code":"","admin3_code":"","admin4_code":"","population":"2067","elevation":"","dem":"131","timezone":"Europe/Budapest","modification_date":"2011-04-19"},{"geonameid":"3042746","name":"Vonyarcvashegy","asciiname":"Vonyarcvashegy","alternatenames":"Vonyarcvashegy","latitude":"46.75742","longitude":"17.31172","feature_class":"P","feature_code":"PPL","country_code":"HU","cc2":"","admin1_code":"24","admin2_code":"","admin3_code":"","admin4_code":"","population":"1902","elevation":"","dem":"113","timezone":"Europe/Budapest","modification_date":"2012-01-18"},{"geonameid":"3042824","name":"Visegrád","asciiname":"Visegrad","alternatenames":"Gorad Vishehgrad,Visegrad,Visegradas,Visegrád,Vishegrad,Vişegrad,Višegrad,Višegradas,Vysehrad,Vyšehrad,Wyszehrad,bisyegeuladeu,vishegradi,vu~ishegurado,waysgrad,wei xie ge la de,wysgrd,Вишеград,Горад Вішэград,וישגרד,وایسگراد,ვიშეგრადი,ヴィシェグラード,維謝格拉德,비셰그라드","latitude":"47.78526","longitude":"18.9709","feature_class":"P","feature_code":"PPL","country_code":"HU","cc2":"","admin1_code":"16","admin2_code":"","admin3_code":"","admin4_code":"","population":"1713","elevation":"","dem":"110","timezone":"Europe/Budapest","modification_date":"2015-06-17"},{"geonameid":"3042871","name":"Villány","asciiname":"Villany","alternatenames":"Villany,Villány","latitude":"45.86889","longitude":"18.45389","feature_class":"P","feature_code":"PPL","country_code":"HU","cc2":"","admin1_code":"02","admin2_code":"","admin3_code":"","admin4_code":"","population":"2738","elevation":"","dem":"101","timezone":"Europe/Budapest","modification_date":"2012-02-02"},{"geonameid":"3042929","name":"Veszprém","asciiname":"Veszprem","alternatenames":"Comitatul Veszprem,Comitatul Veszprém,Gyulafiratot,Gyulafirátót,Kadarta,Kádárta,Vesprem,Vespremas,Vesprim,Vesprimia,Vesprém,Vesprėmas,Vessprem,Vessprém,Veszprem,Veszprem megye,Veszprim,Veszprém,Veszprém megye,Wesprim,ZFP,beseupeulem,vu~esupuremu,wei si pu lei mu,wei si pu lei mu zhou,wshprym,wsprm,wsprym,Веспрем,וספרם,وسپریم,وشپریم,ვესპრემი,ヴェスプレーム,維斯普雷姆,維斯普雷姆州,베스프렘","latitude":"47.09327","longitude":"17.91149","feature_class":"P","feature_code":"PPLA","country_code":"HU","cc2":"","admin1_code":"23","admin2_code":"","admin3_code":"","admin4_code":"","population":"62023","elevation":"","dem":"265","timezone":"Europe/Budapest","modification_date":"2015-11-19"},{"geonameid":"3042941","name":"Vértesszőlős","asciiname":"Vertesszolos","alternatenames":"Vertesszollos,Vertesszolos,Vértesszőllős,Vértesszőlős","latitude":"47.62106","longitude":"18.3813","feature_class":"P","feature_code":"PPL","country_code":"HU","cc2":"","admin1_code":"12","admin2_code":"","admin3_code":"","admin4_code":"","population":"2747","elevation":"","dem":"157","timezone":"Europe/Budapest","modification_date":"2012-01-18"},{"geonameid":"3042956","name":"Verőce","asciiname":"Veroce","alternatenames":"Nogradveroce,Nógrádverőce","latitude":"47.82468","longitude":"19.03484","feature_class":"P","feature_code":"PPL","country_code":"HU","cc2":"","admin1_code":"16","admin2_code":"","admin3_code":"","admin4_code":"","population":"3352","elevation":"","dem":"113","timezone":"Europe/Budapest","modification_date":"2010-04-02"},{"geonameid":"3042968","name":"Veresegyház","asciiname":"Veresegyhaz","alternatenames":"Veresegyhaz,Veresegyház","latitude":"47.6459","longitude":"19.29536","feature_class":"P","feature_code":"PPL","country_code":"HU","cc2":"","admin1_code":"16","admin2_code":"","admin3_code":"","admin4_code":"","population":"11087","elevation":"","dem":"175","timezone":"Europe/Budapest","modification_date":"2012-01-18"},{"geonameid":"3042977","name":"Vép","asciiname":"Vep","alternatenames":"Weltendorf,Wettendorf","latitude":"47.23041","longitude":"16.72248","feature_class":"P","feature_code":"PPL","country_code":"HU","cc2":"","admin1_code":"22","admin2_code":"","admin3_code":"","admin4_code":"","population":"3460","elevation":"","dem":"191","timezone":"Europe/Budapest","modification_date":"2008-07-03"},{"geonameid":"3042998","name":"Velence","asciiname":"Velence","alternatenames":"Velence","latitude":"47.23855","longitude":"18.65484","feature_class":"P","feature_code":"PPL","country_code":"HU","cc2":"","admin1_code":"08","admin2_code":"","admin3_code":"","admin4_code":"","population":"4832","elevation":"","dem":"110","timezone":"Europe/Budapest","modification_date":"2012-02-02"},{"geonameid":"3043019","name":"Vecsés","asciiname":"Vecses","alternatenames":"Vecses,Vecsés","latitude":"47.40705","longitude":"19.28648","feature_class":"P","feature_code":"PPLA2","country_code":"HU","cc2":"","admin1_code":"16","admin2_code":"","admin3_code":"","admin4_code":"","population":"19327","elevation":"","dem":"120","timezone":"Europe/Budapest","modification_date":"2014-11-05"},{"geonameid":"3043033","name":"Vasvár","asciiname":"Vasvar","alternatenames":"Eisenburg,Kismakfa,Kismákfa,Nagymakfa,Nagymákfa","latitude":"47.04928","longitude":"16.79954","feature_class":"P","feature_code":"PPL","country_code":"HU","cc2":"","admin1_code":"22","admin2_code":"","admin3_code":"","admin4_code":"","population":"4613","elevation":"","dem":"202","timezone":"Europe/Budapest","modification_date":"2010-04-02"},{"geonameid":"3043048","name":"Vaskút","asciiname":"Vaskut","alternatenames":"Vaskut,Vaskút","latitude":"46.10782","longitude":"18.98514","feature_class":"P","feature_code":"PPL","country_code":"HU","cc2":"","admin1_code":"01","admin2_code":"","admin3_code":"","admin4_code":"","population":"3613","elevation":"","dem":"101","timezone":"Europe/Budapest","modification_date":"2012-01-18"},{"geonameid":"3043095","name":"Várpalota","asciiname":"Varpalota","alternatenames":"Varpalota,Várpalota","latitude":"47.19936","longitude":"18.13954","feature_class":"P","feature_code":"PPLA2","country_code":"HU","cc2":"","admin1_code":"23","admin2_code":"","admin3_code":"","admin4_code":"","population":"21299","elevation":"","dem":"158","timezone":"Europe/Budapest","modification_date":"2014-11-05"},{"geonameid":"3043111","name":"Városföld","asciiname":"Varosfoeld","alternatenames":"","latitude":"46.81674","longitude":"19.75668","feature_class":"P","feature_code":"PPL","country_code":"HU","cc2":"","admin1_code":"01","admin2_code":"","admin3_code":"","admin4_code":"","population":"2248","elevation":"","dem":"108","timezone":"Europe/Budapest","modification_date":"2010-04-07"},{"geonameid":"3043210","name":"Vámosgyörk","asciiname":"Vamosgyork","alternatenames":"Vamosgyork,Vámosgyörk","latitude":"47.68429","longitude":"19.92924","feature_class":"P","feature_code":"PPL","country_code":"HU","cc2":"","admin1_code":"11","admin2_code":"","admin3_code":"","admin4_code":"","population":"2020","elevation":"","dem":"106","timezone":"Europe/Budapest","modification_date":"2012-05-06"},{"geonameid":"3043217","name":"Valkó","asciiname":"Valko","alternatenames":"Valko,Valkó","latitude":"47.56391","longitude":"19.51267","feature_class":"P","feature_code":"PPL","country_code":"HU","cc2":"","admin1_code":"16","admin2_code":"","admin3_code":"","admin4_code":"","population":"2461","elevation":"","dem":"155","timezone":"Europe/Budapest","modification_date":"2012-05-06"},{"geonameid":"3043224","name":"Vál","asciiname":"Val","alternatenames":"Val,Vál","latitude":"47.36264","longitude":"18.67931","feature_class":"P","feature_code":"PPL","country_code":"HU","cc2":"","admin1_code":"08","admin2_code":"","admin3_code":"","admin4_code":"","population":"2348","elevation":"","dem":"114","timezone":"Europe/Budapest","modification_date":"2012-05-06"},{"geonameid":"3043233","name":"Vajszló","asciiname":"Vajszlo","alternatenames":"Vajszlo,Vajszló","latitude":"45.85957","longitude":"17.98406","feature_class":"P","feature_code":"PPL","country_code":"HU","cc2":"","admin1_code":"02","admin2_code":"","admin3_code":"","admin4_code":"","population":"1888","elevation":"","dem":"100","timezone":"Europe/Budapest","modification_date":"2012-01-18"},{"geonameid":"3043278","name":"Vácszentlászló","asciiname":"Vacszentlaszlo","alternatenames":"Vacszentlaszlo,Vácszentlászló","latitude":"47.574","longitude":"19.53771","feature_class":"P","feature_code":"PPL","country_code":"HU","cc2":"","admin1_code":"16","admin2_code":"","admin3_code":"","admin4_code":"","population":"2085","elevation":"","dem":"165","timezone":"Europe/Budapest","modification_date":"2012-05-06"},{"geonameid":"3043293","name":"Vác","asciiname":"Vac","alternatenames":"Vac,Vacas,Vacov,Vacz,Vác,Vácz,Waitzen,fak,vu~achi,wa ci,wats,Вац,فاك,واتس,ヴァーチ,瓦茨","latitude":"47.77591","longitude":"19.13612","feature_class":"P","feature_code":"PPL","country_code":"HU","cc2":"","admin1_code":"16","admin2_code":"","admin3_code":"","admin4_code":"","population":"35108","elevation":"","dem":"113","timezone":"Europe/Budapest","modification_date":"2015-06-17"},{"geonameid":"3043317","name":"Üröm","asciiname":"Urom","alternatenames":"Urom,Üröm","latitude":"47.59674","longitude":"19.01583","feature_class":"P","feature_code":"PPL","country_code":"HU","cc2":"","admin1_code":"16","admin2_code":"","admin3_code":"","admin4_code":"","population":"4753","elevation":"","dem":"181","timezone":"Europe/Budapest","modification_date":"2012-05-06"},{"geonameid":"3043318","name":"Úrkút","asciiname":"Urkut","alternatenames":"Urkut,Úrkút","latitude":"47.08505","longitude":"17.64393","feature_class":"P","feature_code":"PPL","country_code":"HU","cc2":"","admin1_code":"23","admin2_code":"","admin3_code":"","admin4_code":"","population":"2178","elevation":"","dem":"414","timezone":"Europe/Budapest","modification_date":"2012-05-06"},{"geonameid":"3043321","name":"Úri","asciiname":"Uri","alternatenames":"Uri,Úri","latitude":"47.41429","longitude":"19.52762","feature_class":"P","feature_code":"PPL","country_code":"HU","cc2":"","admin1_code":"16","admin2_code":"","admin3_code":"","admin4_code":"","population":"2718","elevation":"","dem":"155","timezone":"Europe/Budapest","modification_date":"2012-05-06"},{"geonameid":"3043356","name":"Üllő","asciiname":"Ullo","alternatenames":"Ullo,Üllő","latitude":"47.38771","longitude":"19.35533","feature_class":"P","feature_code":"PPL","country_code":"HU","cc2":"","admin1_code":"16","admin2_code":"","admin3_code":"","admin4_code":"","population":"10232","elevation":"","dem":"126","timezone":"Europe/Budapest","modification_date":"2012-05-06"},{"geonameid":"3043358","name":"Üllés","asciiname":"Ulles","alternatenames":"Arpad,Ulles,Árpád,Üllés","latitude":"46.33611","longitude":"19.84454","feature_class":"P","feature_code":"PPL","country_code":"HU","cc2":"","admin1_code":"06","admin2_code":"","admin3_code":"","admin4_code":"","population":"3145","elevation":"","dem":"98","timezone":"Europe/Budapest","modification_date":"2012-01-18"},{"geonameid":"3043448","name":"Újszilvás","asciiname":"Ujszilvas","alternatenames":"Uj-major,Ujszilvas,Új-major,Újszilvás","latitude":"47.27477","longitude":"19.92477","feature_class":"P","feature_code":"PPL","country_code":"HU","cc2":"","admin1_code":"16","admin2_code":"","admin3_code":"","admin4_code":"","population":"2722","elevation":"","dem":"94","timezone":"Europe/Budapest","modification_date":"2012-01-18"},{"geonameid":"3043581","name":"Újhartyán","asciiname":"Ujhartyan","alternatenames":"Ujhartyan,Újhartyán","latitude":"47.21981","longitude":"19.38638","feature_class":"P","feature_code":"PPL","country_code":"HU","cc2":"","admin1_code":"16","admin2_code":"","admin3_code":"","admin4_code":"","population":"2852","elevation":"","dem":"113","timezone":"Europe/Budapest","modification_date":"2016-03-10"},{"geonameid":"3043671","name":"Türje","asciiname":"Turje","alternatenames":"Turje,Türje","latitude":"46.98366","longitude":"17.10742","feature_class":"P","feature_code":"PPL","country_code":"HU","cc2":"","admin1_code":"24","admin2_code":"","admin3_code":"","admin4_code":"","population":"1868","elevation":"","dem":"141","timezone":"Europe/Budapest","modification_date":"2012-01-18"},{"geonameid":"3043678","name":"Tura","asciiname":"Tura","alternatenames":"Tura","latitude":"47.60924","longitude":"19.60279","feature_class":"P","feature_code":"PPL","country_code":"HU","cc2":"","admin1_code":"16","admin2_code":"","admin3_code":"","admin4_code":"","population":"8294","elevation":"","dem":"115","timezone":"Europe/Budapest","modification_date":"2012-01-18"},{"geonameid":"3043758","name":"Törtel","asciiname":"Tortel","alternatenames":"Tortel,Törtel","latitude":"47.12209","longitude":"19.93714","feature_class":"P","feature_code":"PPL","country_code":"HU","cc2":"","admin1_code":"16","admin2_code":"","admin3_code":"","admin4_code":"","population":"4733","elevation":"","dem":"94","timezone":"Europe/Budapest","modification_date":"2012-05-06"},{"geonameid":"3043778","name":"Törökbálint","asciiname":"Toeroekbalint","alternatenames":"Grossturwall,Großturwall,Toeroek-balint,Török-bálint","latitude":"47.42931","longitude":"18.91356","feature_class":"P","feature_code":"PPL","country_code":"HU","cc2":"","admin1_code":"16","admin2_code":"","admin3_code":"","admin4_code":"","population":"11658","elevation":"160","dem":"174","timezone":"Europe/Budapest","modification_date":"2010-05-25"},{"geonameid":"3043820","name":"Tompa","asciiname":"Tompa","alternatenames":"Tompa","latitude":"46.20605","longitude":"19.5391","feature_class":"P","feature_code":"PPL","country_code":"HU","cc2":"","admin1_code":"01","admin2_code":"","admin3_code":"","admin4_code":"","population":"4844","elevation":"","dem":"131","timezone":"Europe/Budapest","modification_date":"2012-01-18"},{"geonameid":"3043832","name":"Töltéstava","asciiname":"Toltestava","alternatenames":"Toltestava,Töltéstava","latitude":"47.62609","longitude":"17.73376","feature_class":"P","feature_code":"PPL","country_code":"HU","cc2":"","admin1_code":"09","admin2_code":"","admin3_code":"","admin4_code":"","population":"1902","elevation":"","dem":"121","timezone":"Europe/Budapest","modification_date":"2012-02-02"},{"geonameid":"3043849","name":"Tolna","asciiname":"Tolna","alternatenames":"Tolma,Tolna","latitude":"46.42677","longitude":"18.78248","feature_class":"P","feature_code":"PPLA2","country_code":"HU","cc2":"","admin1_code":"21","admin2_code":"","admin3_code":"","admin4_code":"","population":"12011","elevation":"","dem":"100","timezone":"Europe/Budapest","modification_date":"2014-11-05"},{"geonameid":"3043860","name":"Tököl","asciiname":"Toekoel","alternatenames":"","latitude":"47.32178","longitude":"18.96249","feature_class":"P","feature_code":"PPL","country_code":"HU","cc2":"","admin1_code":"16","admin2_code":"","admin3_code":"","admin4_code":"","population":"10164","elevation":"","dem":"100","timezone":"Europe/Budapest","modification_date":"2010-04-07"},{"geonameid":"3043865","name":"Tokod","asciiname":"Tokod","alternatenames":"Tokod","latitude":"47.72277","longitude":"18.65889","feature_class":"P","feature_code":"PPL","country_code":"HU","cc2":"","admin1_code":"12","admin2_code":"","admin3_code":"","admin4_code":"","population":"4271","elevation":"","dem":"120","timezone":"Europe/Budapest","modification_date":"2012-05-06"},{"geonameid":"3043887","name":"Tóalmás","asciiname":"Toalmas","alternatenames":"Toalmas,Tóalmás","latitude":"47.50782","longitude":"19.66657","feature_class":"P","feature_code":"PPL","country_code":"HU","cc2":"","admin1_code":"16","admin2_code":"","admin3_code":"","admin4_code":"","population":"3434","elevation":"","dem":"126","timezone":"Europe/Budapest","modification_date":"2012-05-06"},{"geonameid":"3043927","name":"Tihany","asciiname":"Tihany","alternatenames":"Tihany,Tikhan',di hao ni,Тихань,טיהאן,蒂豪尼","latitude":"46.91369","longitude":"17.88918","feature_class":"P","feature_code":"PPL","country_code":"HU","cc2":"","admin1_code":"23","admin2_code":"","admin3_code":"","admin4_code":"","population":"1438","elevation":"","dem":"175","timezone":"Europe/Budapest","modification_date":"2012-12-18"},{"geonameid":"3043946","name":"Tét","asciiname":"Tet","alternatenames":"Tet,Tét","latitude":"47.51922","longitude":"17.50802","feature_class":"P","feature_code":"PPLA2","country_code":"HU","cc2":"","admin1_code":"09","admin2_code":"","admin3_code":"","admin4_code":"","population":"4104","elevation":"","dem":"131","timezone":"Europe/Budapest","modification_date":"2014-10-01"},{"geonameid":"3043984","name":"Tengelic","asciiname":"Tengelic","alternatenames":"Tengelic","latitude":"46.52878","longitude":"18.71117","feature_class":"P","feature_code":"PPL","country_code":"HU","cc2":"","admin1_code":"21","admin2_code":"","admin3_code":"","admin4_code":"","population":"2445","elevation":"","dem":"123","timezone":"Europe/Budapest","modification_date":"2012-05-06"},{"geonameid":"3044004","name":"Telki","asciiname":"Telki","alternatenames":"Telki","latitude":"47.54791","longitude":"18.82816","feature_class":"P","feature_code":"PPL","country_code":"HU","cc2":"","admin1_code":"16","admin2_code":"","admin3_code":"","admin4_code":"","population":"2071","elevation":"","dem":"240","timezone":"Europe/Budapest","modification_date":"2012-01-18"},{"geonameid":"3044062","name":"Tázlár","asciiname":"Tazlar","alternatenames":"Pronayfalva,Prónayfalva,Tazlar,Tázlár","latitude":"46.54824","longitude":"19.51436","feature_class":"P","feature_code":"PPL","country_code":"HU","cc2":"","admin1_code":"01","admin2_code":"","admin3_code":"","admin4_code":"","population":"1984","elevation":"","dem":"114","timezone":"Europe/Budapest","modification_date":"2012-01-18"},{"geonameid":"3044082","name":"Tatabánya","asciiname":"Tatabanya","alternatenames":"Tataban'ja,Tatabana,Tatabania,Tatabanj,Tatabanja,Tatabanya,Tatabánya,tao tao ba ni ao,tatabanya,teoteobanyeo,Татабанья,Татабаня,Татабања,טאטאבניה,تاتابانیا,ტატაბანია,タタバーニャ,陶陶巴尼奧,터터바녀","latitude":"47.58494","longitude":"18.39325","feature_class":"P","feature_code":"PPLA","country_code":"HU","cc2":"","admin1_code":"12","admin2_code":"","admin3_code":"","admin4_code":"","population":"70541","elevation":"","dem":"146","timezone":"Europe/Budapest","modification_date":"2015-06-17"},{"geonameid":"3044083","name":"Tata","asciiname":"Tata","alternatenames":"Agostyan,Tata,Tatatovaros,Tatatóváros,tao tao,tata,teoteo,tth,Ágostyán,Тата,טטה,تاتا,タタ,陶陶,터터","latitude":"47.65289","longitude":"18.31838","feature_class":"P","feature_code":"PPLA2","country_code":"HU","cc2":"","admin1_code":"12","admin2_code":"","admin3_code":"","admin4_code":"","population":"23868","elevation":"","dem":"123","timezone":"Europe/Budapest","modification_date":"2015-06-17"},{"geonameid":"3044084","name":"Tát","asciiname":"Tat","alternatenames":"Tat,Tát","latitude":"47.74148","longitude":"18.64813","feature_class":"P","feature_code":"PPL","country_code":"HU","cc2":"","admin1_code":"12","admin2_code":"","admin3_code":"","admin4_code":"","population":"5575","elevation":"","dem":"106","timezone":"Europe/Budapest","modification_date":"2012-05-06"},{"geonameid":"3044088","name":"Taszár","asciiname":"Taszar","alternatenames":"Taszar,Taszár,Tazar","latitude":"46.37467","longitude":"17.90594","feature_class":"P","feature_code":"PPL","country_code":"HU","cc2":"","admin1_code":"17","admin2_code":"","admin3_code":"","admin4_code":"","population":"2013","elevation":"","dem":"136","timezone":"Europe/Budapest","modification_date":"2012-01-18"},{"geonameid":"3044093","name":"Tass","asciiname":"Tass","alternatenames":"Tass","latitude":"47.02095","longitude":"19.02988","feature_class":"P","feature_code":"PPL","country_code":"HU","cc2":"","admin1_code":"01","admin2_code":"","admin3_code":"","admin4_code":"","population":"2963","elevation":"","dem":"97","timezone":"Europe/Budapest","modification_date":"2012-05-06"},{"geonameid":"3044103","name":"Tárnok","asciiname":"Tarnok","alternatenames":"Tarnok,Tárnok","latitude":"47.37327","longitude":"18.84579","feature_class":"P","feature_code":"PPL","country_code":"HU","cc2":"","admin1_code":"16","admin2_code":"","admin3_code":"","admin4_code":"","population":"7990","elevation":"","dem":"113","timezone":"Europe/Budapest","modification_date":"2012-05-06"},{"geonameid":"3044119","name":"Tarján","asciiname":"Tarjan","alternatenames":"Tarjan,Tarján","latitude":"47.61042","longitude":"18.5107","feature_class":"P","feature_code":"PPL","country_code":"HU","cc2":"","admin1_code":"12","admin2_code":"","admin3_code":"","admin4_code":"","population":"2825","elevation":"","dem":"194","timezone":"Europe/Budapest","modification_date":"2012-05-06"},{"geonameid":"3044122","name":"Tardos","asciiname":"Tardos","alternatenames":"Tardosbanya,Tardosbánya","latitude":"47.66192","longitude":"18.44416","feature_class":"P","feature_code":"PPL","country_code":"HU","cc2":"HU","admin1_code":"12","admin2_code":"","admin3_code":"","admin4_code":"","population":"1625","elevation":"","dem":"304","timezone":"Europe/Budapest","modification_date":"2010-04-07"},{"geonameid":"3044131","name":"Tar","asciiname":"Tar","alternatenames":"Tar","latitude":"47.95371","longitude":"19.7461","feature_class":"P","feature_code":"PPL","country_code":"HU","cc2":"","admin1_code":"14","admin2_code":"","admin3_code":"","admin4_code":"","population":"1972","elevation":"","dem":"171","timezone":"Europe/Budapest","modification_date":"2012-05-06"},{"geonameid":"3044141","name":"Tapolca","asciiname":"Tapolca","alternatenames":"Tapolca,Tapolcza,Tapolezai","latitude":"46.88152","longitude":"17.44117","feature_class":"P","feature_code":"PPLA2","country_code":"HU","cc2":"","admin1_code":"23","admin2_code":"","admin3_code":"","admin4_code":"","population":"17598","elevation":"","dem":"124","timezone":"Europe/Budapest","modification_date":"2014-11-05"},{"geonameid":"3044144","name":"Táplánszentkereszt","asciiname":"Taplanszentkereszt","alternatenames":"","latitude":"47.19496","longitude":"16.69613","feature_class":"P","feature_code":"PPL","country_code":"HU","cc2":"","admin1_code":"22","admin2_code":"","admin3_code":"","admin4_code":"","population":"2342","elevation":"","dem":"193","timezone":"Europe/Budapest","modification_date":"2008-07-07"},{"geonameid":"3044147","name":"Tápiószőlős","asciiname":"Tapioszolos","alternatenames":"Halesz,Tapiohalesz,Tapioszollos,Tapioszolos,Tápióhalesz,Tápiószőllős,Tápiószőlős","latitude":"47.30248","longitude":"19.85133","feature_class":"P","feature_code":"PPL","country_code":"HU","cc2":"","admin1_code":"16","admin2_code":"","admin3_code":"","admin4_code":"","population":"3155","elevation":"","dem":"96","timezone":"Europe/Budapest","modification_date":"2012-01-18"},{"geonameid":"3044149","name":"Tápiószentmárton","asciiname":"Tapioszentmarton","alternatenames":"Tapioszentmarton,Tápiószentmárton","latitude":"47.3399","longitude":"19.74648","feature_class":"P","feature_code":"PPL","country_code":"HU","cc2":"","admin1_code":"16","admin2_code":"","admin3_code":"","admin4_code":"","population":"5596","elevation":"","dem":"108","timezone":"Europe/Budapest","modification_date":"2012-05-06"},{"geonameid":"3044151","name":"Tápiószele","asciiname":"Tapioszele","alternatenames":"Tapioszele,Tápiószele","latitude":"47.33609","longitude":"19.87724","feature_class":"P","feature_code":"PPL","country_code":"HU","cc2":"","admin1_code":"16","admin2_code":"","admin3_code":"","admin4_code":"","population":"6214","elevation":"","dem":"98","timezone":"Europe/Budapest","modification_date":"2012-05-06"},{"geonameid":"3044153","name":"Tápiószecső","asciiname":"Tapioszecso","alternatenames":"Tapioszecso,Tápiószecső","latitude":"47.45","longitude":"19.60923","feature_class":"P","feature_code":"PPL","country_code":"HU","cc2":"","admin1_code":"16","admin2_code":"","admin3_code":"","admin4_code":"","population":"6628","elevation":"","dem":"137","timezone":"Europe/Budapest","modification_date":"2012-05-06"},{"geonameid":"3044154","name":"Sülysáp","asciiname":"Suelysap","alternatenames":"Suelysap,Sülysáp,Tapiosap,Tapiosuely,Tápiósáp,Tápiósüly","latitude":"47.45206","longitude":"19.53369","feature_class":"P","feature_code":"PPL","country_code":"HU","cc2":"","admin1_code":"16","admin2_code":"","admin3_code":"","admin4_code":"","population":"8258","elevation":"","dem":"142","timezone":"Europe/Budapest","modification_date":"2012-04-29"},{"geonameid":"3044156","name":"Tápióság","asciiname":"Tapiosag","alternatenames":"Tapiosag,Tápióság","latitude":"47.402","longitude":"19.63047","feature_class":"P","feature_code":"PPL","country_code":"HU","cc2":"","admin1_code":"16","admin2_code":"","admin3_code":"","admin4_code":"","population":"2760","elevation":"","dem":"133","timezone":"Europe/Budapest","modification_date":"2012-05-06"},{"geonameid":"3044160","name":"Tápiógyörgye","asciiname":"Tapiogyorgye","alternatenames":"Tapiogyorgye,Tápiógyörgye","latitude":"47.33505","longitude":"19.95276","feature_class":"P","feature_code":"PPL","country_code":"HU","cc2":"","admin1_code":"16","admin2_code":"","admin3_code":"","admin4_code":"","population":"3817","elevation":"","dem":"90","timezone":"Europe/Budapest","modification_date":"2012-05-06"},{"geonameid":"3044161","name":"Tápióbicske","asciiname":"Tapiobicske","alternatenames":"Tapiobicske,Tápióbicske","latitude":"47.36096","longitude":"19.68609","feature_class":"P","feature_code":"PPL","country_code":"HU","cc2":"","admin1_code":"16","admin2_code":"","admin3_code":"","admin4_code":"","population":"3514","elevation":"","dem":"113","timezone":"Europe/Budapest","modification_date":"2012-01-18"},{"geonameid":"3044171","name":"Tamási","asciiname":"Tamasi","alternatenames":"Pari,Pári,Tamasi,Tamási","latitude":"46.63333","longitude":"18.28333","feature_class":"P","feature_code":"PPLA2","country_code":"HU","cc2":"","admin1_code":"21","admin2_code":"","admin3_code":"","admin4_code":"","population":"9682","elevation":"","dem":"126","timezone":"Europe/Budapest","modification_date":"2014-11-05"},{"geonameid":"3044181","name":"Taksony","asciiname":"Taksony","alternatenames":"Taksony","latitude":"47.32968","longitude":"19.06695","feature_class":"P","feature_code":"PPL","country_code":"HU","cc2":"","admin1_code":"16","admin2_code":"","admin3_code":"","admin4_code":"","population":"6129","elevation":"","dem":"105","timezone":"Europe/Budapest","modification_date":"2012-01-18"},{"geonameid":"3044191","name":"Tahitótfalu","asciiname":"Tahitotfalu","alternatenames":"","latitude":"47.75","longitude":"19.1","feature_class":"P","feature_code":"PPL","country_code":"HU","cc2":"","admin1_code":"16","admin2_code":"","admin3_code":"","admin4_code":"","population":"4677","elevation":"","dem":"103","timezone":"Europe/Budapest","modification_date":"2006-10-06"},{"geonameid":"3044211","name":"Táborfalva","asciiname":"Taborfalva","alternatenames":"Lotertabor,Lőtértábor,Taborfalva,Táborfalva","latitude":"47.09942","longitude":"19.47837","feature_class":"P","feature_code":"PPL","country_code":"HU","cc2":"","admin1_code":"16","admin2_code":"","admin3_code":"","admin4_code":"","population":"3509","elevation":"","dem":"129","timezone":"Europe/Budapest","modification_date":"2012-01-18"},{"geonameid":"3044221","name":"Tab","asciiname":"Tab","alternatenames":"Tab","latitude":"46.73135","longitude":"18.03201","feature_class":"P","feature_code":"PPLA2","country_code":"HU","cc2":"","admin1_code":"17","admin2_code":"","admin3_code":"","admin4_code":"","population":"4824","elevation":"","dem":"173","timezone":"Europe/Budapest","modification_date":"2014-11-05"},{"geonameid":"3044227","name":"Szurdokpüspöki","asciiname":"Szurdokpuspoki","alternatenames":"","latitude":"47.85923","longitude":"19.69218","feature_class":"P","feature_code":"PPL","country_code":"HU","cc2":"","admin1_code":"14","admin2_code":"","admin3_code":"","admin4_code":"","population":"1947","elevation":"","dem":"150","timezone":"Europe/Budapest","modification_date":"2011-04-19"},{"geonameid":"3044305","name":"Szomód","asciiname":"Szomod","alternatenames":"Szomod,Szomód","latitude":"47.68492","longitude":"18.34061","feature_class":"P","feature_code":"PPL","country_code":"HU","cc2":"","admin1_code":"12","admin2_code":"","admin3_code":"","admin4_code":"","population":"2020","elevation":"","dem":"148","timezone":"Europe/Budapest","modification_date":"2012-05-06"},{"geonameid":"3044310","name":"Szombathely","asciiname":"Szombathely","alternatenames":"Gorad Sombatkhej,Gyongyosherman,Gyöngyöshermán,Hereny,Herény,Kamon,Kámon,Olad,Perint,Sabaria,Sambotel,Savaria,Sombatgej,Sombathejus,Sombathel,Sombathelj,Sombathėjus,Sombatkhej,Sombatkhel,Sombotel,Steinamanger,Szentkiraly,Szentkirály,Szombatehly,Szombathely,Szombatnely,ZBX,Zanat,smbathy,som bxt he,sombeoteuhei,sonbatohei,song bo te hai yi,swmbthy,Горад Сомбатхей,Сомбатгей,Сомбатхей,Сомбатхељ,סומבטהי,سمباتهی,شامباتہیلی,โซมบอตเฮ,სომბატჰეი,ソンバトヘイ,松博特海伊,솜버트헤이","latitude":"47.23088","longitude":"16.62155","feature_class":"P","feature_code":"PPLA","country_code":"HU","cc2":"","admin1_code":"22","admin2_code":"","admin3_code":"","admin4_code":"","population":"79534","elevation":"230","dem":"215","timezone":"Europe/Budapest","modification_date":"2015-06-17"},{"geonameid":"3044370","name":"Sződliget","asciiname":"Szodliget","alternatenames":"Szodliget,Sződliget","latitude":"47.73259","longitude":"19.14749","feature_class":"P","feature_code":"PPL","country_code":"HU","cc2":"","admin1_code":"16","admin2_code":"","admin3_code":"","admin4_code":"","population":"4350","elevation":"","dem":"113","timezone":"Europe/Budapest","modification_date":"2012-05-06"},{"geonameid":"3044371","name":"Sződ","asciiname":"Szod","alternatenames":"Szod,Sződ","latitude":"47.72439","longitude":"19.17046","feature_class":"P","feature_code":"PPL","country_code":"HU","cc2":"","admin1_code":"16","admin2_code":"","admin3_code":"","admin4_code":"","population":"3059","elevation":"","dem":"110","timezone":"Europe/Budapest","modification_date":"2012-05-06"},{"geonameid":"3044380","name":"Szob","asciiname":"Szob","alternatenames":"Szob","latitude":"47.81921","longitude":"18.8702","feature_class":"P","feature_code":"PPLA2","country_code":"HU","cc2":"","admin1_code":"16","admin2_code":"","admin3_code":"","admin4_code":"","population":"3065","elevation":"","dem":"111","timezone":"Europe/Budapest","modification_date":"2014-11-05"},{"geonameid":"3044469","name":"Szigetvár","asciiname":"Szigetvar","alternatenames":"Siget,Sigethum,Sigetvar,Szigetvar,Szigetvár,Zigetvar,sygtwar,syktwar,xi gai te bao,Сигет,Сигетвар,سيكتوار,سیگتوار,錫蓋特堡","latitude":"46.04865","longitude":"17.80554","feature_class":"P","feature_code":"PPLA2","country_code":"HU","cc2":"","admin1_code":"02","admin2_code":"","admin3_code":"","admin4_code":"","population":"11267","elevation":"","dem":"113","timezone":"Europe/Budapest","modification_date":"2015-06-17"},{"geonameid":"3044470","name":"Szigetújfalu","asciiname":"Szigetujfalu","alternatenames":"Szigetujfalu,Szigetújfalu","latitude":"47.23417","longitude":"18.92746","feature_class":"P","feature_code":"PPL","country_code":"HU","cc2":"","admin1_code":"16","admin2_code":"","admin3_code":"","admin4_code":"","population":"2158","elevation":"","dem":"99","timezone":"Europe/Budapest","modification_date":"2012-05-06"},{"geonameid":"3044475","name":"Szigetszentmiklós","asciiname":"Szigetszentmiklos","alternatenames":"Sigetsentmiklosh,Szigentmiklos,Szigetsentmiklos,Szigetszentmiklos,Szigetszentmiklós,Сигетсентмиклош","latitude":"47.34382","longitude":"19.04335","feature_class":"P","feature_code":"PPLA2","country_code":"HU","cc2":"","admin1_code":"16","admin2_code":"","admin3_code":"","admin4_code":"","population":"24874","elevation":"","dem":"99","timezone":"Europe/Budapest","modification_date":"2014-11-05"},{"geonameid":"3044487","name":"Szigethalom","asciiname":"Szigethalom","alternatenames":"Horthyliget,Szigethalom,Szilagyitelep,Szilágyitelep","latitude":"47.32228","longitude":"19.00262","feature_class":"P","feature_code":"PPL","country_code":"HU","cc2":"","admin1_code":"16","admin2_code":"","admin3_code":"","admin4_code":"","population":"13092","elevation":"","dem":"99","timezone":"Europe/Budapest","modification_date":"2012-01-18"},{"geonameid":"3044492","name":"Szigetcsép","asciiname":"Szigetcsep","alternatenames":"Szigetcsep,Szigetcsép","latitude":"47.26492","longitude":"18.97048","feature_class":"P","feature_code":"PPL","country_code":"HU","cc2":"","admin1_code":"16","admin2_code":"","admin3_code":"","admin4_code":"","population":"2455","elevation":"","dem":"100","timezone":"Europe/Budapest","modification_date":"2012-05-06"},{"geonameid":"3044567","name":"Szentmártonkáta","asciiname":"Szentmartonkata","alternatenames":"Szentmartonkata,Szentmártonkáta","latitude":"47.45419","longitude":"19.70143","feature_class":"P","feature_code":"PPL","country_code":"HU","cc2":"","admin1_code":"16","admin2_code":"","admin3_code":"","admin4_code":"","population":"4868","elevation":"","dem":"117","timezone":"Europe/Budapest","modification_date":"2012-05-06"},{"geonameid":"3044574","name":"Szentlőrinckáta","asciiname":"Szentlorinckata","alternatenames":"Szentlorinckata,Szentlőrinckáta","latitude":"47.51947","longitude":"19.75286","feature_class":"P","feature_code":"PPL","country_code":"HU","cc2":"","admin1_code":"16","admin2_code":"","admin3_code":"","admin4_code":"","population":"2005","elevation":"","dem":"106","timezone":"Europe/Budapest","modification_date":"2012-05-06"},{"geonameid":"3044575","name":"Szentlőrinc","asciiname":"Szentlorinc","alternatenames":"Szentlorinc,Szentlőrinc","latitude":"46.04016","longitude":"17.98719","feature_class":"P","feature_code":"PPLA2","country_code":"HU","cc2":"","admin1_code":"02","admin2_code":"","admin3_code":"","admin4_code":"","population":"7123","elevation":"","dem":"119","timezone":"Europe/Budapest","modification_date":"2014-11-05"},{"geonameid":"3044600","name":"Szentkirályszabadja","asciiname":"Szentkiralyszabadja","alternatenames":"Szentkiralyszabadja,Szentkirályszabadja","latitude":"47.0576","longitude":"17.97052","feature_class":"P","feature_code":"PPL","country_code":"HU","cc2":"","admin1_code":"23","admin2_code":"","admin3_code":"","admin4_code":"","population":"2042","elevation":"","dem":"265","timezone":"Europe/Budapest","modification_date":"2012-01-18"},{"geonameid":"3044607","name":"Szentkirály","asciiname":"Szentkiraly","alternatenames":"Laszlofalva,Lászlófalva,Nep Iskola,Nép Iskola,Szentkiraly,Szentkirály","latitude":"46.91892","longitude":"19.91846","feature_class":"P","feature_code":"PPL","country_code":"HU","cc2":"","admin1_code":"01","admin2_code":"","admin3_code":"","admin4_code":"","population":"1965","elevation":"","dem":"101","timezone":"Europe/Budapest","modification_date":"2012-01-18"},{"geonameid":"3044669","name":"Szentgotthárd","asciiname":"Szentgotthard","alternatenames":"Farkasfa,Jakabhaza,Jakabháza,Mariaujfalu,Máriaújfalu,Rabafuzes,Rabakethely,Rabakisfalud,Rabatotfalu,Rábafüzes,Rábakethely,Rábakisfalud,Rábatótfalu,Sankt Gotthard,Talapatka,Zsida","latitude":"46.95261","longitude":"16.27358","feature_class":"P","feature_code":"PPL","country_code":"HU","cc2":"","admin1_code":"22","admin2_code":"","admin3_code":"","admin4_code":"","population":"8911","elevation":"","dem":"229","timezone":"Europe/Budapest","modification_date":"2008-11-28"},{"geonameid":"3044671","name":"Szentgálpuszta","asciiname":"Szentgalpuszta","alternatenames":"Szentgal,Szentgalpuszta,Szentgál,Szentgálpuszta","latitude":"46.37479","longitude":"18.62601","feature_class":"P","feature_code":"PPLX","country_code":"HU","cc2":"","admin1_code":"21","admin2_code":"","admin3_code":"","admin4_code":"","population":"2815","elevation":"","dem":"110","timezone":"Europe/Budapest","modification_date":"2012-01-18"},{"geonameid":"3044681","name":"Szentendre","asciiname":"Szentendre","alternatenames":"Senandrija,Sentandreja,Sentendre,Svaety Ondrej,Svätý Ondrej,Szentendre,sentendore,sheng an de lie,sntndrh,Сентандреја,Сентендре,סנטאנדרה,سنتندره,センテンドレ,圣安德烈","latitude":"47.66943","longitude":"19.07561","feature_class":"P","feature_code":"PPL","country_code":"HU","cc2":"","admin1_code":"16","admin2_code":"","admin3_code":"","admin4_code":"","population":"23606","elevation":"","dem":"119","timezone":"Europe/Budapest","modification_date":"2015-06-17"},{"geonameid":"3044760","name":"Szekszárd","asciiname":"Szekszard","alternatenames":"Gorad Seksard,Seksar,Seksard,Seksardas,Szekszard,Szekszárd,sai ke sa de,segsaleudeu,sekusarudo,shykshard,sksard,Горад Сексард,Сексард,סקסארד,سکسارد,شیکشارد,セクサールド,塞克薩德,섹사르드","latitude":"46.35014","longitude":"18.70905","feature_class":"P","feature_code":"PPLA","country_code":"HU","cc2":"","admin1_code":"21","admin2_code":"","admin3_code":"","admin4_code":"","population":"34174","elevation":"","dem":"94","timezone":"Europe/Budapest","modification_date":"2015-06-17"},{"geonameid":"3044774","name":"Székesfehérvár","asciiname":"Szekesfehervar","alternatenames":"Alba Regalis,Alba Regia,Albareale,Gorad Sekeshfekhervar,Sekesfehervar,Sekesfehervara,Sekesfehervaras,Sekeshfegervar,Sekeshfekhervar,Sekešfehervar,Stolicny Belehrad,Stoličný Belehrad,Stolni Beograd,Stolni Biograd,Stuhlweissenburg,Stuhlweißenburg,Szekesfehervar,Székesfehérvár,Sēkešfehērvāra,Sėkešfehėrvaras,sai ke shen bai bao,sekeshufeheruvu~aru,sekesyupeheleubaleu,sekhesfe her war,sykshfhrwar,sykshfhyrfar,Горад Секешфехервар,Секешфегервар,Секешфехервар,Столни Београд,סקשפהרוואר,سيكشفهيرفار,سیکشفهروار,شیکیسفیہیروار,เซเคซเฟเฮร์วาร์,სეკეშფეჰერვარი,セーケシュフェヘールヴァール,塞克什白堡,세케슈페헤르바르","latitude":"47.18995","longitude":"18.41034","feature_class":"P","feature_code":"PPLA","country_code":"HU","cc2":"","admin1_code":"08","admin2_code":"","admin3_code":"","admin4_code":"","population":"101600","elevation":"","dem":"117","timezone":"Europe/Budapest","modification_date":"2015-06-17"},{"geonameid":"3044800","name":"Szedres","asciiname":"Szedres","alternatenames":"Szedres","latitude":"46.47551","longitude":"18.68305","feature_class":"P","feature_code":"PPL","country_code":"HU","cc2":"","admin1_code":"21","admin2_code":"","admin3_code":"","admin4_code":"","population":"2478","elevation":"","dem":"106","timezone":"Europe/Budapest","modification_date":"2012-01-18"},{"geonameid":"3044809","name":"Szécsény","asciiname":"Szecseny","alternatenames":"Szecheny,Szecseny,Széchény,Szécsény,schan,سچان","latitude":"48.08057","longitude":"19.52019","feature_class":"P","feature_code":"PPLA2","country_code":"HU","cc2":"","admin1_code":"14","admin2_code":"","admin3_code":"","admin4_code":"","population":"6446","elevation":"","dem":"172","timezone":"Europe/Budapest","modification_date":"2014-11-05"},{"geonameid":"3044821","name":"Százhalombatta","asciiname":"Szazhalombatta","alternatenames":"Szazhalombatta,Százhalombatta","latitude":"47.32579","longitude":"18.92141","feature_class":"P","feature_code":"PPL","country_code":"HU","cc2":"","admin1_code":"16","admin2_code":"","admin3_code":"","admin4_code":"","population":"17566","elevation":"","dem":"103","timezone":"Europe/Budapest","modification_date":"2012-01-18"},{"geonameid":"3044835","name":"Szászvár","asciiname":"Szaszvar","alternatenames":"Mazaszaszvar,Mázaszászvár,Szaszvar,Szászvár","latitude":"46.27673","longitude":"18.37566","feature_class":"P","feature_code":"PPL","country_code":"HU","cc2":"","admin1_code":"02","admin2_code":"","admin3_code":"","admin4_code":"","population":"2684","elevation":"","dem":"162","timezone":"Europe/Budapest","modification_date":"2011-02-11"},{"geonameid":"3044861","name":"Szárliget","asciiname":"Szarliget","alternatenames":"Ujszar,Újszár","latitude":"47.51581","longitude":"18.4948","feature_class":"P","feature_code":"PPL","country_code":"HU","cc2":"HU","admin1_code":"08","admin2_code":"","admin3_code":"","admin4_code":"","population":"2337","elevation":"","dem":"236","timezone":"Europe/Budapest","modification_date":"2010-04-07"},{"geonameid":"3044909","name":"Szany","asciiname":"Szany","alternatenames":"Szany","latitude":"47.46423","longitude":"17.30402","feature_class":"P","feature_code":"PPL","country_code":"HU","cc2":"","admin1_code":"09","admin2_code":"","admin3_code":"","admin4_code":"","population":"2300","elevation":"","dem":"121","timezone":"Europe/Budapest","modification_date":"2012-05-06"},{"geonameid":"3044916","name":"Szank","asciiname":"Szank","alternatenames":"Szank","latitude":"46.55713","longitude":"19.66103","feature_class":"P","feature_code":"PPL","country_code":"HU","cc2":"","admin1_code":"01","admin2_code":"","admin3_code":"","admin4_code":"","population":"2506","elevation":"","dem":"108","timezone":"Europe/Budapest","modification_date":"2012-05-06"},{"geonameid":"3044941","name":"Szalkszentmárton","asciiname":"Szalkszentmarton","alternatenames":"Szalkszentmarton,Szalkszentmárton","latitude":"46.97565","longitude":"19.01178","feature_class":"P","feature_code":"PPL","country_code":"HU","cc2":"","admin1_code":"01","admin2_code":"","admin3_code":"","admin4_code":"","population":"2982","elevation":"","dem":"99","timezone":"Europe/Budapest","modification_date":"2012-01-18"},{"geonameid":"3044990","name":"Szada","asciiname":"Szada","alternatenames":"","latitude":"47.63333","longitude":"19.31667","feature_class":"P","feature_code":"PPL","country_code":"HU","cc2":"","admin1_code":"16","admin2_code":"","admin3_code":"","admin4_code":"","population":"3370","elevation":"","dem":"247","timezone":"Europe/Budapest","modification_date":"2006-01-17"},{"geonameid":"3045017","name":"Szabadszállás","asciiname":"Szabadszallas","alternatenames":"Szabadszallas,Szabadszállás","latitude":"46.87575","longitude":"19.22324","feature_class":"P","feature_code":"PPL","country_code":"HU","cc2":"","admin1_code":"01","admin2_code":"","admin3_code":"","admin4_code":"","population":"6605","elevation":"","dem":"97","timezone":"Europe/Budapest","modification_date":"2012-01-18"},{"geonameid":"3045039","name":"Szabadbattyán","asciiname":"Szabadbattyan","alternatenames":"Szabadbattyan,Szabadbattyán","latitude":"47.11902","longitude":"18.36823","feature_class":"P","feature_code":"PPL","country_code":"HU","cc2":"","admin1_code":"08","admin2_code":"","admin3_code":"","admin4_code":"","population":"4492","elevation":"","dem":"110","timezone":"Europe/Budapest","modification_date":"2012-05-06"},{"geonameid":"3045045","name":"Süttő","asciiname":"Sutto","alternatenames":"Sutto,Süttő","latitude":"47.75887","longitude":"18.44873","feature_class":"P","feature_code":"PPL","country_code":"HU","cc2":"","admin1_code":"12","admin2_code":"","admin3_code":"","admin4_code":"","population":"1998","elevation":"","dem":"116","timezone":"Europe/Budapest","modification_date":"2012-05-06"},{"geonameid":"3045070","name":"Sümeg","asciiname":"Sumeg","alternatenames":"Shjumeg,Шюмег","latitude":"46.97703","longitude":"17.28209","feature_class":"P","feature_code":"PPL","country_code":"HU","cc2":"","admin1_code":"23","admin2_code":"","admin3_code":"","admin4_code":"","population":"6726","elevation":"","dem":"185","timezone":"Europe/Budapest","modification_date":"2010-07-07"},{"geonameid":"3045076","name":"Sükösd","asciiname":"Sukosd","alternatenames":"Sukosd,Sükösd","latitude":"46.28181","longitude":"18.99524","feature_class":"P","feature_code":"PPL","country_code":"HU","cc2":"","admin1_code":"01","admin2_code":"","admin3_code":"","admin4_code":"","population":"3987","elevation":"","dem":"105","timezone":"Europe/Budapest","modification_date":"2012-01-18"},{"geonameid":"3045144","name":"Sóskút","asciiname":"Soskut","alternatenames":"Soskut,Sóskút","latitude":"47.40665","longitude":"18.82247","feature_class":"P","feature_code":"PPL","country_code":"HU","cc2":"","admin1_code":"16","admin2_code":"","admin3_code":"","admin4_code":"","population":"2998","elevation":"","dem":"123","timezone":"Europe/Budapest","modification_date":"2012-05-06"},{"geonameid":"3045190","name":"Sopron","asciiname":"Sopron","alternatenames":"OEdenburg,Scarabantia,Scarbantia,Shopron,Sopron,Sopronas,Sopronium,shopuron,shprn,shwbrwn,soparona,swprwn,syopeulon,xiao pu lang,Ödenburg,Šopron,Šopronas,Σόπρον,Шопрон,שאפראן,שופרון,سوپرون,شوبرون,شپرن,सोपरोन,შოპრონი,ショプロン,肖普朗,쇼프론","latitude":"47.68501","longitude":"16.59049","feature_class":"P","feature_code":"PPL","country_code":"HU","cc2":"","admin1_code":"09","admin2_code":"","admin3_code":"","admin4_code":"","population":"57210","elevation":"","dem":"217","timezone":"Europe/Budapest","modification_date":"2015-06-17"},{"geonameid":"3045192","name":"Soponya","asciiname":"Soponya","alternatenames":"Nagylang,Nagyláng,Soponya","latitude":"47.01485","longitude":"18.45343","feature_class":"P","feature_code":"PPL","country_code":"HU","cc2":"","admin1_code":"08","admin2_code":"","admin3_code":"","admin4_code":"","population":"1996","elevation":"","dem":"104","timezone":"Europe/Budapest","modification_date":"2012-01-18"},{"geonameid":"3045201","name":"Somoskőújfalu","asciiname":"Somoskoujfalu","alternatenames":"","latitude":"48.16374","longitude":"19.82303","feature_class":"P","feature_code":"PPL","country_code":"HU","cc2":"","admin1_code":"14","admin2_code":"","admin3_code":"","admin4_code":"","population":"2296","elevation":"","dem":"310","timezone":"Europe/Budapest","modification_date":"2007-11-05"},{"geonameid":"3045212","name":"Somogyvár","asciiname":"Somogyvar","alternatenames":"Somogyvar,Somogyvár","latitude":"46.5814","longitude":"17.66289","feature_class":"P","feature_code":"PPL","country_code":"HU","cc2":"","admin1_code":"17","admin2_code":"","admin3_code":"","admin4_code":"","population":"2023","elevation":"","dem":"150","timezone":"Europe/Budapest","modification_date":"2012-01-18"},{"geonameid":"3045294","name":"Solymár","asciiname":"Solymar","alternatenames":"Solymar,Solymár","latitude":"47.59246","longitude":"18.93212","feature_class":"P","feature_code":"PPL","country_code":"HU","cc2":"","admin1_code":"16","admin2_code":"","admin3_code":"","admin4_code":"","population":"9242","elevation":"","dem":"193","timezone":"Europe/Budapest","modification_date":"2012-02-02"},{"geonameid":"3045298","name":"Soltvadkert","asciiname":"Soltvadkert","alternatenames":"Soltvadkert","latitude":"46.57889","longitude":"19.39389","feature_class":"P","feature_code":"PPL","country_code":"HU","cc2":"","admin1_code":"01","admin2_code":"","admin3_code":"","admin4_code":"","population":"7695","elevation":"","dem":"111","timezone":"Europe/Budapest","modification_date":"2012-01-18"},{"geonameid":"3045303","name":"Solt","asciiname":"Solt","alternatenames":"Solt","latitude":"46.80067","longitude":"18.99993","feature_class":"P","feature_code":"PPL","country_code":"HU","cc2":"","admin1_code":"01","admin2_code":"","admin3_code":"","admin4_code":"","population":"6984","elevation":"","dem":"97","timezone":"Europe/Budapest","modification_date":"2012-01-18"},{"geonameid":"3045332","name":"Siófok","asciiname":"Siofok","alternatenames":"Balatonkiliti,Balatonujhely,Balatonújhely,Shiofok,Siofok,Siofokas,Siófok,shiofoku,shywfk,siopokeu,sywpwq,xi ou fu ke,Šiofok,Šiofokas,Шиофок,Шіофок,שיופוק,شیوفک,シオーフォク,希歐福克,시오포크","latitude":"46.90413","longitude":"18.058","feature_class":"P","feature_code":"PPLA2","country_code":"HU","cc2":"","admin1_code":"17","admin2_code":"","admin3_code":"","admin4_code":"","population":"23028","elevation":"","dem":"107","timezone":"Europe/Budapest","modification_date":"2015-06-17"},{"geonameid":"3045341","name":"Simontornya","asciiname":"Simontornya","alternatenames":"Simontornya","latitude":"46.75462","longitude":"18.5549","feature_class":"P","feature_code":"PPL","country_code":"HU","cc2":"","admin1_code":"21","admin2_code":"","admin3_code":"","admin4_code":"","population":"4536","elevation":"","dem":"96","timezone":"Europe/Budapest","modification_date":"2012-01-18"},{"geonameid":"3045364","name":"Siklós","asciiname":"Siklos","alternatenames":"Mariagyud,Máriagyůd,Shiklosh,Siklos,Siklós,shyklwsh,sqlws,xi ke luo shen,Šikloš,Шиклош,سقلوس,شیکلوش,希克洛什","latitude":"45.85499","longitude":"18.29752","feature_class":"P","feature_code":"PPLA2","country_code":"HU","cc2":"","admin1_code":"02","admin2_code":"","admin3_code":"","admin4_code":"","population":"10180","elevation":"","dem":"104","timezone":"Europe/Budapest","modification_date":"2015-06-17"},{"geonameid":"3045386","name":"Seregélyes","asciiname":"Seregelyes","alternatenames":"Seregelyes,Seregélyes","latitude":"47.1105","longitude":"18.565","feature_class":"P","feature_code":"PPL","country_code":"HU","cc2":"","admin1_code":"08","admin2_code":"","admin3_code":"","admin4_code":"","population":"4539","elevation":"","dem":"121","timezone":"Europe/Budapest","modification_date":"2012-05-06"},{"geonameid":"3045406","name":"Sellye","asciiname":"Sellye","alternatenames":"Sellye","latitude":"45.87247","longitude":"17.84711","feature_class":"P","feature_code":"PPLA2","country_code":"HU","cc2":"","admin1_code":"02","admin2_code":"","admin3_code":"","admin4_code":"","population":"3184","elevation":"","dem":"101","timezone":"Europe/Budapest","modification_date":"2014-11-05"},{"geonameid":"3045411","name":"Segesd","asciiname":"Segesd","alternatenames":"Alsosegesd,Alsósegesd,Felsosegesd,Felsősegesd,Segesd","latitude":"46.34142","longitude":"17.35132","feature_class":"P","feature_code":"PPL","country_code":"HU","cc2":"","admin1_code":"17","admin2_code":"","admin3_code":"","admin4_code":"","population":"2674","elevation":"","dem":"167","timezone":"Europe/Budapest","modification_date":"2012-01-18"},{"geonameid":"3045479","name":"Sásd","asciiname":"Sasd","alternatenames":"Sasd,Sásd","latitude":"46.2552","longitude":"18.10776","feature_class":"P","feature_code":"PPLA2","country_code":"HU","cc2":"","admin1_code":"02","admin2_code":"","admin3_code":"","admin4_code":"","population":"3500","elevation":"","dem":"134","timezone":"Europe/Budapest","modification_date":"2014-11-05"},{"geonameid":"3045487","name":"Sárvár","asciiname":"Sarvar","alternatenames":"Savar","latitude":"47.25395","longitude":"16.93525","feature_class":"P","feature_code":"PPL","country_code":"HU","cc2":"","admin1_code":"22","admin2_code":"","admin3_code":"","admin4_code":"","population":"15343","elevation":"","dem":"158","timezone":"Europe/Budapest","modification_date":"2008-07-07"},{"geonameid":"3045493","name":"Sárszentmihály","asciiname":"Sarszentmihaly","alternatenames":"Sarszentmihaly,Sárszentmihály","latitude":"47.15321","longitude":"18.33879","feature_class":"P","feature_code":"PPL","country_code":"HU","cc2":"","admin1_code":"08","admin2_code":"","admin3_code":"","admin4_code":"","population":"2824","elevation":"","dem":"108","timezone":"Europe/Budapest","modification_date":"2012-05-06"},{"geonameid":"3045512","name":"Sárosd","asciiname":"Sarosd","alternatenames":"Sarosd,Sárosd","latitude":"47.04273","longitude":"18.64357","feature_class":"P","feature_code":"PPL","country_code":"HU","cc2":"","admin1_code":"08","admin2_code":"","admin3_code":"","admin4_code":"","population":"3474","elevation":"","dem":"116","timezone":"Europe/Budapest","modification_date":"2012-01-18"},{"geonameid":"3045520","name":"Sármellék","asciiname":"Sarmellek","alternatenames":"Egenfold,SOB,Sarmellek,Sármellék,Égenföld","latitude":"46.71221","longitude":"17.16865","feature_class":"P","feature_code":"PPL","country_code":"HU","cc2":"","admin1_code":"24","admin2_code":"","admin3_code":"","admin4_code":"","population":"1836","elevation":"","dem":"123","timezone":"Europe/Budapest","modification_date":"2013-03-30"},{"geonameid":"3045530","name":"Sárkeresztúr","asciiname":"Sarkeresztur","alternatenames":"Sarkeresztur,Sárkeresztúr","latitude":"47.0054","longitude":"18.54391","feature_class":"P","feature_code":"PPL","country_code":"HU","cc2":"","admin1_code":"08","admin2_code":"","admin3_code":"","admin4_code":"","population":"2443","elevation":"","dem":"103","timezone":"Europe/Budapest","modification_date":"2012-05-06"},{"geonameid":"3045542","name":"Sárisáp","asciiname":"Sarisap","alternatenames":"Sarisap,Sárisáp","latitude":"47.677","longitude":"18.67933","feature_class":"P","feature_code":"PPL","country_code":"HU","cc2":"","admin1_code":"12","admin2_code":"","admin3_code":"","admin4_code":"","population":"2911","elevation":"","dem":"130","timezone":"Europe/Budapest","modification_date":"2012-05-06"},{"geonameid":"3045564","name":"Sárbogárd","asciiname":"Sarbogard","alternatenames":"Pusztaegres,Sarszentmiklos,Sárszentmiklós","latitude":"46.88692","longitude":"18.62041","feature_class":"P","feature_code":"PPL","country_code":"HU","cc2":"","admin1_code":"08","admin2_code":"","admin3_code":"","admin4_code":"","population":"13424","elevation":"","dem":"107","timezone":"Europe/Budapest","modification_date":"2007-04-26"},{"geonameid":"3045643","name":"Salgótarján","asciiname":"Salgotarjan","alternatenames":"Baglyasalja,Salgotarjan,Salgotarjanas,Shal'gotar'jan,Shalgo Tar'yan,Shalgotarjan,Zagyvapalfalva,Zagyvapálfalva,salgwtaryyn,shalgwtaryan,shao er ge tao er yang,sharugotaruyan,syeolgoteolyan,Šalgotarjan,Šalgotarjanas,Шалготарян,Шалготарјан,Шальготарьян,Шалґотарян,שאלגוטאריאן,سالگوتاریئن,شالگوتاریان,შალგოტარიანი,シャルゴータルヤーン,紹爾戈陶爾揚,셜고터랸","latitude":"48.09872","longitude":"19.80303","feature_class":"P","feature_code":"PPLA","country_code":"HU","cc2":"","admin1_code":"14","admin2_code":"","admin3_code":"","admin4_code":"","population":"39640","elevation":"","dem":"242","timezone":"Europe/Budapest","modification_date":"2015-06-17"},{"geonameid":"3045688","name":"Ruzsa","asciiname":"Ruzsa","alternatenames":"Ruzsa","latitude":"46.28806","longitude":"19.74714","feature_class":"P","feature_code":"PPL","country_code":"HU","cc2":"","admin1_code":"06","admin2_code":"","admin3_code":"","admin4_code":"","population":"2764","elevation":"","dem":"113","timezone":"Europe/Budapest","modification_date":"2012-01-18"},{"geonameid":"3045704","name":"Rózsaszentmárton","asciiname":"Rozsaszentmarton","alternatenames":"","latitude":"47.782","longitude":"19.7421","feature_class":"P","feature_code":"PPL","country_code":"HU","cc2":"","admin1_code":"11","admin2_code":"","admin3_code":"","admin4_code":"","population":"2028","elevation":"","dem":"177","timezone":"Europe/Budapest","modification_date":"2011-04-19"},{"geonameid":"3045758","name":"Romhány","asciiname":"Romhany","alternatenames":"","latitude":"47.92618","longitude":"19.25723","feature_class":"P","feature_code":"PPL","country_code":"HU","cc2":"","admin1_code":"14","admin2_code":"","admin3_code":"","admin4_code":"","population":"2421","elevation":"","dem":"167","timezone":"Europe/Budapest","modification_date":"2010-04-02"},{"geonameid":"3045804","name":"Rimóc","asciiname":"Rimoc","alternatenames":"","latitude":"48.03695","longitude":"19.5301","feature_class":"P","feature_code":"PPL","country_code":"HU","cc2":"","admin1_code":"14","admin2_code":"","admin3_code":"","admin4_code":"","population":"1874","elevation":"","dem":"178","timezone":"Europe/Budapest","modification_date":"2011-04-19"},{"geonameid":"3045836","name":"Révfülöp","asciiname":"Revfueloep","alternatenames":"Revfjulep,Ревфюлеп","latitude":"46.82573","longitude":"17.61967","feature_class":"P","feature_code":"PPL","country_code":"HU","cc2":"","admin1_code":"23","admin2_code":"","admin3_code":"","admin4_code":"","population":"1127","elevation":"","dem":"125","timezone":"Europe/Budapest","modification_date":"2010-06-23"},{"geonameid":"3045846","name":"Rétság","asciiname":"Retsag","alternatenames":"","latitude":"47.92816","longitude":"19.1372","feature_class":"P","feature_code":"PPL","country_code":"HU","cc2":"","admin1_code":"14","admin2_code":"","admin3_code":"","admin4_code":"","population":"3004","elevation":"","dem":"189","timezone":"Europe/Budapest","modification_date":"2010-04-02"},{"geonameid":"3045884","name":"Répcelak","asciiname":"Repcelak","alternatenames":"Repcelak,Répcelak","latitude":"47.42105","longitude":"17.01795","feature_class":"P","feature_code":"PPL","country_code":"HU","cc2":"","admin1_code":"22","admin2_code":"","admin3_code":"","admin4_code":"","population":"2644","elevation":"","dem":"140","timezone":"Europe/Budapest","modification_date":"2012-05-06"},{"geonameid":"3045991","name":"Rajka","asciiname":"Rajka","alternatenames":"Rajka","latitude":"47.99643","longitude":"17.19821","feature_class":"P","feature_code":"PPL","country_code":"HU","cc2":"","admin1_code":"09","admin2_code":"","admin3_code":"","admin4_code":"","population":"2601","elevation":"","dem":"128","timezone":"Europe/Budapest","modification_date":"2012-01-18"},{"geonameid":"3046026","name":"Ráckeve","asciiname":"Rackeve","alternatenames":"Rackeve,Ráckeve","latitude":"47.16095","longitude":"18.94478","feature_class":"P","feature_code":"PPLA2","country_code":"HU","cc2":"","admin1_code":"16","admin2_code":"","admin3_code":"","admin4_code":"","population":"9229","elevation":"","dem":"100","timezone":"Europe/Budapest","modification_date":"2014-11-05"},{"geonameid":"3046027","name":"Ráckeresztúr","asciiname":"Rackeresztur","alternatenames":"Rackeresztur,Ráckeresztúr","latitude":"47.2736","longitude":"18.83343","feature_class":"P","feature_code":"PPL","country_code":"HU","cc2":"","admin1_code":"08","admin2_code":"","admin3_code":"","admin4_code":"","population":"3117","elevation":"","dem":"112","timezone":"Europe/Budapest","modification_date":"2012-05-06"},{"geonameid":"3046036","name":"Rácalmás","asciiname":"Racalmas","alternatenames":"Racalmas,Raczalmas,Rácalmás,Ráczalmas","latitude":"47.02263","longitude":"18.94056","feature_class":"P","feature_code":"PPL","country_code":"HU","cc2":"","admin1_code":"08","admin2_code":"","admin3_code":"","admin4_code":"","population":"4148","elevation":"","dem":"140","timezone":"Europe/Budapest","modification_date":"2012-01-18"},{"geonameid":"3046056","name":"Rábapatona","asciiname":"Rabapatona","alternatenames":"Rabapatona,Rábapatona","latitude":"47.63224","longitude":"17.48004","feature_class":"P","feature_code":"PPL","country_code":"HU","cc2":"","admin1_code":"09","admin2_code":"","admin3_code":"","admin4_code":"","population":"2497","elevation":"","dem":"111","timezone":"Europe/Budapest","modification_date":"2013-04-04"},{"geonameid":"3046073","name":"Pusztavám","asciiname":"Pusztavam","alternatenames":"Pusztavam,Pusztavám","latitude":"47.42948","longitude":"18.22648","feature_class":"P","feature_code":"PPL","country_code":"HU","cc2":"","admin1_code":"08","admin2_code":"","admin3_code":"","admin4_code":"","population":"2521","elevation":"","dem":"207","timezone":"Europe/Budapest","modification_date":"2012-01-18"},{"geonameid":"3046076","name":"Pusztaszer","asciiname":"Pusztaszer","alternatenames":"Pusztaszer","latitude":"46.55083","longitude":"19.98823","feature_class":"P","feature_code":"PPL","country_code":"HU","cc2":"","admin1_code":"06","admin2_code":"","admin3_code":"","admin4_code":"","population":"1642","elevation":"","dem":"83","timezone":"Europe/Budapest","modification_date":"2012-01-18"},{"geonameid":"3046087","name":"Pusztaszabolcs","asciiname":"Pusztaszabolcs","alternatenames":"Pusztaszabolcs","latitude":"47.13718","longitude":"18.76704","feature_class":"P","feature_code":"PPL","country_code":"HU","cc2":"","admin1_code":"08","admin2_code":"","admin3_code":"","admin4_code":"","population":"6355","elevation":"","dem":"111","timezone":"Europe/Budapest","modification_date":"2012-05-06"},{"geonameid":"3046230","name":"Pomáz","asciiname":"Pomaz","alternatenames":"Pomaz,Pomáz","latitude":"47.64227","longitude":"19.02784","feature_class":"P","feature_code":"PPL","country_code":"HU","cc2":"","admin1_code":"16","admin2_code":"","admin3_code":"","admin4_code":"","population":"14917","elevation":"","dem":"125","timezone":"Europe/Budapest","modification_date":"2012-05-06"},{"geonameid":"3046249","name":"Polgárdi","asciiname":"Polgardi","alternatenames":"Polgardi,Polgárdi","latitude":"47.06099","longitude":"18.302","feature_class":"P","feature_code":"PPLA2","country_code":"HU","cc2":"","admin1_code":"08","admin2_code":"","admin3_code":"","admin4_code":"","population":"6564","elevation":"","dem":"151","timezone":"Europe/Budapest","modification_date":"2014-11-05"},{"geonameid":"3046336","name":"Pincehely","asciiname":"Pincehely","alternatenames":"Pincehely","latitude":"46.68095","longitude":"18.43935","feature_class":"P","feature_code":"PPL","country_code":"HU","cc2":"","admin1_code":"21","admin2_code":"","admin3_code":"","admin4_code":"","population":"2548","elevation":"","dem":"110","timezone":"Europe/Budapest","modification_date":"2012-05-06"},{"geonameid":"3046340","name":"Pilisvörösvár","asciiname":"Pilisvorosvar","alternatenames":"","latitude":"47.61386","longitude":"18.90893","feature_class":"P","feature_code":"PPL","country_code":"HU","cc2":"","admin1_code":"16","admin2_code":"","admin3_code":"","admin4_code":"","population":"13150","elevation":"","dem":"178","timezone":"Europe/Budapest","modification_date":"2008-03-16"},