{"nextFile":"cities.66.json","rows":[{"geonameid":"1626248","name":"Sukowono","asciiname":"Sukowono","alternatenames":"Soekawana,Soekowono,Sukowono","latitude":"-8.0576","longitude":"113.8342","feature_class":"P","feature_code":"PPLA3","country_code":"ID","cc2":"","admin1_code":"08","admin2_code":"","admin3_code":"","admin4_code":"","population":"0","elevation":"","dem":"342","timezone":"Asia/Jakarta","modification_date":"2012-01-17"},{"geonameid":"1626272","name":"Sukoharjo","asciiname":"Sukoharjo","alternatenames":"Soeka ardja,Soekoardjo,Sukoardjo,Sukohardjo,Sukoharjo","latitude":"-7.6725","longitude":"110.83806","feature_class":"P","feature_code":"PPLA2","country_code":"ID","cc2":"","admin1_code":"07","admin2_code":"","admin3_code":"","admin4_code":"","population":"0","elevation":"","dem":"103","timezone":"Asia/Jakarta","modification_date":"2016-01-07"},{"geonameid":"1626280","name":"Sukawening","asciiname":"Sukawening","alternatenames":"Sukawening","latitude":"-7.1568","longitude":"108.0065","feature_class":"P","feature_code":"PPLA3","country_code":"ID","cc2":"","admin1_code":"30","admin2_code":"","admin3_code":"","admin4_code":"","population":"0","elevation":"","dem":"715","timezone":"Asia/Jakarta","modification_date":"2012-01-17"},{"geonameid":"1626289","name":"Sukasari","asciiname":"Sukasari","alternatenames":"Sukasari","latitude":"-7.0757","longitude":"107.8947","feature_class":"P","feature_code":"PPLA3","country_code":"ID","cc2":"","admin1_code":"30","admin2_code":"","admin3_code":"","admin4_code":"","population":"0","elevation":"","dem":"710","timezone":"Asia/Jakarta","modification_date":"2012-01-17"},{"geonameid":"1626294","name":"Sukasada","asciiname":"Sukasada","alternatenames":"Soekasade,Sukasada,Sukasade,Sukasadel","latitude":"-8.1395","longitude":"115.1031","feature_class":"P","feature_code":"PPLA3","country_code":"ID","cc2":"","admin1_code":"02","admin2_code":"","admin3_code":"","admin4_code":"","population":"0","elevation":"","dem":"110","timezone":"Asia/Makassar","modification_date":"2012-01-17"},{"geonameid":"1626312","name":"Sokaraja","asciiname":"Sokaraja","alternatenames":"Soekaradja,Sokaraja,Sukaradja,Sukaraja","latitude":"-7.45806","longitude":"109.28806","feature_class":"P","feature_code":"PPL","country_code":"ID","cc2":"","admin1_code":"07","admin2_code":"","admin3_code":"","admin4_code":"","population":"66482","elevation":"","dem":"48","timezone":"Asia/Jakarta","modification_date":"2012-01-17"},{"geonameid":"1626313","name":"Sukaraja","asciiname":"Sukaraja","alternatenames":"Soekaradja,Sukaradja,Sukaraja","latitude":"-7.4519","longitude":"108.1944","feature_class":"P","feature_code":"PPLA3","country_code":"ID","cc2":"","admin1_code":"30","admin2_code":"","admin3_code":"","admin4_code":"","population":"0","elevation":"","dem":"209","timezone":"Asia/Jakarta","modification_date":"2012-01-17"},{"geonameid":"1626314","name":"Cibatu","asciiname":"Cibatu","alternatenames":"Cibatu,Soekaradja,Sukaradja,Sukaraja","latitude":"-7.3102","longitude":"108.0533","feature_class":"P","feature_code":"PPLA4","country_code":"ID","cc2":"","admin1_code":"30","admin2_code":"","admin3_code":"","admin4_code":"","population":"0","elevation":"","dem":"612","timezone":"Asia/Jakarta","modification_date":"2012-01-17"},{"geonameid":"1626320","name":"Sukaraja","asciiname":"Sukaraja","alternatenames":"Sokaradja,Sukaradja,Sukaraja","latitude":"-6.536","longitude":"106.3124","feature_class":"P","feature_code":"PPLA4","country_code":"ID","cc2":"","admin1_code":"33","admin2_code":"","admin3_code":"","admin4_code":"","population":"0","elevation":"","dem":"134","timezone":"Asia/Jakarta","modification_date":"2012-01-17"},{"geonameid":"1626334","name":"Sukanagara","asciiname":"Sukanagara","alternatenames":"Soekanagara,Soekanegara,Soekanĕgara,Sukanagara,Sukanegara","latitude":"-7.098","longitude":"107.1309","feature_class":"P","feature_code":"PPLA3","country_code":"ID","cc2":"","admin1_code":"30","admin2_code":"","admin3_code":"","admin4_code":"","population":"0","elevation":"","dem":"871","timezone":"Asia/Jakarta","modification_date":"2012-02-01"},{"geonameid":"1626375","name":"Sukadana","asciiname":"Sukadana","alternatenames":"Soekadana,Sukadana","latitude":"-5.06446","longitude":"105.54869","feature_class":"P","feature_code":"PPLA2","country_code":"ID","cc2":"","admin1_code":"15","admin2_code":"","admin3_code":"","admin4_code":"","population":"0","elevation":"","dem":"19","timezone":"Asia/Jakarta","modification_date":"2016-01-07"},{"geonameid":"1626376","name":"Sukadana","asciiname":"Sukadana","alternatenames":"Soekadana,Sukadana,Udjungdatu","latitude":"-1.25","longitude":"109.95","feature_class":"P","feature_code":"PPLA2","country_code":"ID","cc2":"","admin1_code":"11","admin2_code":"","admin3_code":"","admin4_code":"","population":"0","elevation":"","dem":"5","timezone":"Asia/Pontianak","modification_date":"2016-01-07"},{"geonameid":"1626381","name":"Sukabumi","asciiname":"Sukabumi","alternatenames":"Kota Sukabumi,Kutha Sukabumi,Soekaboemi,Sukabumi,su jia wu mei,swkabwmy,Сукабуми,Сукабумі,سوکابومی,სუკაბუმი,蘇加武眉","latitude":"-6.91806","longitude":"106.92667","feature_class":"P","feature_code":"PPL","country_code":"ID","cc2":"","admin1_code":"30","admin2_code":"","admin3_code":"","admin4_code":"","population":"276414","elevation":"","dem":"613","timezone":"Asia/Jakarta","modification_date":"2012-01-17"},{"geonameid":"1626418","name":"Sudimoro","asciiname":"Sudimoro","alternatenames":"Soedimoro,Sudimoro","latitude":"-8.2197","longitude":"111.3751","feature_class":"P","feature_code":"PPLA4","country_code":"ID","cc2":"","admin1_code":"08","admin2_code":"","admin3_code":"","admin4_code":"","population":"0","elevation":"","dem":"336","timezone":"Asia/Jakarta","modification_date":"2012-01-17"},{"geonameid":"1626443","name":"Subang","asciiname":"Subang","alternatenames":"Soebang,Subang","latitude":"-7.1277","longitude":"108.5283","feature_class":"P","feature_code":"PPLA3","country_code":"ID","cc2":"","admin1_code":"30","admin2_code":"","admin3_code":"","admin4_code":"","population":"0","elevation":"","dem":"309","timezone":"Asia/Jakarta","modification_date":"2012-01-17"},{"geonameid":"1626444","name":"Subang","asciiname":"Subang","alternatenames":"Soebang,Subang","latitude":"-6.57","longitude":"107.75667","feature_class":"P","feature_code":"PPLA2","country_code":"ID","cc2":"","admin1_code":"30","admin2_code":"","admin3_code":"","admin4_code":"","population":"0","elevation":"","dem":"96","timezone":"Asia/Jakarta","modification_date":"2016-01-07"},{"geonameid":"1626448","name":"Subaim","asciiname":"Subaim","alternatenames":"Sabaim,Soebai,Soebaim,Subaim,Wasile","latitude":"1.12115","longitude":"128.11805","feature_class":"P","feature_code":"PPLA3","country_code":"ID","cc2":"","admin1_code":"29","admin2_code":"","admin3_code":"","admin4_code":"","population":"0","elevation":"","dem":"36","timezone":"Asia/Jayapura","modification_date":"2014-03-05"},{"geonameid":"1626478","name":"Stagen","asciiname":"Stagen","alternatenames":"Setagin,Stagen","latitude":"-3.3049","longitude":"116.1779","feature_class":"P","feature_code":"PPLA3","country_code":"ID","cc2":"","admin1_code":"12","admin2_code":"","admin3_code":"","admin4_code":"","population":"0","elevation":"","dem":"49","timezone":"Asia/Makassar","modification_date":"2013-12-09"},{"geonameid":"1626486","name":"Srono","asciiname":"Srono","alternatenames":"Srono","latitude":"-8.40003","longitude":"114.26661","feature_class":"P","feature_code":"PPL","country_code":"ID","cc2":"","admin1_code":"08","admin2_code":"","admin3_code":"","admin4_code":"","population":"36260","elevation":"","dem":"60","timezone":"Asia/Jakarta","modification_date":"2007-11-09"},{"geonameid":"1626493","name":"Srandakan","asciiname":"Srandakan","alternatenames":"","latitude":"-7.93861","longitude":"110.25056","feature_class":"P","feature_code":"PPL","country_code":"ID","cc2":"","admin1_code":"10","admin2_code":"","admin3_code":"","admin4_code":"","population":"29529","elevation":"","dem":"23","timezone":"Asia/Jakarta","modification_date":"2006-01-17"},{"geonameid":"1626498","name":"Sragen","asciiname":"Sragen","alternatenames":"Spagen,Sragen,Sregen","latitude":"-7.42639","longitude":"111.02222","feature_class":"P","feature_code":"PPLA2","country_code":"ID","cc2":"","admin1_code":"07","admin2_code":"","admin3_code":"","admin4_code":"","population":"71522","elevation":"","dem":"90","timezone":"Asia/Jakarta","modification_date":"2016-01-07"},{"geonameid":"1626507","name":"Sowa","asciiname":"Sowa","alternatenames":"Sowa","latitude":"-8.37509","longitude":"118.69009","feature_class":"P","feature_code":"PPLA4","country_code":"ID","cc2":"","admin1_code":"17","admin2_code":"","admin3_code":"","admin4_code":"","population":"0","elevation":"","dem":"11","timezone":"Asia/Makassar","modification_date":"2013-01-10"},{"geonameid":"1626542","name":"Sorong","asciiname":"Sorong","alternatenames":"Kota Sorong,SOQ,Sorong,Соронг","latitude":"-0.87956","longitude":"131.26104","feature_class":"P","feature_code":"PPL","country_code":"ID","cc2":"","admin1_code":"39","admin2_code":"","admin3_code":"","admin4_code":"","population":"125535","elevation":"","dem":"7","timezone":"Asia/Jayapura","modification_date":"2013-04-21"},{"geonameid":"1626548","name":"Insrom","asciiname":"Insrom","alternatenames":"Insirom,Insrom,Sorido,Sorrido","latitude":"-1.1538","longitude":"136.04786","feature_class":"P","feature_code":"PPL","country_code":"ID","cc2":"","admin1_code":"36","admin2_code":"","admin3_code":"","admin4_code":"","population":"3452","elevation":"","dem":"18","timezone":"Asia/Jayapura","modification_date":"2012-05-06"},{"geonameid":"1626551","name":"Sorendiweri","asciiname":"Sorendiweri","alternatenames":"Sarendiweri,Sorendeweri,Sorendiweri","latitude":"-0.73389","longitude":"135.73611","feature_class":"P","feature_code":"PPLA2","country_code":"ID","cc2":"","admin1_code":"36","admin2_code":"","admin3_code":"","admin4_code":"","population":"0","elevation":"","dem":"11","timezone":"Asia/Jayapura","modification_date":"2016-01-07"},{"geonameid":"1626560","name":"Soreang","asciiname":"Soreang","alternatenames":"Sereang,Soreang","latitude":"-7.03306","longitude":"107.51833","feature_class":"P","feature_code":"PPLA2","country_code":"ID","cc2":"","admin1_code":"30","admin2_code":"","admin3_code":"","admin4_code":"","population":"150932","elevation":"","dem":"744","timezone":"Asia/Jakarta","modification_date":"2016-01-07"},{"geonameid":"1626611","name":"Sondo","asciiname":"Sondo","alternatenames":"Sondo","latitude":"-8.7455","longitude":"118.665","feature_class":"P","feature_code":"PPLA4","country_code":"ID","cc2":"","admin1_code":"17","admin2_code":"","admin3_code":"","admin4_code":"","population":"0","elevation":"","dem":"19","timezone":"Asia/Makassar","modification_date":"2012-01-17"},{"geonameid":"1626613","name":"Sonder","asciiname":"Sonder","alternatenames":"Sonder","latitude":"1.25474","longitude":"124.77945","feature_class":"P","feature_code":"PPLA3","country_code":"ID","cc2":"","admin1_code":"31","admin2_code":"","admin3_code":"","admin4_code":"","population":"0","elevation":"","dem":"562","timezone":"Asia/Makassar","modification_date":"2014-03-05"},{"geonameid":"1626631","name":"Somba","asciiname":"Somba","alternatenames":"Somba","latitude":"-3.3772","longitude":"118.8475","feature_class":"P","feature_code":"PPLA3","country_code":"ID","cc2":"","admin1_code":"41","admin2_code":"","admin3_code":"","admin4_code":"","population":"0","elevation":"","dem":"8","timezone":"Asia/Makassar","modification_date":"2012-01-17"},{"geonameid":"1626649","name":"Solok","asciiname":"Solok","alternatenames":"Solok","latitude":"-0.8006","longitude":"100.6571","feature_class":"P","feature_code":"PPLA2","country_code":"ID","cc2":"","admin1_code":"24","admin2_code":"","admin3_code":"","admin4_code":"","population":"48372","elevation":"","dem":"392","timezone":"Asia/Jakarta","modification_date":"2013-07-04"},{"geonameid":"1626670","name":"Sokobanah","asciiname":"Sokobanah","alternatenames":"Sokabana,Sokabanah-daja,Sokobana,Sokobanah","latitude":"-6.89","longitude":"113.4347","feature_class":"P","feature_code":"PPLA3","country_code":"ID","cc2":"","admin1_code":"08","admin2_code":"","admin3_code":"","admin4_code":"","population":"0","elevation":"","dem":"9","timezone":"Asia/Jakarta","modification_date":"2012-09-06"},{"geonameid":"1626673","name":"Soko","asciiname":"Soko","alternatenames":"","latitude":"-7.48315","longitude":"112.42704","feature_class":"P","feature_code":"PPL","country_code":"ID","cc2":"","admin1_code":"08","admin2_code":"","admin3_code":"","admin4_code":"","population":"25494","elevation":"","dem":"28","timezone":"Asia/Jakarta","modification_date":"2007-11-09"},{"geonameid":"1626698","name":"Sofifi","asciiname":"Sofifi","alternatenames":"Sofifi","latitude":"0.73333","longitude":"127.55","feature_class":"P","feature_code":"PPLA","country_code":"ID","cc2":"","admin1_code":"29","admin2_code":"","admin3_code":"","admin4_code":"","population":"36197","elevation":"","dem":"22","timezone":"Asia/Jayapura","modification_date":"2013-07-03"},{"geonameid":"1626703","name":"Soe","asciiname":"Soe","alternatenames":"Soe,Su,Сое","latitude":"-9.86071","longitude":"124.28395","feature_class":"P","feature_code":"PPL","country_code":"ID","cc2":"","admin1_code":"18","admin2_code":"","admin3_code":"","admin4_code":"","population":"27717","elevation":"","dem":"852","timezone":"Asia/Makassar","modification_date":"2010-01-29"},{"geonameid":"1626711","name":"Sodong Hilir","asciiname":"Sodong Hilir","alternatenames":"Sodong,Sodong Hilir","latitude":"-7.4894","longitude":"108.0514","feature_class":"P","feature_code":"PPLA3","country_code":"ID","cc2":"","admin1_code":"30","admin2_code":"","admin3_code":"","admin4_code":"","population":"0","elevation":"","dem":"706","timezone":"Asia/Jakarta","modification_date":"2012-02-01"},{"geonameid":"1626746","name":"Sluke","asciiname":"Sluke","alternatenames":"Bloeke,Sloeke,Sluke","latitude":"-6.63252","longitude":"111.49946","feature_class":"P","feature_code":"PPLA3","country_code":"ID","cc2":"","admin1_code":"07","admin2_code":"","admin3_code":"","admin4_code":"","population":"0","elevation":"","dem":"15","timezone":"Asia/Jakarta","modification_date":"2012-01-17"},{"geonameid":"1626748","name":"Selorok","asciiname":"Selorok","alternatenames":"Selorok,Slorok","latitude":"-8.1438","longitude":"112.5259","feature_class":"P","feature_code":"PPLA4","country_code":"ID","cc2":"","admin1_code":"08","admin2_code":"","admin3_code":"","admin4_code":"","population":"0","elevation":"","dem":"326","timezone":"Asia/Jakarta","modification_date":"2012-01-17"},{"geonameid":"1626754","name":"Sleman","asciiname":"Sleman","alternatenames":"Sleman,Suleman","latitude":"-7.71556","longitude":"110.35556","feature_class":"P","feature_code":"PPLA2","country_code":"ID","cc2":"","admin1_code":"10","admin2_code":"","admin3_code":"","admin4_code":"","population":"56215","elevation":"","dem":"210","timezone":"Asia/Jakarta","modification_date":"2016-01-07"},{"geonameid":"1626758","name":"Slawi","asciiname":"Slawi","alternatenames":"Selawi,Slawi,Slawj","latitude":"-6.9816","longitude":"109.1407","feature_class":"P","feature_code":"PPLA2","country_code":"ID","cc2":"","admin1_code":"07","admin2_code":"","admin3_code":"","admin4_code":"","population":"61206","elevation":"","dem":"43","timezone":"Asia/Jakarta","modification_date":"2016-01-07"},{"geonameid":"1626759","name":"Slahung","asciiname":"Slahung","alternatenames":"Slahung,Slaoeng,Slaung","latitude":"-8.0349","longitude":"111.4139","feature_class":"P","feature_code":"PPLA4","country_code":"ID","cc2":"","admin1_code":"08","admin2_code":"","admin3_code":"","admin4_code":"","population":"0","elevation":"","dem":"171","timezone":"Asia/Jakarta","modification_date":"2012-02-01"},{"geonameid":"1626782","name":"Siwa","asciiname":"Siwa","alternatenames":"Siwa","latitude":"-3.6999","longitude":"120.4156","feature_class":"P","feature_code":"PPLA3","country_code":"ID","cc2":"","admin1_code":"38","admin2_code":"","admin3_code":"","admin4_code":"","population":"0","elevation":"","dem":"10","timezone":"Asia/Makassar","modification_date":"2012-01-17"},{"geonameid":"1626801","name":"Situbondo","asciiname":"Situbondo","alternatenames":"Sitoebanda,Sitoebondo,Situbando,Situbondo","latitude":"-7.70623","longitude":"114.00976","feature_class":"P","feature_code":"PPLA2","country_code":"ID","cc2":"","admin1_code":"08","admin2_code":"","admin3_code":"","admin4_code":"","population":"600000","elevation":"","dem":"36","timezone":"Asia/Jakarta","modification_date":"2007-12-13"},{"geonameid":"1626808","name":"Sitiarjo","asciiname":"Sitiarjo","alternatenames":"Sitiardjo,Sitiarjo","latitude":"-8.3793","longitude":"112.6811","feature_class":"P","feature_code":"PPLA4","country_code":"ID","cc2":"","admin1_code":"08","admin2_code":"","admin3_code":"","admin4_code":"","population":"0","elevation":"","dem":"22","timezone":"Asia/Jakarta","modification_date":"2012-01-17"},{"geonameid":"1626887","name":"Sintang","asciiname":"Sintang","alternatenames":"SQG,Sintang","latitude":"0.06667","longitude":"111.5","feature_class":"P","feature_code":"PPLA2","country_code":"ID","cc2":"","admin1_code":"11","admin2_code":"","admin3_code":"","admin4_code":"","population":"0","elevation":"","dem":"24","timezone":"Asia/Pontianak","modification_date":"2016-01-07"},{"geonameid":"1626895","name":"Sinjai","asciiname":"Sinjai","alternatenames":"Sindjai,Sinjai,Sinjay","latitude":"-5.1241","longitude":"120.253","feature_class":"P","feature_code":"PPLA2","country_code":"ID","cc2":"","admin1_code":"38","admin2_code":"","admin3_code":"","admin4_code":"","population":"40797","elevation":"","dem":"6","timezone":"Asia/Makassar","modification_date":"2016-01-07"},{"geonameid":"1626899","name":"Singosari","asciiname":"Singosari","alternatenames":"Singasari,Singosari,Сингосари","latitude":"-7.8924","longitude":"112.6658","feature_class":"P","feature_code":"PPL","country_code":"ID","cc2":"","admin1_code":"08","admin2_code":"","admin3_code":"","admin4_code":"","population":"57793","elevation":"","dem":"501","timezone":"Asia/Jakarta","modification_date":"2012-01-17"},{"geonameid":"1626903","name":"Singojuruh","asciiname":"Singojuruh","alternatenames":"Singodjoeroeh,Singodjuruh,Soekasari","latitude":"-8.31667","longitude":"114.23333","feature_class":"P","feature_code":"PPLA3","country_code":"ID","cc2":"","admin1_code":"08","admin2_code":"","admin3_code":"","admin4_code":"","population":"29418","elevation":"","dem":"157","timezone":"Asia/Jakarta","modification_date":"2007-11-09"},{"geonameid":"1626916","name":"Singkawang","asciiname":"Singkawang","alternatenames":"Sekawang,Singkawang","latitude":"0.90925","longitude":"108.98463","feature_class":"P","feature_code":"PPL","country_code":"ID","cc2":"","admin1_code":"11","admin2_code":"","admin3_code":"","admin4_code":"","population":"101838","elevation":"","dem":"2","timezone":"Asia/Pontianak","modification_date":"2015-11-07"},{"geonameid":"1626920","name":"Singkarak","asciiname":"Singkarak","alternatenames":"Singkarah,Singkarak","latitude":"-0.69089","longitude":"100.60335","feature_class":"P","feature_code":"PPLA3","country_code":"ID","cc2":"","admin1_code":"24","admin2_code":"","admin3_code":"","admin4_code":"","population":"0","elevation":"","dem":"397","timezone":"Asia/Jakarta","modification_date":"2012-01-17"},{"geonameid":"1626921","name":"Sengkang","asciiname":"Sengkang","alternatenames":"Sengkang,Singkang","latitude":"-4.1279","longitude":"120.0297","feature_class":"P","feature_code":"PPLA3","country_code":"ID","cc2":"","admin1_code":"38","admin2_code":"","admin3_code":"","admin4_code":"","population":"59523","elevation":"","dem":"23","timezone":"Asia/Makassar","modification_date":"2012-01-17"},{"geonameid":"1626932","name":"Singaraja","asciiname":"Singaraja","alternatenames":"Boeleleng,Boelèlèng,Singaradja,Singaradzha,Singaraja,shigaraja,Сингараджа,シガラジャ","latitude":"-8.112","longitude":"115.08818","feature_class":"P","feature_code":"PPLA3","country_code":"ID","cc2":"","admin1_code":"02","admin2_code":"","admin3_code":"","admin4_code":"","population":"133784","elevation":"","dem":"11","timezone":"Asia/Makassar","modification_date":"2010-01-29"},{"geonameid":"1626936","name":"Singaparna","asciiname":"Singaparna","alternatenames":"Singaparna","latitude":"-7.3515","longitude":"108.111","feature_class":"P","feature_code":"PPLA2","country_code":"ID","cc2":"","admin1_code":"30","admin2_code":"","admin3_code":"","admin4_code":"","population":"48882","elevation":"","dem":"430","timezone":"Asia/Jakarta","modification_date":"2016-01-07"},{"geonameid":"1626939","name":"Singajaya","asciiname":"Singajaya","alternatenames":"Singadjaja,Singajaya","latitude":"-7.4886","longitude":"107.9116","feature_class":"P","feature_code":"PPLA4","country_code":"ID","cc2":"","admin1_code":"30","admin2_code":"","admin3_code":"","admin4_code":"","population":"0","elevation":"","dem":"590","timezone":"Asia/Jakarta","modification_date":"2012-01-17"},{"geonameid":"1626969","name":"Sindangjaya","asciiname":"Sindangjaya","alternatenames":"Sindangdjaja,Sindangjaya","latitude":"-7.4815","longitude":"108.6616","feature_class":"P","feature_code":"PPLA4","country_code":"ID","cc2":"","admin1_code":"30","admin2_code":"","admin3_code":"","admin4_code":"","population":"0","elevation":"","dem":"17","timezone":"Asia/Jakarta","modification_date":"2012-01-17"},{"geonameid":"1626971","name":"Sindangheula","asciiname":"Sindangheula","alternatenames":"Sindangheula","latitude":"-7.0879","longitude":"108.8106","feature_class":"P","feature_code":"PPLA4","country_code":"ID","cc2":"","admin1_code":"07","admin2_code":"","admin3_code":"","admin4_code":"","population":"0","elevation":"","dem":"118","timezone":"Asia/Jakarta","modification_date":"2012-01-17"},{"geonameid":"1626973","name":"Sindangbarang","asciiname":"Sindangbarang","alternatenames":"Sindangbarang","latitude":"-7.4516","longitude":"107.1353","feature_class":"P","feature_code":"PPLA3","country_code":"ID","cc2":"","admin1_code":"30","admin2_code":"","admin3_code":"","admin4_code":"","population":"0","elevation":"","dem":"8","timezone":"Asia/Jakarta","modification_date":"2013-06-04"},{"geonameid":"1626974","name":"Sindanghayu","asciiname":"Sindanghayu","alternatenames":"Sindangajoe,Sindangaju,Sindangayu,Sindanghayu","latitude":"-7.4716","longitude":"108.6356","feature_class":"P","feature_code":"PPLA4","country_code":"ID","cc2":"","admin1_code":"30","admin2_code":"","admin3_code":"","admin4_code":"","population":"0","elevation":"","dem":"23","timezone":"Asia/Jakarta","modification_date":"2012-01-17"},{"geonameid":"1626995","name":"Simu","asciiname":"Simu","alternatenames":"Simoe,Simu","latitude":"-8.6686","longitude":"117.6898","feature_class":"P","feature_code":"PPLA4","country_code":"ID","cc2":"","admin1_code":"17","admin2_code":"","admin3_code":"","admin4_code":"","population":"0","elevation":"","dem":"28","timezone":"Asia/Makassar","modification_date":"2012-01-17"},{"geonameid":"1626996","name":"Simpur","asciiname":"Simpur","alternatenames":"Simpur","latitude":"-2.8281","longitude":"115.2666","feature_class":"P","feature_code":"PPLA3","country_code":"ID","cc2":"","admin1_code":"12","admin2_code":"","admin3_code":"","admin4_code":"","population":"0","elevation":"","dem":"17","timezone":"Asia/Makassar","modification_date":"2013-12-09"},{"geonameid":"1627018","name":"Simpangempat","asciiname":"Simpangempat","alternatenames":"Simpangampat,Simpangempat","latitude":"-3.2785","longitude":"115.0293","feature_class":"P","feature_code":"PPLA3","country_code":"ID","cc2":"","admin1_code":"12","admin2_code":"","admin3_code":"","admin4_code":"","population":"0","elevation":"","dem":"34","timezone":"Asia/Makassar","modification_date":"2013-12-09"},{"geonameid":"1627028","name":"Simpang","asciiname":"Simpang","alternatenames":"Simpang,Simpang Satu","latitude":"-7.3682","longitude":"107.2166","feature_class":"P","feature_code":"PPLA4","country_code":"ID","cc2":"","admin1_code":"30","admin2_code":"","admin3_code":"","admin4_code":"","population":"0","elevation":"","dem":"429","timezone":"Asia/Jakarta","modification_date":"2012-01-17"},{"geonameid":"1627029","name":"Simpang","asciiname":"Simpang","alternatenames":"Simpang","latitude":"-7.3418","longitude":"106.4576","feature_class":"P","feature_code":"PPLA4","country_code":"ID","cc2":"","admin1_code":"30","admin2_code":"","admin3_code":"","admin4_code":"","population":"0","elevation":"","dem":"45","timezone":"Asia/Jakarta","modification_date":"2012-01-17"},{"geonameid":"1627030","name":"Simpang","asciiname":"Simpang","alternatenames":"Simpang","latitude":"-7.1406","longitude":"107.0033","feature_class":"P","feature_code":"PPLA4","country_code":"ID","cc2":"","admin1_code":"30","admin2_code":"","admin3_code":"","admin4_code":"","population":"0","elevation":"","dem":"759","timezone":"Asia/Jakarta","modification_date":"2012-01-17"},{"geonameid":"1627033","name":"Simpang","asciiname":"Simpang","alternatenames":"Simpang","latitude":"-4.44867","longitude":"104.1922","feature_class":"P","feature_code":"PPLA3","country_code":"ID","cc2":"","admin1_code":"00","admin2_code":"","admin3_code":"","admin4_code":"","population":"0","elevation":"","dem":"125","timezone":"Asia/Jakarta","modification_date":"2012-08-04"},{"geonameid":"1627035","name":"Simpang","asciiname":"Simpang","alternatenames":"Simpang","latitude":"-1.26424","longitude":"104.09701","feature_class":"P","feature_code":"PPL","country_code":"ID","cc2":"","admin1_code":"05","admin2_code":"","admin3_code":"","admin4_code":"","population":"36652","elevation":"","dem":"5","timezone":"Asia/Jakarta","modification_date":"2014-04-06"},{"geonameid":"1627107","name":"Silo","asciiname":"Silo","alternatenames":"Sempolan,Sila,Silo","latitude":"-8.21667","longitude":"113.85364","feature_class":"P","feature_code":"PPLA4","country_code":"ID","cc2":"","admin1_code":"08","admin2_code":"","admin3_code":"","admin4_code":"","population":"0","elevation":"","dem":"291","timezone":"Asia/Jakarta","modification_date":"2012-01-17"},{"geonameid":"1627148","name":"Sila","asciiname":"Sila","alternatenames":"Sila","latitude":"-8.5025","longitude":"118.62","feature_class":"P","feature_code":"PPLA3","country_code":"ID","cc2":"","admin1_code":"17","admin2_code":"","admin3_code":"","admin4_code":"","population":"0","elevation":"","dem":"24","timezone":"Asia/Makassar","modification_date":"2012-01-17"},{"geonameid":"1627184","name":"Sikka","asciiname":"Sikka","alternatenames":"Sika,Sika Besar,Sikka","latitude":"-8.7494","longitude":"122.1961","feature_class":"P","feature_code":"PPLA4","country_code":"ID","cc2":"","admin1_code":"18","admin2_code":"","admin3_code":"","admin4_code":"","population":"0","elevation":"","dem":"13","timezone":"Asia/Makassar","modification_date":"2012-01-17"},{"geonameid":"1627185","name":"Sijunjung","asciiname":"Sijunjung","alternatenames":"Sidjoendioeng,Sidjoendjoeng,Sidjoengdjoeng,Sidjundjung,Sijunjung","latitude":"-0.7005","longitude":"100.9774","feature_class":"P","feature_code":"PPLA3","country_code":"ID","cc2":"","admin1_code":"24","admin2_code":"","admin3_code":"","admin4_code":"","population":"27786","elevation":"","dem":"167","timezone":"Asia/Jakarta","modification_date":"2013-07-04"},{"geonameid":"1627253","name":"Sidoarjo","asciiname":"Sidoarjo","alternatenames":"Sidaardja,Sidoardio,Sidoardja,Sidoardjo,Sidoarjo,Sidohardjo","latitude":"-7.4478","longitude":"112.7183","feature_class":"P","feature_code":"PPLA2","country_code":"ID","cc2":"","admin1_code":"08","admin2_code":"","admin3_code":"","admin4_code":"","population":"139189","elevation":"","dem":"5","timezone":"Asia/Jakarta","modification_date":"2016-01-07"},{"geonameid":"1627267","name":"Sidareja","asciiname":"Sidareja","alternatenames":"Sidaredja,Sidareja","latitude":"-7.4846","longitude":"108.7923","feature_class":"P","feature_code":"PPLA3","country_code":"ID","cc2":"","admin1_code":"07","admin2_code":"","admin3_code":"","admin4_code":"","population":"30313","elevation":"","dem":"8","timezone":"Asia/Jakarta","modification_date":"2012-01-17"},{"geonameid":"1627342","name":"Siak Sri Indrapura","asciiname":"Siak Sri Indrapura","alternatenames":"Siah Seri Inderapura,Siak Sri Inderapura,Siak Sri Indrapoera,Siak Sri Indrapura","latitude":"0.79317","longitude":"102.0511","feature_class":"P","feature_code":"PPLA2","country_code":"ID","cc2":"","admin1_code":"37","admin2_code":"","admin3_code":"","admin4_code":"","population":"0","elevation":"","dem":"5","timezone":"Asia/Jakarta","modification_date":"2016-01-07"},{"geonameid":"1627357","name":"Sewon","asciiname":"Sewon","alternatenames":"","latitude":"-7.87639","longitude":"110.35889","feature_class":"P","feature_code":"PPL","country_code":"ID","cc2":"","admin1_code":"10","admin2_code":"","admin3_code":"","admin4_code":"","population":"73585","elevation":"","dem":"57","timezone":"Asia/Jakarta","modification_date":"2006-01-17"},{"geonameid":"1627401","name":"Seteluk","asciiname":"Seteluk","alternatenames":"Setelai,Seteloek,Setelok,Seteluk","latitude":"-8.62549","longitude":"116.86674","feature_class":"P","feature_code":"PPLA3","country_code":"ID","cc2":"","admin1_code":"17","admin2_code":"","admin3_code":"","admin4_code":"","population":"0","elevation":"","dem":"32","timezone":"Asia/Makassar","modification_date":"2012-01-17"},{"geonameid":"1627434","name":"Sesayap","asciiname":"Sesayap","alternatenames":"Sesajap,Sesajap-lama,Sesayap,Sesayap Lama","latitude":"3.58525","longitude":"117.00765","feature_class":"P","feature_code":"PPLA3","country_code":"ID","cc2":"","admin1_code":"42","admin2_code":"","admin3_code":"","admin4_code":"","population":"0","elevation":"","dem":"7","timezone":"Asia/Makassar","modification_date":"2013-09-05"},{"geonameid":"1627453","name":"Serui","asciiname":"Serui","alternatenames":"Seroei,Serui,ZRI","latitude":"-1.8802","longitude":"136.2426","feature_class":"P","feature_code":"PPLA2","country_code":"ID","cc2":"","admin1_code":"36","admin2_code":"","admin3_code":"","admin4_code":"","population":"0","elevation":"","dem":"10","timezone":"Asia/Jayapura","modification_date":"2013-05-07"},{"geonameid":"1627459","name":"Serpong","asciiname":"Serpong","alternatenames":"","latitude":"-6.31694","longitude":"106.66417","feature_class":"P","feature_code":"PPL","country_code":"ID","cc2":"","admin1_code":"30","admin2_code":"","admin3_code":"","admin4_code":"","population":"80193","elevation":"","dem":"49","timezone":"Asia/Jakarta","modification_date":"2006-01-17"},{"geonameid":"1627504","name":"Seredang","asciiname":"Seredang","alternatenames":"Serdang,Seredang","latitude":"-6.8043","longitude":"106.2653","feature_class":"P","feature_code":"PPLA4","country_code":"ID","cc2":"","admin1_code":"33","admin2_code":"","admin3_code":"","admin4_code":"","population":"0","elevation":"","dem":"411","timezone":"Asia/Jakarta","modification_date":"2012-01-17"},{"geonameid":"1627524","name":"Serasan","asciiname":"Serasan","alternatenames":"","latitude":"2.51111","longitude":"109.03111","feature_class":"P","feature_code":"PPLA3","country_code":"ID","cc2":"","admin1_code":"40","admin2_code":"","admin3_code":"","admin4_code":"","population":"0","elevation":"","dem":"7","timezone":"Asia/Jakarta","modification_date":"2015-08-06"},{"geonameid":"1627546","name":"Serang","asciiname":"Serang","alternatenames":"Serang","latitude":"-8.3077","longitude":"112.2402","feature_class":"P","feature_code":"PPLA4","country_code":"ID","cc2":"","admin1_code":"08","admin2_code":"","admin3_code":"","admin4_code":"","population":"0","elevation":"","dem":"78","timezone":"Asia/Jakarta","modification_date":"2012-01-17"},{"geonameid":"1627549","name":"Serang","asciiname":"Serang","alternatenames":"Kabupaten Serang,Serang","latitude":"-6.1149","longitude":"106.1502","feature_class":"P","feature_code":"PPLA","country_code":"ID","cc2":"","admin1_code":"33","admin2_code":"","admin3_code":"","admin4_code":"","population":"164767","elevation":"","dem":"26","timezone":"Asia/Jakarta","modification_date":"2013-06-27"},{"geonameid":"1627587","name":"Sepit","asciiname":"Sepit","alternatenames":"Sepit","latitude":"-8.7418","longitude":"116.4607","feature_class":"P","feature_code":"PPLA4","country_code":"ID","cc2":"","admin1_code":"17","admin2_code":"","admin3_code":"","admin4_code":"","population":"0","elevation":"","dem":"112","timezone":"Asia/Makassar","modification_date":"2012-01-17"},{"geonameid":"1627610","name":"Sepatan","asciiname":"Sepatan","alternatenames":"Sepaitan,Sepatan","latitude":"-6.11889","longitude":"106.575","feature_class":"P","feature_code":"PPL","country_code":"ID","cc2":"","admin1_code":"30","admin2_code":"","admin3_code":"","admin4_code":"","population":"118439","elevation":"","dem":"11","timezone":"Asia/Jakarta","modification_date":"2012-01-17"},{"geonameid":"1627622","name":"Sepanjang","asciiname":"Sepanjang","alternatenames":"Sepandjang,Sepanjang,Sepanjang Kidul","latitude":"-8.3014","longitude":"114.0513","feature_class":"P","feature_code":"PPLA4","country_code":"ID","cc2":"","admin1_code":"08","admin2_code":"","admin3_code":"","admin4_code":"","population":"0","elevation":"","dem":"339","timezone":"Asia/Jakarta","modification_date":"2012-01-17"},{"geonameid":"1627625","name":"Sepang","asciiname":"Sepang","alternatenames":"Sepang","latitude":"-8.3089","longitude":"114.9171","feature_class":"P","feature_code":"PPLA4","country_code":"ID","cc2":"","admin1_code":"02","admin2_code":"","admin3_code":"","admin4_code":"","population":"0","elevation":"","dem":"448","timezone":"Asia/Makassar","modification_date":"2012-01-17"},{"geonameid":"1627649","name":"Sentul","asciiname":"Sentul","alternatenames":"Sentoel,Sentul,Sentuli","latitude":"-7.5591","longitude":"108.7376","feature_class":"P","feature_code":"PPLA4","country_code":"ID","cc2":"","admin1_code":"30","admin2_code":"","admin3_code":"","admin4_code":"","population":"0","elevation":"","dem":"27","timezone":"Asia/Jakarta","modification_date":"2012-01-17"},{"geonameid":"1627651","name":"Sentul","asciiname":"Sentul","alternatenames":"Sentoel,Sentul,Setol","latitude":"-6.88154","longitude":"112.43034","feature_class":"P","feature_code":"PPLA4","country_code":"ID","cc2":"","admin1_code":"08","admin2_code":"","admin3_code":"","admin4_code":"","population":"0","elevation":"","dem":"22","timezone":"Asia/Jakarta","modification_date":"2012-01-17"},{"geonameid":"1627672","name":"Senori","asciiname":"Senori","alternatenames":"Djatisari,Senori","latitude":"-7.0157","longitude":"111.7244","feature_class":"P","feature_code":"PPLA3","country_code":"ID","cc2":"","admin1_code":"00","admin2_code":"","admin3_code":"","admin4_code":"","population":"0","elevation":"","dem":"55","timezone":"Asia/Jakarta","modification_date":"2012-01-17"},{"geonameid":"1627673","name":"Senori","asciiname":"Senori","alternatenames":"Senor,Senori","latitude":"-6.8709","longitude":"111.9589","feature_class":"P","feature_code":"PPLA4","country_code":"ID","cc2":"","admin1_code":"08","admin2_code":"","admin3_code":"","admin4_code":"","population":"0","elevation":"","dem":"10","timezone":"Asia/Jakarta","modification_date":"2012-01-17"},{"geonameid":"1627708","name":"Sengeti","asciiname":"Sengeti","alternatenames":"Sengeti,Sengiti,Singeti","latitude":"-1.4772","longitude":"103.50765","feature_class":"P","feature_code":"PPLA2","country_code":"ID","cc2":"","admin1_code":"05","admin2_code":"","admin3_code":"","admin4_code":"","population":"0","elevation":"","dem":"14","timezone":"Asia/Jakarta","modification_date":"2014-04-06"},{"geonameid":"1627717","name":"Sangatta","asciiname":"Sangatta","alternatenames":"Sangatta,Sengata","latitude":"0.5049","longitude":"117.5279","feature_class":"P","feature_code":"PPLA2","country_code":"ID","cc2":"","admin1_code":"14","admin2_code":"","admin3_code":"","admin4_code":"","population":"0","elevation":"","dem":"10","timezone":"Asia/Makassar","modification_date":"2016-01-07"},{"geonameid":"1627732","name":"Senduro","asciiname":"Senduro","alternatenames":"Sendoera,Sendoero,Senduro","latitude":"-8.0936","longitude":"113.0891","feature_class":"P","feature_code":"PPLA3","country_code":"ID","cc2":"","admin1_code":"08","admin2_code":"","admin3_code":"","admin4_code":"","population":"0","elevation":"","dem":"441","timezone":"Asia/Jakarta","modification_date":"2012-01-17"},{"geonameid":"1627778","name":"Semuda","asciiname":"Semuda","alternatenames":"Samoeda,Samuda,Sanuda,Semoeda,Semuda","latitude":"-2.8617","longitude":"112.9732","feature_class":"P","feature_code":"PPLA3","country_code":"ID","cc2":"","admin1_code":"13","admin2_code":"","admin3_code":"","admin4_code":"","population":"0","elevation":"","dem":"9","timezone":"Asia/Pontianak","modification_date":"2013-12-09"},{"geonameid":"1627794","name":"Sempol","asciiname":"Sempol","alternatenames":"Sempo,Sempol","latitude":"-8.0075","longitude":"114.1489","feature_class":"P","feature_code":"PPLA4","country_code":"ID","cc2":"","admin1_code":"08","admin2_code":"","admin3_code":"","admin4_code":"","population":"0","elevation":"","dem":"1103","timezone":"Asia/Jakarta","modification_date":"2012-01-17"},{"geonameid":"1627816","name":"Semongkat","asciiname":"Semongkat","alternatenames":"Semongkat","latitude":"-8.5721","longitude":"117.3193","feature_class":"P","feature_code":"PPLA3","country_code":"ID","cc2":"","admin1_code":"17","admin2_code":"","admin3_code":"","admin4_code":"","population":"0","elevation":"","dem":"319","timezone":"Asia/Makassar","modification_date":"2012-01-17"},{"geonameid":"1627826","name":"Semiring","asciiname":"Semiring","alternatenames":"Semering,Semiring","latitude":"-7.63","longitude":"114.0222","feature_class":"P","feature_code":"PPLA4","country_code":"ID","cc2":"","admin1_code":"08","admin2_code":"","admin3_code":"","admin4_code":"","population":"0","elevation":"","dem":"7","timezone":"Asia/Jakarta","modification_date":"2012-01-17"},{"geonameid":"1627831","name":"Semilat","asciiname":"Semilat","alternatenames":"Semilat","latitude":"-2.3077","longitude":"112.2118","feature_class":"P","feature_code":"PPLA3","country_code":"ID","cc2":"","admin1_code":"13","admin2_code":"","admin3_code":"","admin4_code":"","population":"0","elevation":"","dem":"28","timezone":"Asia/Pontianak","modification_date":"2013-12-09"},{"geonameid":"1627858","name":"Semboro Lor","asciiname":"Semboro Lor","alternatenames":"Semboro,Semboro Lor","latitude":"-8.1901","longitude":"113.4445","feature_class":"P","feature_code":"PPLA3","country_code":"ID","cc2":"","admin1_code":"08","admin2_code":"","admin3_code":"","admin4_code":"","population":"0","elevation":"","dem":"32","timezone":"Asia/Jakarta","modification_date":"2012-01-17"},{"geonameid":"1627873","name":"Sembalunlawang","asciiname":"Sembalunlawang","alternatenames":"Sambaloen Lawang,Sembaloen,Sembaloenlawang,Sembalunlawang","latitude":"-8.3635","longitude":"116.5339","feature_class":"P","feature_code":"PPLA4","country_code":"ID","cc2":"","admin1_code":"17","admin2_code":"","admin3_code":"","admin4_code":"","population":"0","elevation":"","dem":"1165","timezone":"Asia/Makassar","modification_date":"2012-01-17"},{"geonameid":"1627874","name":"Sembalunbumbung","asciiname":"Sembalunbumbung","alternatenames":"Sembaloenboemboeng,Sembalunbumbung","latitude":"-8.3852","longitude":"116.5447","feature_class":"P","feature_code":"PPLA4","country_code":"ID","cc2":"","admin1_code":"17","admin2_code":"","admin3_code":"","admin4_code":"","population":"0","elevation":"","dem":"1191","timezone":"Asia/Makassar","modification_date":"2012-01-17"},{"geonameid":"1627877","name":"Sembakung","asciiname":"Sembakung","alternatenames":"Sembakoeng,Sembaroen","latitude":"3.81667","longitude":"117.25","feature_class":"P","feature_code":"PPL","country_code":"ID","cc2":"","admin1_code":"14","admin2_code":"","admin3_code":"","admin4_code":"","population":"8098","elevation":"","dem":"11","timezone":"Asia/Makassar","modification_date":"2007-11-09"},{"geonameid":"1627896","name":"Semarang","asciiname":"Semarang","alternatenames":"Gorad Semarang,Kota Semarang,Kutha Semarang,SRG,Samarang,Semaran'nk,Semarang,Semarangas,cemaran,san bao long,san ma leng,se ma rang,semarangi,seumalang,smarang,sumaran,symarang,symaranj,Σεμαράνγκ,Горад Семаранг,Семаранг,سمارانگ,سيمارانج,سیمارانگ,செமாராங்,เซมารัง,სემარანგი,スマラン,三孖冷,三宝垄,三寶瓏,스마랑","latitude":"-6.9932","longitude":"110.4203","feature_class":"P","feature_code":"PPLA","country_code":"ID","cc2":"","admin1_code":"07","admin2_code":"","admin3_code":"","admin4_code":"","population":"1288084","elevation":"","dem":"19","timezone":"Asia/Jakarta","modification_date":"2012-02-04"},{"geonameid":"1627908","name":"Semanggi","asciiname":"Semanggi","alternatenames":"Samanggi,Semanggi","latitude":"-7.0591","longitude":"111.4281","feature_class":"P","feature_code":"PPLA4","country_code":"ID","cc2":"","admin1_code":"07","admin2_code":"","admin3_code":"","admin4_code":"","population":"0","elevation":"","dem":"229","timezone":"Asia/Jakarta","modification_date":"2012-01-17"},{"geonameid":"1627915","name":"Semamung","asciiname":"Semamung","alternatenames":"Semamaeng,Semamung","latitude":"-8.6515","longitude":"117.4288","feature_class":"P","feature_code":"PPLA3","country_code":"ID","cc2":"","admin1_code":"17","admin2_code":"","admin3_code":"","admin4_code":"","population":"0","elevation":"","dem":"102","timezone":"Asia/Makassar","modification_date":"2012-01-17"},{"geonameid":"1627953","name":"Selorejo","asciiname":"Selorejo","alternatenames":"Seloredjo,Selorejo","latitude":"-8.1392","longitude":"112.4257","feature_class":"P","feature_code":"PPLA3","country_code":"ID","cc2":"","admin1_code":"08","admin2_code":"","admin3_code":"","admin4_code":"","population":"0","elevation":"","dem":"299","timezone":"Asia/Jakarta","modification_date":"2012-01-17"},{"geonameid":"1627956","name":"Selopuro","asciiname":"Selopuro","alternatenames":"Selopuro","latitude":"-8.1449","longitude":"112.3086","feature_class":"P","feature_code":"PPLA4","country_code":"ID","cc2":"","admin1_code":"08","admin2_code":"","admin3_code":"","admin4_code":"","population":"0","elevation":"","dem":"202","timezone":"Asia/Jakarta","modification_date":"2012-01-17"},{"geonameid":"1627957","name":"Selong","asciiname":"Selong","alternatenames":"Balli,Selong","latitude":"-8.6503","longitude":"116.5318","feature_class":"P","feature_code":"PPLA2","country_code":"ID","cc2":"","admin1_code":"17","admin2_code":"","admin3_code":"","admin4_code":"","population":"0","elevation":"","dem":"156","timezone":"Asia/Makassar","modification_date":"2016-01-07"},{"geonameid":"1627965","name":"Selokambang","asciiname":"Selokambang","alternatenames":"Selokambang","latitude":"-8.1428","longitude":"113.1662","feature_class":"P","feature_code":"PPLA4","country_code":"ID","cc2":"","admin1_code":"08","admin2_code":"","admin3_code":"","admin4_code":"","population":"0","elevation":"","dem":"129","timezone":"Asia/Jakarta","modification_date":"2012-01-17"},{"geonameid":"1627969","name":"Selogiri","asciiname":"Selogiri","alternatenames":"","latitude":"-7.78333","longitude":"110.86667","feature_class":"P","feature_code":"PPL","country_code":"ID","cc2":"","admin1_code":"07","admin2_code":"","admin3_code":"","admin4_code":"","population":"30180","elevation":"","dem":"117","timezone":"Asia/Jakarta","modification_date":"2013-11-08"},{"geonameid":"1628004","name":"Selebung","asciiname":"Selebung","alternatenames":"Seleboeng,Selebung","latitude":"-8.7651","longitude":"116.482","feature_class":"P","feature_code":"PPLA4","country_code":"ID","cc2":"","admin1_code":"17","admin2_code":"","admin3_code":"","admin4_code":"","population":"0","elevation":"","dem":"72","timezone":"Asia/Makassar","modification_date":"2012-01-17"},{"geonameid":"1628019","name":"Selat Panjang","asciiname":"Selat Panjang","alternatenames":"Selat Panjang,Selatpandjang,Selatpanjang,Setat Pandjang","latitude":"0.99408","longitude":"102.70817","feature_class":"P","feature_code":"PPLA2","country_code":"ID","cc2":"","admin1_code":"37","admin2_code":"","admin3_code":"","admin4_code":"","population":"0","elevation":"","dem":"11","timezone":"Asia/Jakarta","modification_date":"2016-01-07"},{"geonameid":"1628057","name":"Cidolog","asciiname":"Cidolog","alternatenames":"Cidolog,Selamandjah,Selamanjah","latitude":"-7.3167","longitude":"106.8395","feature_class":"P","feature_code":"PPLA4","country_code":"ID","cc2":"","admin1_code":"30","admin2_code":"","admin3_code":"","admin4_code":"","population":"0","elevation":"","dem":"260","timezone":"Asia/Jakarta","modification_date":"2013-06-04"},{"geonameid":"1628058","name":"Salakuray","asciiname":"Salakuray","alternatenames":"Salakuray,Selakoeraj,Selakuraj,Selakuray","latitude":"-7.2564","longitude":"107.8643","feature_class":"P","feature_code":"PPLA4","country_code":"ID","cc2":"","admin1_code":"30","admin2_code":"","admin3_code":"","admin4_code":"","population":"0","elevation":"","dem":"883","timezone":"Asia/Jakarta","modification_date":"2012-01-17"},{"geonameid":"1628064","name":"Selasari","asciiname":"Selasari","alternatenames":"Selakambang,Selakembang,Selasari","latitude":"-7.6203","longitude":"108.5205","feature_class":"P","feature_code":"PPLA4","country_code":"ID","cc2":"","admin1_code":"30","admin2_code":"","admin3_code":"","admin4_code":"","population":"0","elevation":"","dem":"140","timezone":"Asia/Jakarta","modification_date":"2012-01-17"},{"geonameid":"1628068","name":"Selajambe","asciiname":"Selajambe","alternatenames":"Seladjambe,Selajambe","latitude":"-7.1181","longitude":"108.4625","feature_class":"P","feature_code":"PPLA3","country_code":"ID","cc2":"","admin1_code":"30","admin2_code":"","admin3_code":"","admin4_code":"","population":"0","elevation":"","dem":"305","timezone":"Asia/Jakarta","modification_date":"2012-01-17"},{"geonameid":"1628079","name":"Selacai","asciiname":"Selacai","alternatenames":"Selacai,Selatjai","latitude":"-7.2156","longitude":"108.3829","feature_class":"P","feature_code":"PPLA4","country_code":"ID","cc2":"","admin1_code":"30","admin2_code":"","admin3_code":"","admin4_code":"","population":"0","elevation":"","dem":"285","timezone":"Asia/Jakarta","modification_date":"2012-01-17"},{"geonameid":"1628086","name":"Selaawi","asciiname":"Selaawi","alternatenames":"Selaawi","latitude":"-7.31947","longitude":"107.47846","feature_class":"P","feature_code":"PPLA4","country_code":"ID","cc2":"","admin1_code":"30","admin2_code":"","admin3_code":"","admin4_code":"","population":"0","elevation":"","dem":"813","timezone":"Asia/Jakarta","modification_date":"2012-01-17"},{"geonameid":"1628094","name":"Sekupang","asciiname":"Sekupang","alternatenames":"Sekoepang,Sekupang","latitude":"1.12723","longitude":"103.92672","feature_class":"P","feature_code":"PPLA3","country_code":"ID","cc2":"","admin1_code":"40","admin2_code":"","admin3_code":"","admin4_code":"","population":"0","elevation":"","dem":"34","timezone":"Asia/Jakarta","modification_date":"2015-08-06"},{"geonameid":"1628105","name":"Sekongkang Bawah","asciiname":"Sekongkang Bawah","alternatenames":"Sekongkang Bawah","latitude":"-8.9659","longitude":"116.74917","feature_class":"P","feature_code":"PPLA3","country_code":"ID","cc2":"","admin1_code":"17","admin2_code":"","admin3_code":"","admin4_code":"","population":"0","elevation":"","dem":"11","timezone":"Asia/Makassar","modification_date":"2014-09-30"},{"geonameid":"1628131","name":"Sekayu","asciiname":"Sekayu","alternatenames":"Sekaja,Sekajoe,Sekaju,Sekayu","latitude":"-2.8819","longitude":"103.8344","feature_class":"P","feature_code":"PPLA2","country_code":"ID","cc2":"","admin1_code":"32","admin2_code":"","admin3_code":"","admin4_code":"","population":"0","elevation":"","dem":"14","timezone":"Asia/Jakarta","modification_date":"2013-04-03"},{"geonameid":"1628144","name":"Sekernan","asciiname":"Sekernan","alternatenames":"Sekarnan,Sekernan","latitude":"-1.52342","longitude":"103.56752","feature_class":"P","feature_code":"PPLA3","country_code":"ID","cc2":"","admin1_code":"05","admin2_code":"","admin3_code":"","admin4_code":"","population":"0","elevation":"","dem":"18","timezone":"Asia/Jakarta","modification_date":"2014-04-06"},{"geonameid":"1628152","name":"Sekapuk","asciiname":"Sekapuk","alternatenames":"Sekapoek,Sekapuk","latitude":"-6.9542","longitude":"112.5055","feature_class":"P","feature_code":"PPLA4","country_code":"ID","cc2":"","admin1_code":"00","admin2_code":"","admin3_code":"","admin4_code":"","population":"0","elevation":"","dem":"39","timezone":"Asia/Jakarta","modification_date":"2012-01-17"},{"geonameid":"1628162","name":"Sekampung","asciiname":"Sekampung","alternatenames":"Sekampung","latitude":"-5.13326","longitude":"105.43595","feature_class":"P","feature_code":"PPLA3","country_code":"ID","cc2":"","admin1_code":"15","admin2_code":"","admin3_code":"","admin4_code":"","population":"0","elevation":"","dem":"51","timezone":"Asia/Jakarta","modification_date":"2012-01-17"},{"geonameid":"1628174","name":"Sekadau","asciiname":"Sekadau","alternatenames":"Sekadau","latitude":"0.01667","longitude":"110.9","feature_class":"P","feature_code":"PPLA2","country_code":"ID","cc2":"","admin1_code":"11","admin2_code":"","admin3_code":"","admin4_code":"","population":"0","elevation":"","dem":"19","timezone":"Asia/Pontianak","modification_date":"2016-01-07"},{"geonameid":"1628207","name":"Segong","asciiname":"Segong","alternatenames":"Segong,Sègong","latitude":"-7.0875","longitude":"108.6476","feature_class":"P","feature_code":"PPLA4","country_code":"ID","cc2":"","admin1_code":"30","admin2_code":"","admin3_code":"","admin4_code":"","population":"0","elevation":"","dem":"236","timezone":"Asia/Jakarta","modification_date":"2012-01-17"},{"geonameid":"1628212","name":"Seget","asciiname":"Seget","alternatenames":"Kampoeng Seget,Seget","latitude":"-1.41179","longitude":"130.97478","feature_class":"P","feature_code":"PPLA3","country_code":"ID","cc2":"","admin1_code":"39","admin2_code":"","admin3_code":"","admin4_code":"","population":"0","elevation":"","dem":"23","timezone":"Asia/Jayapura","modification_date":"2014-01-09"},{"geonameid":"1628252","name":"Sedinginan","asciiname":"Sedinginan","alternatenames":"Sedinginan,Sidinginan","latitude":"1.55381","longitude":"101.0152","feature_class":"P","feature_code":"PPLA3","country_code":"ID","cc2":"","admin1_code":"37","admin2_code":"","admin3_code":"","admin4_code":"","population":"0","elevation":"","dem":"24","timezone":"Asia/Jakarta","modification_date":"2013-09-05"},{"geonameid":"1628264","name":"Sidayu","asciiname":"Sidayu","alternatenames":"Sedaju,Sedayu,Sidajd,Sidajoe,Sidaju,Sidayu","latitude":"-6.9993","longitude":"112.5636","feature_class":"P","feature_code":"PPLA3","country_code":"ID","cc2":"","admin1_code":"08","admin2_code":"","admin3_code":"","admin4_code":"","population":"0","elevation":"","dem":"14","timezone":"Asia/Jakarta","modification_date":"2012-01-17"},{"geonameid":"1628278","name":"Sedanau","asciiname":"Sedanau","alternatenames":"Sedanau","latitude":"3.79377","longitude":"108.02929","feature_class":"P","feature_code":"PPLA3","country_code":"ID","cc2":"","admin1_code":"40","admin2_code":"","admin3_code":"","admin4_code":"","population":"0","elevation":"","dem":"2","timezone":"Asia/Pontianak","modification_date":"2015-08-06"},{"geonameid":"1628279","name":"Sedan","asciiname":"Sedan","alternatenames":"Saden,Sedan","latitude":"-6.7668","longitude":"111.5744","feature_class":"P","feature_code":"PPLA3","country_code":"ID","cc2":"","admin1_code":"07","admin2_code":"","admin3_code":"","admin4_code":"","population":"0","elevation":"","dem":"37","timezone":"Asia/Jakarta","modification_date":"2012-01-17"},{"geonameid":"1628302","name":"Sebulu","asciiname":"Sebulu","alternatenames":"Seboekoe,Seboeloe,Sebulu","latitude":"-0.27393","longitude":"116.99835","feature_class":"P","feature_code":"PPLA3","country_code":"ID","cc2":"","admin1_code":"14","admin2_code":"","admin3_code":"","admin4_code":"","population":"0","elevation":"","dem":"8","timezone":"Asia/Makassar","modification_date":"2013-11-08"},{"geonameid":"1628310","name":"Sebuku","asciiname":"Sebuku","alternatenames":"Sebuku,Siboekoe,Sibuku","latitude":"4.00232","longitude":"117.03456","feature_class":"P","feature_code":"PPLA3","country_code":"ID","cc2":"","admin1_code":"42","admin2_code":"","admin3_code":"","admin4_code":"","population":"0","elevation":"","dem":"4","timezone":"Asia/Makassar","modification_date":"2013-09-05"},{"geonameid":"1628453","name":"Sawangan","asciiname":"Sawangan","alternatenames":"","latitude":"-6.40278","longitude":"106.77444","feature_class":"P","feature_code":"PPL","country_code":"ID","cc2":"","admin1_code":"30","admin2_code":"","admin3_code":"","admin4_code":"","population":"114069","elevation":"","dem":"88","timezone":"Asia/Jakarta","modification_date":"2006-01-17"},{"geonameid":"1628458","name":"Sawang","asciiname":"Sawang","alternatenames":"Sawang","latitude":"0.7368","longitude":"103.35635","feature_class":"P","feature_code":"PPLA3","country_code":"ID","cc2":"","admin1_code":"40","admin2_code":"","admin3_code":"","admin4_code":"","population":"0","elevation":"","dem":"10","timezone":"Asia/Jakarta","modification_date":"2015-08-06"},{"geonameid":"1628508","name":"Saukorem","asciiname":"Saukorem","alternatenames":"Saoekorem,Saokorem,Saukorem","latitude":"-0.565","longitude":"133.1527","feature_class":"P","feature_code":"PPLA3","country_code":"ID","cc2":"","admin1_code":"39","admin2_code":"","admin3_code":"","admin4_code":"","population":"0","elevation":"","dem":"19","timezone":"Asia/Jayapura","modification_date":"2013-05-07"},{"geonameid":"1628520","name":"Satui","asciiname":"Satui","alternatenames":"Satoei,Satoel,Satui","latitude":"-3.7818","longitude":"115.4575","feature_class":"P","feature_code":"PPLA3","country_code":"ID","cc2":"","admin1_code":"12","admin2_code":"","admin3_code":"","admin4_code":"","population":"0","elevation":"","dem":"13","timezone":"Asia/Makassar","modification_date":"2013-12-09"},{"geonameid":"1628567","name":"Sarongan","asciiname":"Sarongan","alternatenames":"Sarongan,Sarungan","latitude":"-8.5416","longitude":"113.9604","feature_class":"P","feature_code":"PPLA4","country_code":"ID","cc2":"","admin1_code":"08","admin2_code":"","admin3_code":"","admin4_code":"","population":"0","elevation":"","dem":"13","timezone":"Asia/Jakarta","modification_date":"2012-02-01"},{"geonameid":"1628568","name":"Saruaso","asciiname":"Saruaso","alternatenames":"Saruaso","latitude":"-0.4831","longitude":"100.63765","feature_class":"P","feature_code":"PPLA3","country_code":"ID","cc2":"","admin1_code":"24","admin2_code":"","admin3_code":"","admin4_code":"","population":"0","elevation":"","dem":"342","timezone":"Asia/Jakarta","modification_date":"2012-01-17"},{"geonameid":"1628581","name":"Sarolangun","asciiname":"Sarolangun","alternatenames":"Sarolangoen,Sarolangun","latitude":"-2.3121","longitude":"102.7271","feature_class":"P","feature_code":"PPLA2","country_code":"ID","cc2":"","admin1_code":"05","admin2_code":"","admin3_code":"","admin4_code":"","population":"0","elevation":"","dem":"38","timezone":"Asia/Jakarta","modification_date":"2013-02-08"},{"geonameid":"1628587","name":"Sarmi","asciiname":"Sarmi","alternatenames":"Sarmi,Sarmo,ZRM","latitude":"-1.85302","longitude":"138.75093","feature_class":"P","feature_code":"PPLA3","country_code":"ID","cc2":"","admin1_code":"36","admin2_code":"9419","admin3_code":"","admin4_code":"","population":"0","elevation":"","dem":"7","timezone":"Asia/Jayapura","modification_date":"2015-04-26"},{"geonameid":"1628596","name":"Sarilamak","asciiname":"Sarilamak","alternatenames":"Sarilamak","latitude":"-0.1503","longitude":"100.664","feature_class":"P","feature_code":"PPLA2","country_code":"ID","cc2":"","admin1_code":"24","admin2_code":"","admin3_code":"","admin4_code":"","population":"0","elevation":"","dem":"501","timezone":"Asia/Jakarta","modification_date":"2016-01-07"},{"geonameid":"1628633","name":"Sarangmeduro","asciiname":"Sarangmeduro","alternatenames":"Sarang,Sarangdjawa,Sarangmeduro,Savang","latitude":"-6.7366","longitude":"111.6698","feature_class":"P","feature_code":"PPLA4","country_code":"ID","cc2":"","admin1_code":"07","admin2_code":"","admin3_code":"","admin4_code":"","population":"0","elevation":"","dem":"5","timezone":"Asia/Jakarta","modification_date":"2012-01-17"},{"geonameid":"1628652","name":"Sepulu","asciiname":"Sepulu","alternatenames":"Sapoeloe,Sapolo,Sapulu,Sepoeloe,Sepulu,Sĕpoeloe","latitude":"-6.8976","longitude":"112.9593","feature_class":"P","feature_code":"PPLA3","country_code":"ID","cc2":"","admin1_code":"08","admin2_code":"","admin3_code":"","admin4_code":"","population":"0","elevation":"","dem":"4","timezone":"Asia/Jakarta","modification_date":"2012-09-06"},{"geonameid":"1628670","name":"Sapeken","asciiname":"Sapeken","alternatenames":"Sapekan,Sapeken,Sepekan","latitude":"-7.00468","longitude":"115.70619","feature_class":"P","feature_code":"PPLA3","country_code":"ID","cc2":"","admin1_code":"08","admin2_code":"","admin3_code":"","admin4_code":"","population":"0","elevation":"","dem":"4","timezone":"Asia/Jakarta","modification_date":"2012-11-08"},{"geonameid":"1628678","name":"Sapat","asciiname":"Sapat","alternatenames":"Sapat,Sapatloear,Sepat","latitude":"-0.3235","longitude":"103.3101","feature_class":"P","feature_code":"PPLA3","country_code":"ID","cc2":"","admin1_code":"37","admin2_code":"","admin3_code":"","admin4_code":"","population":"0","elevation":"","dem":"6","timezone":"Asia/Jakarta","modification_date":"2013-07-04"},{"geonameid":"1628682","name":"Saparua","asciiname":"Saparua","alternatenames":"Saparoea,Saparua","latitude":"-3.573","longitude":"128.65242","feature_class":"P","feature_code":"PPLA3","country_code":"ID","cc2":"","admin1_code":"28","admin2_code":"","admin3_code":"","admin4_code":"","population":"0","elevation":"","dem":"3","timezone":"Asia/Jayapura","modification_date":"2014-01-09"},{"geonameid":"1628696","name":"Saonek","asciiname":"Saonek","alternatenames":"Saonek","latitude":"-0.4379","longitude":"130.7559","feature_class":"P","feature_code":"PPLA3","country_code":"ID","cc2":"","admin1_code":"39","admin2_code":"","admin3_code":"","admin4_code":"","population":"0","elevation":"","dem":"68","timezone":"Asia/Jayapura","modification_date":"2014-01-09"},{"geonameid":"1628714","name":"Santosa","asciiname":"Santosa","alternatenames":"Santosa","latitude":"-7.2537","longitude":"107.6388","feature_class":"P","feature_code":"PPLA4","country_code":"ID","cc2":"","admin1_code":"30","admin2_code":"","admin3_code":"","admin4_code":"","population":"0","elevation":"","dem":"1631","timezone":"Asia/Jakarta","modification_date":"2012-01-17"},{"geonameid":"1628725","name":"Sausapor","asciiname":"Sausapor","alternatenames":"Sansapor,Sausapor","latitude":"-0.49985","longitude":"132.08588","feature_class":"P","feature_code":"PPLA3","country_code":"ID","cc2":"","admin1_code":"39","admin2_code":"","admin3_code":"","admin4_code":"","population":"0","elevation":"","dem":"13","timezone":"Asia/Jayapura","modification_date":"2014-01-09"},{"geonameid":"1628744","name":"Sangojar","asciiname":"Sangojar","alternatenames":"Sangodjar,Sangojar","latitude":"-7.1667","longitude":"108.0306","feature_class":"P","feature_code":"PPLA4","country_code":"ID","cc2":"","admin1_code":"30","admin2_code":"","admin3_code":"","admin4_code":"","population":"0","elevation":"","dem":"855","timezone":"Asia/Jakarta","modification_date":"2012-01-17"},{"geonameid":"1628757","name":"Sangkulirang","asciiname":"Sangkulirang","alternatenames":"Benoa Baroe,Benoa Baru,Benua Baru,Sangkoelirang,Sangkulirang","latitude":"0.977","longitude":"117.9803","feature_class":"P","feature_code":"PPLA3","country_code":"ID","cc2":"","admin1_code":"14","admin2_code":"","admin3_code":"","admin4_code":"","population":"0","elevation":"","dem":"0","timezone":"Asia/Makassar","modification_date":"2012-11-08"},{"geonameid":"1628802","name":"Sanggau","asciiname":"Sanggau","alternatenames":"Sanggau","latitude":"0.13333","longitude":"110.6","feature_class":"P","feature_code":"PPLA2","country_code":"ID","cc2":"","admin1_code":"11","admin2_code":"","admin3_code":"","admin4_code":"","population":"0","elevation":"","dem":"49","timezone":"Asia/Pontianak","modification_date":"2016-01-07"},{"geonameid":"1628813","name":"Kore","asciiname":"Kore","alternatenames":"Kore,Sanggar","latitude":"-8.37599","longitude":"118.29876","feature_class":"P","feature_code":"PPLA3","country_code":"ID","cc2":"","admin1_code":"17","admin2_code":"","admin3_code":"","admin4_code":"","population":"0","elevation":"","dem":"12","timezone":"Asia/Makassar","modification_date":"2013-01-10"},{"geonameid":"1628827","name":"Sangasangadalam","asciiname":"Sangasangadalam","alternatenames":"Sanga 2,Sangasanga,Sangasangadalam,Sangsanga-dalam","latitude":"-0.6624","longitude":"117.2365","feature_class":"P","feature_code":"PPLA3","country_code":"ID","cc2":"","admin1_code":"14","admin2_code":"","admin3_code":"","admin4_code":"","population":"0","elevation":"","dem":"7","timezone":"Asia/Makassar","modification_date":"2013-11-08"},{"geonameid":"1628858","name":"Sanana","asciiname":"Sanana","alternatenames":"SQN,Sanana","latitude":"-2.05853","longitude":"125.97786","feature_class":"P","feature_code":"PPLA2","country_code":"ID","cc2":"","admin1_code":"29","admin2_code":"","admin3_code":"","admin4_code":"","population":"0","elevation":"","dem":"10","timezone":"Asia/Jayapura","modification_date":"2016-01-07"},{"geonameid":"1628870","name":"Sampungu","asciiname":"Sampungu","alternatenames":"Sampoengoe,Sampungu","latitude":"-8.2655","longitude":"118.5442","feature_class":"P","feature_code":"PPLA4","country_code":"ID","cc2":"","admin1_code":"17","admin2_code":"","admin3_code":"","admin4_code":"","population":"0","elevation":"","dem":"22","timezone":"Asia/Makassar","modification_date":"2012-01-17"},{"geonameid":"1628884","name":"Sampit","asciiname":"Sampit","alternatenames":"SMQ,Sampit,Tanah Hevea","latitude":"-2.5315","longitude":"112.9496","feature_class":"P","feature_code":"PPLA2","country_code":"ID","cc2":"","admin1_code":"13","admin2_code":"","admin3_code":"","admin4_code":"","population":"66053","elevation":"","dem":"5","timezone":"Asia/Pontianak","modification_date":"2013-12-15"},{"geonameid":"1628897","name":"Sampang","asciiname":"Sampang","alternatenames":"Sampang","latitude":"-7.56333","longitude":"109.19667","feature_class":"P","feature_code":"PPLA3","country_code":"ID","cc2":"","admin1_code":"07","admin2_code":"","admin3_code":"","admin4_code":"","population":"0","elevation":"","dem":"15","timezone":"Asia/Jakarta","modification_date":"2012-01-17"},{"geonameid":"1628899","name":"Sampang","asciiname":"Sampang","alternatenames":"Sampand,Sampang","latitude":"-7.1872","longitude":"113.2394","feature_class":"P","feature_code":"PPLA2","country_code":"ID","cc2":"","admin1_code":"08","admin2_code":"","admin3_code":"","admin4_code":"","population":"53269","elevation":"","dem":"5","timezone":"Asia/Jakarta","modification_date":"2016-01-07"},{"geonameid":"1628903","name":"Sampalan","asciiname":"Sampalan","alternatenames":"Sampalan","latitude":"-8.6736","longitude":"115.5586","feature_class":"P","feature_code":"PPLA3","country_code":"ID","cc2":"","admin1_code":"02","admin2_code":"","admin3_code":"","admin4_code":"","population":"0","elevation":"","dem":"8","timezone":"Asia/Makassar","modification_date":"2012-11-08"},{"geonameid":"1628942","name":"Samboja","asciiname":"Samboja","alternatenames":"Samboaja,Sambodja,Samboja,Sembodja,Sembodjalama,Semboja,Soengaiseloeang","latitude":"-1.03333","longitude":"117.03333","feature_class":"P","feature_code":"PPLA3","country_code":"ID","cc2":"","admin1_code":"14","admin2_code":"","admin3_code":"","admin4_code":"","population":"0","elevation":"","dem":"44","timezone":"Asia/Makassar","modification_date":"2013-06-04"},{"geonameid":"1628965","name":"Sumberbaba","asciiname":"Sumberbaba","alternatenames":"Samberbaba,Sumberbaba","latitude":"-1.8188","longitude":"136.7576","feature_class":"P","feature_code":"PPLA3","country_code":"ID","cc2":"","admin1_code":"36","admin2_code":"","admin3_code":"","admin4_code":"","population":"0","elevation":"","dem":"28","timezone":"Asia/Jayapura","modification_date":"2013-05-07"},{"geonameid":"1628979","name":"Sambas","asciiname":"Sambas","alternatenames":"Sambas","latitude":"1.33333","longitude":"109.25","feature_class":"P","feature_code":"PPLA2","country_code":"ID","cc2":"","admin1_code":"11","admin2_code":"","admin3_code":"","admin4_code":"","population":"0","elevation":"","dem":"12","timezone":"Asia/Pontianak","modification_date":"2016-01-07"},{"geonameid":"1629001","name":"Samarinda","asciiname":"Samarinda","alternatenames":"Batoeng Panggol,Gorad Samarynda,Kota Samarinda,Kuta Samarinda,Kutha Samarinda,SRI,Samarinda,camarinta,sa ma rin da,samalinda,samarinda,samarynda,sha ma lin da,Горад Самарында,Самаринда,ساماريندا,ساماریندا,سامارینڈا,சமாரிண்டா,ซามารินดา,サマリンダ,沙馬林達,사마린다","latitude":"-0.48585","longitude":"117.1466","feature_class":"P","feature_code":"PPLA","country_code":"ID","cc2":"","admin1_code":"14","admin2_code":"","admin3_code":"","admin4_code":"","population":"355160","elevation":"","dem":"39","timezone":"Asia/Makassar","modification_date":"2013-11-08"},{"geonameid":"1629012","name":"Tanjungsamalantakan","asciiname":"Tanjungsamalantakan","alternatenames":"Samalantakan,Semalantakan,Tanjungsamalantakan","latitude":"-2.5818","longitude":"116.4099","feature_class":"P","feature_code":"PPLA3","country_code":"ID","cc2":"","admin1_code":"12","admin2_code":"","admin3_code":"","admin4_code":"","population":"0","elevation":"","dem":"11","timezone":"Asia/Makassar","modification_date":"2013-12-09"},{"geonameid":"1629056","name":"Salopa","asciiname":"Salopa","alternatenames":"Salopa","latitude":"-7.5162","longitude":"108.2722","feature_class":"P","feature_code":"PPLA3","country_code":"ID","cc2":"","admin1_code":"30","admin2_code":"","admin3_code":"","admin4_code":"","population":"0","elevation":"","dem":"292","timezone":"Asia/Jakarta","modification_date":"2012-01-17"},{"geonameid":"1629088","name":"Salinbatu","asciiname":"Salinbatu","alternatenames":"Salim Batu,Salimbatoe,Salimbatu,Salinbatoe,Salinbatu","latitude":"2.94051","longitude":"117.34343","feature_class":"P","feature_code":"PPLA3","country_code":"ID","cc2":"","admin1_code":"42","admin2_code":"","admin3_code":"","admin4_code":"","population":"0","elevation":"","dem":"5","timezone":"Asia/Makassar","modification_date":"2013-09-05"},{"geonameid":"1629104","name":"Salem","asciiname":"Salem","alternatenames":"Salem","latitude":"-7.1825","longitude":"108.8059","feature_class":"P","feature_code":"PPLA3","country_code":"ID","cc2":"","admin1_code":"07","admin2_code":"","admin3_code":"","admin4_code":"","population":"0","elevation":"","dem":"316","timezone":"Asia/Jakarta","modification_date":"2012-01-17"},{"geonameid":"1629122","name":"Sale","asciiname":"Sale","alternatenames":"Sale","latitude":"-6.8619","longitude":"111.6043","feature_class":"P","feature_code":"PPLA3","country_code":"ID","cc2":"","admin1_code":"07","admin2_code":"","admin3_code":"","admin4_code":"","population":"0","elevation":"","dem":"101","timezone":"Asia/Jakarta","modification_date":"2012-01-17"},{"geonameid":"1629123","name":"Salawu","asciiname":"Salawu","alternatenames":"Salawoe,Salawu","latitude":"-7.3755","longitude":"108.0325","feature_class":"P","feature_code":"PPLA3","country_code":"ID","cc2":"","admin1_code":"30","admin2_code":"","admin3_code":"","admin4_code":"","population":"0","elevation":"","dem":"572","timezone":"Asia/Jakarta","modification_date":"2012-01-17"},{"geonameid":"1629131","name":"Salatiga","asciiname":"Salatiga","alternatenames":"","latitude":"-7.33194","longitude":"110.49278","feature_class":"P","feature_code":"PPL","country_code":"ID","cc2":"","admin1_code":"07","admin2_code":"","admin3_code":"","admin4_code":"","population":"172645","elevation":"","dem":"571","timezone":"Asia/Jakarta","modification_date":"2006-01-17"},{"geonameid":"1629159","name":"Salakan","asciiname":"Salakan","alternatenames":"Salakan","latitude":"-1.3085","longitude":"123.2909","feature_class":"P","feature_code":"PPLA2","country_code":"ID","cc2":"","admin1_code":"21","admin2_code":"","admin3_code":"","admin4_code":"","population":"0","elevation":"","dem":"0","timezone":"Asia/Makassar","modification_date":"2016-01-07"},{"geonameid":"1629176","name":"Sakra","asciiname":"Sakra","alternatenames":"Sakra","latitude":"-8.6831","longitude":"116.462","feature_class":"P","feature_code":"PPLA3","country_code":"ID","cc2":"","admin1_code":"17","admin2_code":"","admin3_code":"","admin4_code":"","population":"0","elevation":"","dem":"227","timezone":"Asia/Makassar","modification_date":"2012-01-17"},{"geonameid":"1629186","name":"Saketi","asciiname":"Saketi","alternatenames":"Saketi,Seketi","latitude":"-6.401","longitude":"105.992","feature_class":"P","feature_code":"PPLA3","country_code":"ID","cc2":"","admin1_code":"33","admin2_code":"","admin3_code":"","admin4_code":"","population":"0","elevation":"","dem":"137","timezone":"Asia/Jakarta","modification_date":"2012-01-17"},{"geonameid":"1629222","name":"Sai","asciiname":"Sai","alternatenames":"Sai,Sai-bo-oe,Saibaoe,Saibou","latitude":"-8.3155","longitude":"118.6591","feature_class":"P","feature_code":"PPLA4","country_code":"ID","cc2":"","admin1_code":"17","admin2_code":"","admin3_code":"","admin4_code":"","population":"0","elevation":"","dem":"21","timezone":"Asia/Makassar","modification_date":"2013-01-10"},{"geonameid":"1629261","name":"Sagaranten","asciiname":"Sagaranten","alternatenames":"Sagaranten,Saguranten","latitude":"-7.2184","longitude":"106.8851","feature_class":"P","feature_code":"PPLA3","country_code":"ID","cc2":"","admin1_code":"30","admin2_code":"","admin3_code":"","admin4_code":"","population":"0","elevation":"","dem":"376","timezone":"Asia/Jakarta","modification_date":"2012-01-17"},{"geonameid":"1629278","name":"Sadewata","asciiname":"Sadewata","alternatenames":"Sadewata","latitude":"-7.1202","longitude":"108.3322","feature_class":"P","feature_code":"PPLA4","country_code":"ID","cc2":"","admin1_code":"30","admin2_code":"","admin3_code":"","admin4_code":"","population":"0","elevation":"","dem":"601","timezone":"Asia/Jakarta","modification_date":"2012-01-17"},{"geonameid":"1629298","name":"Sadang","asciiname":"Sadang","alternatenames":"Sadang","latitude":"-6.8764","longitude":"111.6625","feature_class":"P","feature_code":"PPLA4","country_code":"ID","cc2":"","admin1_code":"08","admin2_code":"","admin3_code":"","admin4_code":"","population":"0","elevation":"","dem":"85","timezone":"Asia/Jakarta","modification_date":"2012-01-17"},{"geonameid":"1629303","name":"Sadananya","asciiname":"Sadananya","alternatenames":"Sadanaja,Sadananja,Sadananya","latitude":"-7.2741","longitude":"108.3149","feature_class":"P","feature_code":"PPLA3","country_code":"ID","cc2":"","admin1_code":"30","admin2_code":"","admin3_code":"","admin4_code":"","population":"0","elevation":"","dem":"388","timezone":"Asia/Jakarta","modification_date":"2012-01-17"},{"geonameid":"1629305","name":"Sadahayu","asciiname":"Sadahayu","alternatenames":"Sadahajoe,Sadahaju,Sadahayu","latitude":"-7.2153","longitude":"108.7205","feature_class":"P","feature_code":"PPLA4","country_code":"ID","cc2":"","admin1_code":"07","admin2_code":"","admin3_code":"","admin4_code":"","population":"0","elevation":"","dem":"571","timezone":"Asia/Jakarta","modification_date":"2012-01-17"},{"geonameid":"1629306","name":"Sadabumi","asciiname":"Sadabumi","alternatenames":"Sadaboemi,Sadabumi","latitude":"-7.2137","longitude":"108.7505","feature_class":"P","feature_code":"PPLA4","country_code":"ID","cc2":"","admin1_code":"07","admin2_code":"","admin3_code":"","admin4_code":"","population":"0","elevation":"","dem":"528","timezone":"Asia/Jakarta","modification_date":"2012-01-17"},{"geonameid":"1629328","name":"Sebewe","asciiname":"Sebewe","alternatenames":"Sabewe,Sebewe","latitude":"-8.4788","longitude":"117.4788","feature_class":"P","feature_code":"PPLA4","country_code":"ID","cc2":"","admin1_code":"17","admin2_code":"","admin3_code":"","admin4_code":"","population":"0","elevation":"","dem":"13","timezone":"Asia/Makassar","modification_date":"2013-01-10"},{"geonameid":"1629350","name":"Sabang Barat","asciiname":"Sabang Barat","alternatenames":"Kampoeng Sabang Barat,Sabang Barat","latitude":"3.00722","longitude":"107.75361","feature_class":"P","feature_code":"PPLA3","country_code":"ID","cc2":"","admin1_code":"40","admin2_code":"","admin3_code":"","admin4_code":"","population":"0","elevation":"","dem":"3","timezone":"Asia/Jakarta","modification_date":"2015-08-06"},{"geonameid":"1629380","name":"Ruteng","asciiname":"Ruteng","alternatenames":"Roeteng,Roeting,Ruteng","latitude":"-8.61139","longitude":"120.46444","feature_class":"P","feature_code":"PPLA2","country_code":"ID","cc2":"","admin1_code":"18","admin2_code":"","admin3_code":"","admin4_code":"","population":"34569","elevation":"","dem":"1173","timezone":"Asia/Makassar","modification_date":"2016-01-07"},{"geonameid":"1629390","name":"Ruser","asciiname":"Ruser","alternatenames":"Puser,Ruser","latitude":"-8.2042","longitude":"112.0232","feature_class":"P","feature_code":"PPLA4","country_code":"ID","cc2":"","admin1_code":"08","admin2_code":"","admin3_code":"","admin4_code":"","population":"0","elevation":"","dem":"326","timezone":"Asia/Jakarta","modification_date":"2012-01-17"},{"geonameid":"1629435","name":"Rumbia","asciiname":"Rumbia","alternatenames":"Roembia,Rumbia","latitude":"-4.62767","longitude":"122.00472","feature_class":"P","feature_code":"PPLA2","country_code":"ID","cc2":"","admin1_code":"22","admin2_code":"","admin3_code":"","admin4_code":"","population":"0","elevation":"","dem":"3","timezone":"Asia/Makassar","modification_date":"2016-01-07"},{"geonameid":"1629485","name":"Rubaru","asciiname":"Rubaru","alternatenames":"Poeberoe,Roebaroe,Roeberoe,Rubaru","latitude":"-6.9581","longitude":"113.753","feature_class":"P","feature_code":"PPLA3","country_code":"ID","cc2":"","admin1_code":"08","admin2_code":"","admin3_code":"","admin4_code":"","population":"0","elevation":"","dem":"110","timezone":"Asia/Jakarta","modification_date":"2012-10-06"},{"geonameid":"1629561","name":"Rokan","asciiname":"Rokan","alternatenames":"Rokan","latitude":"0.5698","longitude":"100.4075","feature_class":"P","feature_code":"PPLA3","country_code":"ID","cc2":"","admin1_code":"37","admin2_code":"","admin3_code":"","admin4_code":"","population":"0","elevation":"","dem":"97","timezone":"Asia/Jakarta","modification_date":"2013-11-08"},{"geonameid":"1629581","name":"Robatal","asciiname":"Robatal","alternatenames":"Djlegoeng,Robatal","latitude":"-7.0009","longitude":"113.28","feature_class":"P","feature_code":"PPLA3","country_code":"ID","cc2":"","admin1_code":"08","admin2_code":"","admin3_code":"","admin4_code":"","population":"0","elevation":"","dem":"71","timezone":"Asia/Jakarta","modification_date":"2012-09-06"},{"geonameid":"1629590","name":"Riung","asciiname":"Riung","alternatenames":"Rioeng,Riung","latitude":"-8.4213","longitude":"121.0256","feature_class":"P","feature_code":"PPLA3","country_code":"ID","cc2":"","admin1_code":"18","admin2_code":"","admin3_code":"","admin4_code":"","population":"0","elevation":"","dem":"19","timezone":"Asia/Makassar","modification_date":"2012-01-17"},{"geonameid":"1629662","name":"Riangbao","asciiname":"Riangbao","alternatenames":"Riangbao,Riangeba","latitude":"-8.3014","longitude":"123.4519","feature_class":"P","feature_code":"PPLA4","country_code":"ID","cc2":"","admin1_code":"18","admin2_code":"","admin3_code":"","admin4_code":"","population":"0","elevation":"","dem":"29","timezone":"Asia/Makassar","modification_date":"2012-11-08"},{"geonameid":"1629700","name":"Reo","asciiname":"Reo","alternatenames":"Reo","latitude":"-8.3098","longitude":"120.4893","feature_class":"P","feature_code":"PPLA4","country_code":"ID","cc2":"","admin1_code":"18","admin2_code":"","admin3_code":"","admin4_code":"","population":"0","elevation":"","dem":"12","timezone":"Asia/Makassar","modification_date":"2012-01-17"},{"geonameid":"1629708","name":"Rengat","asciiname":"Rengat","alternatenames":"RGT,Rengat","latitude":"-0.37546","longitude":"102.5481","feature_class":"P","feature_code":"PPLA3","country_code":"ID","cc2":"","admin1_code":"37","admin2_code":"","admin3_code":"","admin4_code":"","population":"0","elevation":"","dem":"9","timezone":"Asia/Jakarta","modification_date":"2014-04-26"},{"geonameid":"1629710","name":"Rengasdengklok","asciiname":"Rengasdengklok","alternatenames":"Rengasdengklok","latitude":"-6.15917","longitude":"107.29806","feature_class":"P","feature_code":"PPL","country_code":"ID","cc2":"","admin1_code":"30","admin2_code":"","admin3_code":"","admin4_code":"","population":"201463","elevation":"","dem":"10","timezone":"Asia/Jakarta","modification_date":"2012-01-17"},{"geonameid":"1629742","name":"Rembes","asciiname":"Rembes","alternatenames":"Rembes","latitude":"-6.9035","longitude":"112.1358","feature_class":"P","feature_code":"PPLA4","country_code":"ID","cc2":"","admin1_code":"08","admin2_code":"","admin3_code":"","admin4_code":"","population":"0","elevation":"","dem":"5","timezone":"Asia/Jakarta","modification_date":"2012-01-17"},{"geonameid":"1629749","name":"Rembangan","asciiname":"Rembangan","alternatenames":"Rembang,Rembangan","latitude":"-6.7036","longitude":"111.3416","feature_class":"P","feature_code":"PPL","country_code":"ID","cc2":"","admin1_code":"07","admin2_code":"","admin3_code":"","admin4_code":"","population":"44030","elevation":"","dem":"11","timezone":"Asia/Jakarta","modification_date":"2012-01-17"},{"geonameid":"1629772","name":"Rego","asciiname":"Rego","alternatenames":"Rego","latitude":"-8.4266","longitude":"120.2565","feature_class":"P","feature_code":"PPLA4","country_code":"ID","cc2":"","admin1_code":"18","admin2_code":"","admin3_code":"","admin4_code":"","population":"0","elevation":"","dem":"754","timezone":"Asia/Makassar","modification_date":"2012-01-17"},{"geonameid":"1629846","name":"Rawalo","asciiname":"Rawalo","alternatenames":"Rawalo","latitude":"-7.53694","longitude":"109.17917","feature_class":"P","feature_code":"PPLA3","country_code":"ID","cc2":"","admin1_code":"07","admin2_code":"","admin3_code":"","admin4_code":"","population":"0","elevation":"","dem":"18","timezone":"Asia/Jakarta","modification_date":"2012-01-17"},{"geonameid":"1629923","name":"Ratahan","asciiname":"Ratahan","alternatenames":"Rantahan,Ratahan","latitude":"1.0549","longitude":"124.8012","feature_class":"P","feature_code":"PPLA2","country_code":"ID","cc2":"","admin1_code":"31","admin2_code":"","admin3_code":"","admin4_code":"","population":"0","elevation":"","dem":"352","timezone":"Asia/Makassar","modification_date":"2016-01-07"},{"geonameid":"1629930","name":"Rasiei","asciiname":"Rasiei","alternatenames":"Rasi,Rasiei,Rasjei,Rasl,Rassiei","latitude":"-2.817","longitude":"134.5292","feature_class":"P","feature_code":"PPLA2","country_code":"ID","cc2":"","admin1_code":"39","admin2_code":"","admin3_code":"","admin4_code":"","population":"0","elevation":"","dem":"30","timezone":"Asia/Jayapura","modification_date":"2016-01-07"},{"geonameid":"1629940","name":"Rosong Timur","asciiname":"Rosong Timur","alternatenames":"Rasang,Rosong,Rosong Timur","latitude":"-7.0651","longitude":"114.3455","feature_class":"P","feature_code":"PPLA4","country_code":"ID","cc2":"","admin1_code":"08","admin2_code":"","admin3_code":"","admin4_code":"","population":"0","elevation":"","dem":"-9999","timezone":"Asia/Jakarta","modification_date":"2012-10-06"},{"geonameid":"1629957","name":"Rarang Selatan","asciiname":"Rarang Selatan","alternatenames":"Rarang,Rarang Selatan","latitude":"-8.6387","longitude":"116.3937","feature_class":"P","feature_code":"PPLA4","country_code":"ID","cc2":"","admin1_code":"17","admin2_code":"","admin3_code":"","admin4_code":"","population":"0","elevation":"","dem":"337","timezone":"Asia/Makassar","modification_date":"2012-01-17"},{"geonameid":"1629965","name":"Rappang","asciiname":"Rappang","alternatenames":"Rapang,Rappang","latitude":"-3.8445","longitude":"119.8173","feature_class":"P","feature_code":"PPLA3","country_code":"ID","cc2":"","admin1_code":"38","admin2_code":"","admin3_code":"","admin4_code":"","population":"0","elevation":"","dem":"37","timezone":"Asia/Makassar","modification_date":"2012-01-17"},{"geonameid":"1629974","name":"Rantepao","asciiname":"Rantepao","alternatenames":"Rantepao","latitude":"-2.9701","longitude":"119.8978","feature_class":"P","feature_code":"PPLA2","country_code":"ID","cc2":"","admin1_code":"38","admin2_code":"","admin3_code":"","admin4_code":"","population":"40438","elevation":"","dem":"784","timezone":"Asia/Makassar","modification_date":"2016-01-07"},{"geonameid":"1629988","name":"Rantaupulut","asciiname":"Rantaupulut","alternatenames":"Rantaupoeloet,Rantaupulut","latitude":"-2.0093","longitude":"112.1956","feature_class":"P","feature_code":"PPLA3","country_code":"ID","cc2":"","admin1_code":"13","admin2_code":"","admin3_code":"","admin4_code":"","population":"0","elevation":"","dem":"40","timezone":"Asia/Pontianak","modification_date":"2013-12-09"},{"geonameid":"1629992","name":"Rantaupangiang","asciiname":"Rantaupangiang","alternatenames":"Rantaupandjang,Rantaupangiang,Rantaupanjang","latitude":"-2.4962","longitude":"102.2505","feature_class":"P","feature_code":"PPLA3","country_code":"ID","cc2":"","admin1_code":"05","admin2_code":"","admin3_code":"","admin4_code":"","population":"0","elevation":"","dem":"194","timezone":"Asia/Jakarta","modification_date":"2013-02-08"},{"geonameid":"1629994","name":"Rantaupanjang","asciiname":"Rantaupanjang","alternatenames":"Rantaupandjang,Rantaupanjang","latitude":"-1.8446","longitude":"102.3081","feature_class":"P","feature_code":"PPLA3","country_code":"ID","cc2":"","admin1_code":"05","admin2_code":"","admin3_code":"","admin4_code":"","population":"0","elevation":"","dem":"70","timezone":"Asia/Jakarta","modification_date":"2013-11-08"},{"geonameid":"1630033","name":"Rantau","asciiname":"Rantau","alternatenames":"Rantau","latitude":"-2.9334","longitude":"115.1621","feature_class":"P","feature_code":"PPLA2","country_code":"ID","cc2":"","admin1_code":"12","admin2_code":"","admin3_code":"","admin4_code":"","population":"0","elevation":"","dem":"9","timezone":"Asia/Makassar","modification_date":"2013-12-09"},{"geonameid":"1630034","name":"Ransiki","asciiname":"Ransiki","alternatenames":"RSK,Ranasiki,Ransiki","latitude":"-1.5083","longitude":"134.1708","feature_class":"P","feature_code":"PPLA2","country_code":"ID","cc2":"","admin1_code":"39","admin2_code":"","admin3_code":"","admin4_code":"","population":"0","elevation":"","dem":"26","timezone":"Asia/Jayapura","modification_date":"2016-01-07"},{"geonameid":"1630058","name":"Rangkasbitung","asciiname":"Rangkasbitung","alternatenames":"Rangkas Betung,Rangkasbitoeng,Rangkasbitung,Rangkasibitoeng","latitude":"-6.3591","longitude":"106.2494","feature_class":"P","feature_code":"PPLA2","country_code":"ID","cc2":"","admin1_code":"33","admin2_code":"","admin3_code":"","admin4_code":"","population":"126910","elevation":"","dem":"27","timezone":"Asia/Jakarta","modification_date":"2016-01-07"},{"geonameid":"1630088","name":"Randudongkal","asciiname":"Randudongkal","alternatenames":"Randoedonggal,Randoedongkal,Randudongkal,Randudongkol","latitude":"-7.0981","longitude":"109.3243","feature_class":"P","feature_code":"PPL","country_code":"ID","cc2":"","admin1_code":"07","admin2_code":"","admin3_code":"","admin4_code":"","population":"28532","elevation":"","dem":"216","timezone":"Asia/Jakarta","modification_date":"2012-01-17"},{"geonameid":"1630090","name":"Randuagung","asciiname":"Randuagung","alternatenames":"Randoeagoeng,Randuagung","latitude":"-8.072","longitude":"113.3032","feature_class":"P","feature_code":"PPLA3","country_code":"ID","cc2":"","admin1_code":"08","admin2_code":"","admin3_code":"","admin4_code":"","population":"0","elevation":"","dem":"98","timezone":"Asia/Jakarta","modification_date":"2012-01-17"},{"geonameid":"1630096","name":"Randegan","asciiname":"Randegan","alternatenames":"Randegan","latitude":"-7.3522","longitude":"108.5712","feature_class":"P","feature_code":"PPLA4","country_code":"ID","cc2":"","admin1_code":"30","admin2_code":"","admin3_code":"","admin4_code":"","population":"0","elevation":"","dem":"24","timezone":"Asia/Jakarta","modification_date":"2012-01-17"},{"geonameid":"1630128","name":"Rancah","asciiname":"Rancah","alternatenames":"Rancah,Rancha,Ranijah,Rantjah","latitude":"-7.1969","longitude":"108.5041","feature_class":"P","feature_code":"PPLA3","country_code":"ID","cc2":"","admin1_code":"30","admin2_code":"","admin3_code":"","admin4_code":"","population":"0","elevation":"","dem":"349","timezone":"Asia/Jakarta","modification_date":"2012-01-17"},{"geonameid":"1630146","name":"Ranai","asciiname":"Ranai","alternatenames":"Ranai","latitude":"3.9384","longitude":"108.38401","feature_class":"P","feature_code":"PPLA2","country_code":"ID","cc2":"","admin1_code":"40","admin2_code":"","admin3_code":"","admin4_code":"","population":"0","elevation":"","dem":"10","timezone":"Asia/Jakarta","modification_date":"2015-08-06"},{"geonameid":"1630166","name":"Rambipuji","asciiname":"Rambipuji","alternatenames":"Rambipoedji,Rambipudji,Rambipuji","latitude":"-8.209","longitude":"113.6092","feature_class":"P","feature_code":"PPLA3","country_code":"ID","cc2":"","admin1_code":"08","admin2_code":"","admin3_code":"","admin4_code":"","population":"0","elevation":"","dem":"54","timezone":"Asia/Jakarta","modification_date":"2012-02-01"},{"geonameid":"1630171","name":"Ramban Wetan","asciiname":"Ramban Wetan","alternatenames":"Ramban,Ramban Wetan","latitude":"-7.7783","longitude":"114.0262","feature_class":"P","feature_code":"PPLA4","country_code":"ID","cc2":"","admin1_code":"08","admin2_code":"","admin3_code":"","admin4_code":"","population":"0","elevation":"","dem":"76","timezone":"Asia/Jakarta","modification_date":"2012-01-17"},{"geonameid":"1630200","name":"Rajapolah","asciiname":"Rajapolah","alternatenames":"Radjapolah,Radjapoloh,Rajapolah","latitude":"-7.221","longitude":"108.1896","feature_class":"P","feature_code":"PPLA3","country_code":"ID","cc2":"","admin1_code":"30","admin2_code":"","admin3_code":"","admin4_code":"","population":"39840","elevation":"","dem":"467","timezone":"Asia/Jakarta","modification_date":"2012-01-17"},{"geonameid":"1630202","name":"Rejamulya","asciiname":"Rejamulya","alternatenames":"Radjamoelja,Radjamulia,Rajamulia,Rejamulya","latitude":"-7.4789","longitude":"108.7414","feature_class":"P","feature_code":"PPLA4","country_code":"ID","cc2":"","admin1_code":"07","admin2_code":"","admin3_code":"","admin4_code":"","population":"0","elevation":"","dem":"12","timezone":"Asia/Jakarta","modification_date":"2012-01-17"},{"geonameid":"1630206","name":"Rajadesa","asciiname":"Rajadesa","alternatenames":"Radjadesa,Rajadesa","latitude":"-7.1836","longitude":"108.4341","feature_class":"P","feature_code":"PPLA3","country_code":"ID","cc2":"","admin1_code":"30","admin2_code":"","admin3_code":"","admin4_code":"","population":"0","elevation":"","dem":"435","timezone":"Asia/Jakarta","modification_date":"2012-01-17"},{"geonameid":"1630227","name":"Rainis","asciiname":"Rainis","alternatenames":"Kampoeng Rainis,Painis,Paniki,Raimis,Rainis,Rainis Paniki","latitude":"4.23282","longitude":"126.86129","feature_class":"P","feature_code":"PPLA3","country_code":"ID","cc2":"","admin1_code":"31","admin2_code":"","admin3_code":"","admin4_code":"","population":"0","elevation":"","dem":"41","timezone":"Asia/Makassar","modification_date":"2014-04-30"},{"geonameid":"1630238","name":"Raha","asciiname":"Raha","alternatenames":"Raba,Raha","latitude":"-4.838","longitude":"122.7209","feature_class":"P","feature_code":"PPLA2","country_code":"ID","cc2":"","admin1_code":"22","admin2_code":"","admin3_code":"","admin4_code":"","population":"0","elevation":"","dem":"19","timezone":"Asia/Makassar","modification_date":"2016-01-07"},{"geonameid":"1630254","name":"Rabig","asciiname":"Rabig","alternatenames":"Rabig","latitude":"-6.81482","longitude":"106.40417","feature_class":"P","feature_code":"PPLA4","country_code":"ID","cc2":"","admin1_code":"33","admin2_code":"","admin3_code":"","admin4_code":"","population":"0","elevation":"","dem":"822","timezone":"Asia/Jakarta","modification_date":"2012-01-17"},{"geonameid":"1630262","name":"Raba","asciiname":"Raba","alternatenames":"Raba","latitude":"-8.4613","longitude":"118.747","feature_class":"P","feature_code":"PPLA3","country_code":"ID","cc2":"","admin1_code":"17","admin2_code":"","admin3_code":"","admin4_code":"","population":"0","elevation":"","dem":"19","timezone":"Asia/Makassar","modification_date":"2014-01-05"},{"geonameid":"1630281","name":"Putussibau","asciiname":"Putussibau","alternatenames":"PSU,Poetoessibau,Putusibau,Putussibau","latitude":"0.83333","longitude":"112.93333","feature_class":"P","feature_code":"PPLA2","country_code":"ID","cc2":"","admin1_code":"11","admin2_code":"","admin3_code":"","admin4_code":"","population":"0","elevation":"","dem":"32","timezone":"Asia/Pontianak","modification_date":"2016-01-07"},{"geonameid":"1630314","name":"Puspahiang","asciiname":"Puspahiang","alternatenames":"Poespahiang,Puspahiang","latitude":"-7.419","longitude":"108.0497","feature_class":"P","feature_code":"PPLA4","country_code":"ID","cc2":"","admin1_code":"30","admin2_code":"","admin3_code":"","admin4_code":"","population":"0","elevation":"","dem":"607","timezone":"Asia/Jakarta","modification_date":"2012-01-17"},{"geonameid":"1630326","name":"Purworejo","asciiname":"Purworejo","alternatenames":"Poerwaredja,Poerworedjo,Purworedjo,Purworejo","latitude":"-7.71139","longitude":"110.01028","feature_class":"P","feature_code":"PPLA2","country_code":"ID","cc2":"","admin1_code":"07","admin2_code":"","admin3_code":"","admin4_code":"","population":"0","elevation":"","dem":"71","timezone":"Asia/Jakarta","modification_date":"2016-01-07"},{"geonameid":"1630327","name":"Purworejo","asciiname":"Purworejo","alternatenames":"Poerwaredja 1,Poerworedjo,Poewocedjo,Purworedjo,Purworejo","latitude":"-6.7872","longitude":"111.9224","feature_class":"P","feature_code":"PPLA4","country_code":"ID","cc2":"","admin1_code":"08","admin2_code":"","admin3_code":"","admin4_code":"","population":"0","elevation":"","dem":"8","timezone":"Asia/Jakarta","modification_date":"2012-01-17"},{"geonameid":"1630328","name":"Purwokerto","asciiname":"Purwokerto","alternatenames":"Kota Purwokerto,Poerwakerta,Poerwokerto,Purwakerta,Purwokerto","latitude":"-7.42139","longitude":"109.23444","feature_class":"P","feature_code":"PPLA2","country_code":"ID","cc2":"","admin1_code":"07","admin2_code":"","admin3_code":"","admin4_code":"","population":"217222","elevation":"","dem":"81","timezone":"Asia/Jakarta","modification_date":"2016-01-07"},{"geonameid":"1630329","name":"Purwoharjo","asciiname":"Purwoharjo","alternatenames":"Purwohardjo,Purwoharjo","latitude":"-8.501","longitude":"114.222","feature_class":"P","feature_code":"PPLA3","country_code":"ID","cc2":"","admin1_code":"08","admin2_code":"","admin3_code":"","admin4_code":"","population":"0","elevation":"","dem":"59","timezone":"Asia/Jakarta","modification_date":"2012-01-17"},{"geonameid":"1630333","name":"Purwodadi","asciiname":"Purwodadi","alternatenames":"Poerwadadi,Poerwodadi,Purwadadi,Purwodadi,Purwodadi Grobogan","latitude":"-7.0868","longitude":"110.9158","feature_class":"P","feature_code":"PPLA2","country_code":"ID","cc2":"","admin1_code":"07","admin2_code":"","admin3_code":"","admin4_code":"","population":"150206","elevation":"","dem":"29","timezone":"Asia/Jakarta","modification_date":"2016-01-07"},{"geonameid":"1630341","name":"Purwakarta","asciiname":"Purwakarta","alternatenames":"Kota Purwakarta,Poerwakarta,Purwakarta","latitude":"-6.55694","longitude":"107.44333","feature_class":"P","feature_code":"PPLA2","country_code":"ID","cc2":"","admin1_code":"30","admin2_code":"","admin3_code":"","admin4_code":"","population":"215803","elevation":"","dem":"86","timezone":"Asia/Jakarta","modification_date":"2016-01-07"},{"geonameid":"1630349","name":"Puruk Cahu","asciiname":"Puruk Cahu","alternatenames":"Poeroektjahoe,Poeroektjanoe,Poeroektjaoe,Puruk Cahu,Purukcahu,Puruktjahu,Puruktjau,Puruktyau","latitude":"-0.58333","longitude":"114.58333","feature_class":"P","feature_code":"PPLA2","country_code":"ID","cc2":"","admin1_code":"13","admin2_code":"","admin3_code":"","admin4_code":"","population":"0","elevation":"","dem":"70","timezone":"Asia/Pontianak","modification_date":"2016-01-07"},{"geonameid":"1630366","name":"Purbalingga","asciiname":"Purbalingga","alternatenames":"Poerbalingga,Poerbolinggo,Purbalingga,Purbolinggo,Purbolingo","latitude":"-7.38806","longitude":"109.36389","feature_class":"P","feature_code":"PPLA2","country_code":"ID","cc2":"","admin1_code":"07","admin2_code":"","admin3_code":"","admin4_code":"","population":"56903","elevation":"","dem":"61","timezone":"Asia/Jakarta","modification_date":"2016-01-07"},{"geonameid":"1630372","name":"Purabaya","asciiname":"Purabaya","alternatenames":"Poerabaja,Purabaja,Purabaya","latitude":"-7.1001","longitude":"106.8803","feature_class":"P","feature_code":"PPLA4","country_code":"ID","cc2":"","admin1_code":"30","admin2_code":"","admin3_code":"","admin4_code":"","population":"0","elevation":"","dem":"529","timezone":"Asia/Jakarta","modification_date":"2012-01-17"},{"geonameid":"1630416","name":"Pundong","asciiname":"Pundong","alternatenames":"Poendoeng,Poendong,Pundong,Pundung","latitude":"-7.95222","longitude":"110.34861","feature_class":"P","feature_code":"PPL","country_code":"ID","cc2":"","admin1_code":"10","admin2_code":"","admin3_code":"","admin4_code":"","population":"24081","elevation":"","dem":"26","timezone":"Asia/Jakarta","modification_date":"2012-01-17"},{"geonameid":"1630423","name":"Puncakwangi","asciiname":"Puncakwangi","alternatenames":"Puncaklawang,Puncakwangi,Puntjaklawang","latitude":"-7.4722","longitude":"107.4113","feature_class":"P","feature_code":"PPLA4","country_code":"ID","cc2":"","admin1_code":"30","admin2_code":"","admin3_code":"","admin4_code":"","population":"0","elevation":"","dem":"173","timezone":"Asia/Jakarta","modification_date":"2012-01-17"},{"geonameid":"1630494","name":"Pule","asciiname":"Pule","alternatenames":"Poele,Poele 1,Pule","latitude":"-8.1238","longitude":"111.5614","feature_class":"P","feature_code":"PPLA3","country_code":"ID","cc2":"","admin1_code":"08","admin2_code":"","admin3_code":"","admin4_code":"","population":"0","elevation":"","dem":"726","timezone":"Asia/Jakarta","modification_date":"2012-06-05"},{"geonameid":"1630505","name":"Pulaupinang","asciiname":"Pulaupinang","alternatenames":"Pulaupinang","latitude":"-3.89106","longitude":"103.52023","feature_class":"P","feature_code":"PPLA3","country_code":"ID","cc2":"","admin1_code":"32","admin2_code":"","admin3_code":"","admin4_code":"","population":"0","elevation":"","dem":"175","timezone":"Asia/Jakarta","modification_date":"2013-05-07"},{"geonameid":"1630524","name":"Pulaukijang","asciiname":"Pulaukijang","alternatenames":"Poelaukidjang,Pulaukidjang,Pulaukijang","latitude":"-0.6868","longitude":"103.1841","feature_class":"P","feature_code":"PPLA3","country_code":"ID","cc2":"","admin1_code":"37","admin2_code":"","admin3_code":"","admin4_code":"","population":"0","elevation":"","dem":"0","timezone":"Asia/Jakarta","modification_date":"2013-07-04"},{"geonameid":"1630542","name":"Pulauberingin","asciiname":"Pulauberingin","alternatenames":"Poelauberingin,Poelaubringin,Pulauberingin","latitude":"-4.49982","longitude":"103.63662","feature_class":"P","feature_code":"PPLA3","country_code":"ID","cc2":"","admin1_code":"32","admin2_code":"","admin3_code":"","admin4_code":"","population":"0","elevation":"","dem":"780","timezone":"Asia/Jakarta","modification_date":"2012-08-04"},{"geonameid":"1630555","name":"Pulang Pisau","asciiname":"Pulang Pisau","alternatenames":"Poelangpisau,Pulang Pisau,Pulangpisau","latitude":"-2.7671","longitude":"114.2406","feature_class":"P","feature_code":"PPLA2","country_code":"ID","cc2":"","admin1_code":"13","admin2_code":"","admin3_code":"","admin4_code":"","population":"0","elevation":"","dem":"9","timezone":"Asia/Pontianak","modification_date":"2016-01-07"},{"geonameid":"1630567","name":"Pujiharjo","asciiname":"Pujiharjo","alternatenames":"Poedjihardjo,Pudjihardjo,Pujiharjo","latitude":"-8.3676","longitude":"112.8828","feature_class":"P","feature_code":"PPLA4","country_code":"ID","cc2":"","admin1_code":"08","admin2_code":"","admin3_code":"","admin4_code":"","population":"0","elevation":"","dem":"25","timezone":"Asia/Jakarta","modification_date":"2012-01-17"},{"geonameid":"1630579","name":"Puger","asciiname":"Puger","alternatenames":"Poeger,Poeger-koelon,Puger,Puger-kulon","latitude":"-8.3702","longitude":"113.4752","feature_class":"P","feature_code":"PPLA3","country_code":"ID","cc2":"","admin1_code":"08","admin2_code":"","admin3_code":"","admin4_code":"","population":"0","elevation":"","dem":"8","timezone":"Asia/Jakarta","modification_date":"2012-02-01"},{"geonameid":"1630634","name":"Probolinggo","asciiname":"Probolinggo","alternatenames":"Kota Probolinggo,Prabalingga,Probalingga,Probalinggo,Probolinggo","latitude":"-7.7543","longitude":"113.2159","feature_class":"P","feature_code":"PPL","country_code":"ID","cc2":"","admin1_code":"08","admin2_code":"","admin3_code":"","admin4_code":"","population":"181656","elevation":"","dem":"15","timezone":"Asia/Jakarta","modification_date":"2012-01-17"},{"geonameid":"1630639","name":"Pringsewu","asciiname":"Pringsewu","alternatenames":"Pringsewu","latitude":"-5.35822","longitude":"104.97441","feature_class":"P","feature_code":"PPLA2","country_code":"ID","cc2":"","admin1_code":"15","admin2_code":"","admin3_code":"","admin4_code":"","population":"0","elevation":"","dem":"110","timezone":"Asia/Jakarta","modification_date":"2016-01-07"},{"geonameid":"1630649","name":"Prigen","asciiname":"Prigen","alternatenames":"","latitude":"-7.68333","longitude":"112.61667","feature_class":"P","feature_code":"PPL","country_code":"ID","cc2":"","admin1_code":"08","admin2_code":"","admin3_code":"","admin4_code":"","population":"24164","elevation":"","dem":"823","timezone":"Asia/Jakarta","modification_date":"2007-11-09"},{"geonameid":"1630651","name":"Pretana","asciiname":"Pretana","alternatenames":"Parewatana,Pretana","latitude":"-9.6161","longitude":"119.6441","feature_class":"P","feature_code":"PPLA4","country_code":"ID","cc2":"","admin1_code":"18","admin2_code":"","admin3_code":"","admin4_code":"","population":"0","elevation":"","dem":"480","timezone":"Asia/Makassar","modification_date":"2012-01-17"},{"geonameid":"1630662","name":"Praya","asciiname":"Praya","alternatenames":"LOP,Praja,Praya,Прая","latitude":"-8.70536","longitude":"116.27036","feature_class":"P","feature_code":"PPLA3","country_code":"ID","cc2":"","admin1_code":"17","admin2_code":"Lombok (undefined)","admin3_code":"","admin4_code":"","population":"35183","elevation":"","dem":"108","timezone":"Asia/Makassar","modification_date":"2014-08-19"},{"geonameid":"1630681","name":"Candi Prambanan","asciiname":"Candi Prambanan","alternatenames":"Candi Prambanan,Prambanan","latitude":"-7.75","longitude":"110.49417","feature_class":"P","feature_code":"PPL","country_code":"ID","cc2":"","admin1_code":"07","admin2_code":"","admin3_code":"","admin4_code":"","population":"44925","elevation":"","dem":"157","timezone":"Asia/Jakarta","modification_date":"2012-01-17"},