{"nextFile":"cities.35.json","rows":[{"geonameid":"2871532","name":"Mettweiler","asciiname":"Mettweiler","alternatenames":"","latitude":"49.58333","longitude":"7.31667","feature_class":"P","feature_code":"PPLA4","country_code":"DE","cc2":"","admin1_code":"08","admin2_code":"00","admin3_code":"07134","admin4_code":"07134054","population":"324","elevation":"","dem":"488","timezone":"Europe/Berlin","modification_date":"2011-04-25"},{"geonameid":"2871535","name":"Mettmann","asciiname":"Mettmann","alternatenames":"Metman,Mettman,Mettmann,mei te man,mtman,Метман,Меттман,متمان,梅特曼","latitude":"51.2504","longitude":"6.97536","feature_class":"P","feature_code":"PPLA3","country_code":"DE","cc2":"","admin1_code":"07","admin2_code":"051","admin3_code":"05158","admin4_code":"05158024","population":"39550","elevation":"","dem":"132","timezone":"Europe/Berlin","modification_date":"2015-09-05"},{"geonameid":"2871538","name":"Mettlach","asciiname":"Mettlach","alternatenames":"Metlakh,Mettlakh,mei te la,mtlakh,Метлах,Меттлах,متلاخ,მეტლახი,梅特拉","latitude":"49.49355","longitude":"6.59686","feature_class":"P","feature_code":"PPLA4","country_code":"DE","cc2":"","admin1_code":"09","admin2_code":"00","admin3_code":"10042","admin4_code":"10042114","population":"3279","elevation":"","dem":"168","timezone":"Europe/Berlin","modification_date":"2011-04-25"},{"geonameid":"2871540","name":"Mettingen","asciiname":"Mettingen","alternatenames":"Metingen,Mettingen,mei ting gen,Метинген,Меттинген,Меттінген,梅廷根","latitude":"52.31667","longitude":"7.78333","feature_class":"P","feature_code":"PPLA4","country_code":"DE","cc2":"","admin1_code":"07","admin2_code":"055","admin3_code":"05566","admin4_code":"05566056","population":"12532","elevation":"","dem":"71","timezone":"Europe/Berlin","modification_date":"2011-07-31"},{"geonameid":"2871549","name":"Metterich","asciiname":"Metterich","alternatenames":"","latitude":"49.98333","longitude":"6.58333","feature_class":"P","feature_code":"PPLA4","country_code":"DE","cc2":"","admin1_code":"08","admin2_code":"00","admin3_code":"07232","admin4_code":"07232081","population":"469","elevation":"","dem":"307","timezone":"Europe/Berlin","modification_date":"2011-04-25"},{"geonameid":"2871555","name":"Mettenheim","asciiname":"Mettenheim","alternatenames":"","latitude":"49.74","longitude":"8.32583","feature_class":"P","feature_code":"PPLA4","country_code":"DE","cc2":"","admin1_code":"08","admin2_code":"00","admin3_code":"07331","admin4_code":"07331045","population":"1551","elevation":"","dem":"97","timezone":"Europe/Berlin","modification_date":"2011-04-25"},{"geonameid":"2871556","name":"Mettenheim","asciiname":"Mettenheim","alternatenames":"","latitude":"48.26667","longitude":"12.46667","feature_class":"P","feature_code":"PPLA4","country_code":"DE","cc2":"","admin1_code":"02","admin2_code":"091","admin3_code":"09183","admin4_code":"09183127","population":"3307","elevation":"","dem":"411","timezone":"Europe/Berlin","modification_date":"2011-04-25"},{"geonameid":"2871559","name":"Mettendorf","asciiname":"Mettendorf","alternatenames":"","latitude":"49.95","longitude":"6.33333","feature_class":"P","feature_code":"PPLA4","country_code":"DE","cc2":"","admin1_code":"08","admin2_code":"00","admin3_code":"07232","admin4_code":"07232080","population":"1119","elevation":"","dem":"322","timezone":"Europe/Berlin","modification_date":"2011-04-25"},{"geonameid":"2871573","name":"Metten","asciiname":"Metten","alternatenames":"Meten,Metten,mei teng,mtn,Метен,Меттен,Մեթեն,متن,梅滕","latitude":"48.85512","longitude":"12.91554","feature_class":"P","feature_code":"PPL","country_code":"DE","cc2":"","admin1_code":"02","admin2_code":"092","admin3_code":"09271","admin4_code":"09271132","population":"4335","elevation":"","dem":"317","timezone":"Europe/Berlin","modification_date":"2013-02-19"},{"geonameid":"2871591","name":"Metelen","asciiname":"Metelen","alternatenames":"Metelen,mei te lun,Метелен,梅特伦","latitude":"52.14434","longitude":"7.2127","feature_class":"P","feature_code":"PPLA4","country_code":"DE","cc2":"","admin1_code":"07","admin2_code":"055","admin3_code":"05566","admin4_code":"05566052","population":"6490","elevation":"","dem":"59","timezone":"Europe/Berlin","modification_date":"2011-04-25"},{"geonameid":"2871601","name":"Meßstetten","asciiname":"Messstetten","alternatenames":"Messstetten,Messstettin,Meßstetten,Meßstettin","latitude":"48.18317","longitude":"8.96565","feature_class":"P","feature_code":"PPL","country_code":"DE","cc2":"","admin1_code":"01","admin2_code":"084","admin3_code":"08417","admin4_code":"08417044","population":"11132","elevation":"","dem":"925","timezone":"Europe/Berlin","modification_date":"2013-02-16"},{"geonameid":"2871609","name":"Meßkirch","asciiname":"Messkirch","alternatenames":"Meskirkh,Messkirch,Messkirkh,Meßkirch,mei si ji xi,mesukiruhi,mskyrsh,Мескирх,Месскирх,مسکیرش,メスキルヒ,梅斯基希","latitude":"47.99457","longitude":"9.11479","feature_class":"P","feature_code":"PPL","country_code":"DE","cc2":"","admin1_code":"01","admin2_code":"084","admin3_code":"08437","admin4_code":"08437078","population":"8736","elevation":"","dem":"603","timezone":"Europe/Berlin","modification_date":"2013-05-07"},{"geonameid":"2871613","name":"Messingen","asciiname":"Messingen","alternatenames":"","latitude":"52.46667","longitude":"7.46667","feature_class":"P","feature_code":"PPLA4","country_code":"DE","cc2":"","admin1_code":"06","admin2_code":"00","admin3_code":"03454","admin4_code":"03454036","population":"1132","elevation":"","dem":"41","timezone":"Europe/Berlin","modification_date":"2011-04-25"},{"geonameid":"2871621","name":"Messerich","asciiname":"Messerich","alternatenames":"","latitude":"49.93333","longitude":"6.48333","feature_class":"P","feature_code":"PPLA4","country_code":"DE","cc2":"","admin1_code":"08","admin2_code":"00","admin3_code":"07232","admin4_code":"07232079","population":"494","elevation":"","dem":"238","timezone":"Europe/Berlin","modification_date":"2011-04-25"},{"geonameid":"2871623","name":"Messenkamp","asciiname":"Messenkamp","alternatenames":"","latitude":"52.26002","longitude":"9.38018","feature_class":"P","feature_code":"PPLA4","country_code":"DE","cc2":"","admin1_code":"06","admin2_code":"00","admin3_code":"03257","admin4_code":"03257024","population":"858","elevation":"","dem":"103","timezone":"Europe/Berlin","modification_date":"2011-07-31"},{"geonameid":"2871636","name":"Messel","asciiname":"Messel","alternatenames":"Mesel,Messel',mei sai er,messeru,Месел,Мессель,メッセル,梅塞尔","latitude":"49.93833","longitude":"8.74056","feature_class":"P","feature_code":"PPLA4","country_code":"DE","cc2":"","admin1_code":"05","admin2_code":"064","admin3_code":"06432","admin4_code":"06432012","population":"3916","elevation":"","dem":"177","timezone":"Europe/Berlin","modification_date":"2011-04-25"},{"geonameid":"2871648","name":"Mesenich","asciiname":"Mesenich","alternatenames":"","latitude":"50.1","longitude":"7.2","feature_class":"P","feature_code":"PPLA4","country_code":"DE","cc2":"","admin1_code":"08","admin2_code":"00","admin3_code":"07135","admin4_code":"07135060","population":"355","elevation":"","dem":"144","timezone":"Europe/Berlin","modification_date":"2011-04-25"},{"geonameid":"2871654","name":"Mesekenhagen","asciiname":"Mesekenhagen","alternatenames":"Mezekenkhagen,mei sai ken ha gen,Мезекенхаген,梅塞肯哈根","latitude":"54.14846","longitude":"13.31843","feature_class":"P","feature_code":"PPL","country_code":"DE","cc2":"","admin1_code":"12","admin2_code":"00","admin3_code":"13075","admin4_code":"13075091","population":"1043","elevation":"","dem":"6","timezone":"Europe/Berlin","modification_date":"2015-09-05"},{"geonameid":"2871662","name":"Mescherin","asciiname":"Mescherin","alternatenames":"Meserin,Mesherin,mei she lin,Мешерин,Мешерін,Մեշերին,梅舍林","latitude":"53.24724","longitude":"14.43003","feature_class":"P","feature_code":"PPLA4","country_code":"DE","cc2":"","admin1_code":"11","admin2_code":"00","admin3_code":"12073","admin4_code":"12073393","population":"791","elevation":"","dem":"14","timezone":"Europe/Berlin","modification_date":"2011-04-25"},{"geonameid":"2871668","name":"Meschede","asciiname":"Meschede","alternatenames":"Meschede,Meshede,mei she de,mshdh,myshydh,Мешеде,مشده,ميشيده,梅舍德","latitude":"51.3502","longitude":"8.28332","feature_class":"P","feature_code":"PPLA3","country_code":"DE","cc2":"","admin1_code":"07","admin2_code":"059","admin3_code":"05958","admin4_code":"05958032","population":"32224","elevation":"","dem":"272","timezone":"Europe/Berlin","modification_date":"2015-09-05"},{"geonameid":"2871670","name":"Merzweiler","asciiname":"Merzweiler","alternatenames":"Mercvajler,mei er ci wei lei,Мерцвайлер,Мерцвајлер,梅尔茨韦勒","latitude":"49.66667","longitude":"7.53333","feature_class":"P","feature_code":"PPLA4","country_code":"DE","cc2":"","admin1_code":"08","admin2_code":"00","admin3_code":"07336","admin4_code":"07336062","population":"212","elevation":"","dem":"278","timezone":"Europe/Berlin","modification_date":"2011-04-25"},{"geonameid":"2871671","name":"Merzkirchen","asciiname":"Merzkirchen","alternatenames":"Merckirkhen,mei er ci ji er xing,Мерцкирхен,梅尔茨基尔兴","latitude":"49.58333","longitude":"6.48333","feature_class":"P","feature_code":"PPLA4","country_code":"DE","cc2":"","admin1_code":"08","admin2_code":"00","admin3_code":"07235","admin4_code":"07235154","population":"613","elevation":"","dem":"389","timezone":"Europe/Berlin","modification_date":"2011-04-25"},{"geonameid":"2871675","name":"Merzig","asciiname":"Merzig","alternatenames":"Mercig,Mercige,Merzig,Merzig am Saar,mei er qi xi,mertsigi,merutsu~ihi,mrtsyg,mrtsygh,mrzyg,Мерциг,Мерциге,Мерціг,מרציג,مرتسيغ,مرتسیگ,მერციგი,メルツィヒ,梅尔齐希","latitude":"49.44331","longitude":"6.63874","feature_class":"P","feature_code":"PPLA3","country_code":"DE","cc2":"","admin1_code":"09","admin2_code":"00","admin3_code":"10042","admin4_code":"10042113","population":"31118","elevation":"","dem":"177","timezone":"Europe/Berlin","modification_date":"2015-09-05"},{"geonameid":"2871680","name":"Merzhausen","asciiname":"Merzhausen","alternatenames":"Mercgauzen,Merckhauzen,Merzhausen,mei er ci hao sen,Мерцгаузен,Мерцхаузен,Մերցհաուզեն,梅尔茨豪森","latitude":"47.96667","longitude":"7.83333","feature_class":"P","feature_code":"PPLA4","country_code":"DE","cc2":"","admin1_code":"01","admin2_code":"083","admin3_code":"08315","admin4_code":"08315073","population":"4663","elevation":"","dem":"351","timezone":"Europe/Berlin","modification_date":"2011-04-25"},{"geonameid":"2871683","name":"Merzenich","asciiname":"Merzenich","alternatenames":"Mercenikh,mei er ce ni xi,Мерцених,Мерценіх,梅尔策尼希","latitude":"50.82681","longitude":"6.52493","feature_class":"P","feature_code":"PPLA4","country_code":"DE","cc2":"","admin1_code":"07","admin2_code":"053","admin3_code":"05358","admin4_code":"05358040","population":"0","elevation":"","dem":"124","timezone":"Europe/Berlin","modification_date":"2011-12-21"},{"geonameid":"2871690","name":"Merzen","asciiname":"Merzen","alternatenames":"Mercen,mei er cen,Мерцен,梅尔岑","latitude":"52.48333","longitude":"7.83333","feature_class":"P","feature_code":"PPLA4","country_code":"DE","cc2":"","admin1_code":"06","admin2_code":"00","admin3_code":"03459","admin4_code":"03459026","population":"4078","elevation":"","dem":"102","timezone":"Europe/Berlin","modification_date":"2011-04-25"},{"geonameid":"2871696","name":"Merzdorf","asciiname":"Merzdorf","alternatenames":"","latitude":"51.4","longitude":"13.53333","feature_class":"P","feature_code":"PPLA4","country_code":"DE","cc2":"","admin1_code":"11","admin2_code":"00","admin3_code":"12062","admin4_code":"12062336","population":"980","elevation":"","dem":"110","timezone":"Europe/Berlin","modification_date":"2011-04-25"},{"geonameid":"2871703","name":"Merzalben","asciiname":"Merzalben","alternatenames":"Mercal'ben,Mercalben,Merzalwe,mei er cha er ben,Мерцалбен,Мерцальбен,梅尔察尔本","latitude":"49.24467","longitude":"7.73077","feature_class":"P","feature_code":"PPLA4","country_code":"DE","cc2":"","admin1_code":"08","admin2_code":"00","admin3_code":"07340","admin4_code":"07340031","population":"1272","elevation":"","dem":"288","timezone":"Europe/Berlin","modification_date":"2011-04-25"},{"geonameid":"2871707","name":"Merxheim","asciiname":"Merxheim","alternatenames":"Merkskhajm,mei er ke si hai mu,Мерксхайм,Мерксхајм,梅尔克斯海姆","latitude":"49.78333","longitude":"7.56667","feature_class":"P","feature_code":"PPLA4","country_code":"DE","cc2":"","admin1_code":"08","admin2_code":"00","admin3_code":"07133","admin4_code":"07133066","population":"1514","elevation":"","dem":"277","timezone":"Europe/Berlin","modification_date":"2011-04-25"},{"geonameid":"2871713","name":"Mertloch","asciiname":"Mertloch","alternatenames":"","latitude":"50.26948","longitude":"7.30814","feature_class":"P","feature_code":"PPLA4","country_code":"DE","cc2":"","admin1_code":"08","admin2_code":"00","admin3_code":"07137","admin4_code":"07137070","population":"1534","elevation":"","dem":"196","timezone":"Europe/Berlin","modification_date":"2011-04-25"},{"geonameid":"2871716","name":"Mertingen","asciiname":"Mertingen","alternatenames":"Mertingen,mei er ting gen,merutingen,Мертинген,Мертінген,Մերթինգեն,メルティンゲン,梅尔廷根","latitude":"48.65695","longitude":"10.80557","feature_class":"P","feature_code":"PPLA4","country_code":"DE","cc2":"","admin1_code":"02","admin2_code":"097","admin3_code":"09779","admin4_code":"09779181","population":"3748","elevation":"","dem":"412","timezone":"Europe/Berlin","modification_date":"2012-11-13"},{"geonameid":"2871718","name":"Mertesheim","asciiname":"Mertesheim","alternatenames":"","latitude":"49.57167","longitude":"8.13556","feature_class":"P","feature_code":"PPLA4","country_code":"DE","cc2":"","admin1_code":"08","admin2_code":"00","admin3_code":"07332","admin4_code":"07332036","population":"402","elevation":"","dem":"160","timezone":"Europe/Berlin","modification_date":"2011-04-25"},{"geonameid":"2871719","name":"Mertesdorf","asciiname":"Mertesdorf","alternatenames":"Mertesdorf,mei er te si duo fu,Мертесдорф,მერტესდორფი,梅尔特斯多夫","latitude":"49.77212","longitude":"6.7329","feature_class":"P","feature_code":"PPLA4","country_code":"DE","cc2":"","admin1_code":"08","admin2_code":"00","admin3_code":"07235","admin4_code":"07235085","population":"1658","elevation":"","dem":"209","timezone":"Europe/Berlin","modification_date":"2011-04-25"},{"geonameid":"2871722","name":"Mertendorf","asciiname":"Mertendorf","alternatenames":"Mertendorf,Mertendorf (Naumburg),Mertendorf (bei Naumburg),Mirtendorp [a. 1206],mei er teng duo fu,Мертендорф,Мертендорф (Наумбург),梅尔滕多夫","latitude":"51.11883","longitude":"11.85837","feature_class":"P","feature_code":"PPLA4","country_code":"DE","cc2":"","admin1_code":"14","admin2_code":"00","admin3_code":"15084","admin4_code":"15084335","population":"718","elevation":"","dem":"130","timezone":"Europe/Berlin","modification_date":"2014-12-22"},{"geonameid":"2871723","name":"Mertendorf","asciiname":"Mertendorf","alternatenames":"","latitude":"51","longitude":"11.78333","feature_class":"P","feature_code":"PPLA4","country_code":"DE","cc2":"","admin1_code":"15","admin2_code":"00","admin3_code":"16074","admin4_code":"16074055","population":"166","elevation":"","dem":"319","timezone":"Europe/Berlin","modification_date":"2011-04-25"},{"geonameid":"2871736","name":"Merseburg","asciiname":"Merseburg","alternatenames":"Mersebourg,Merseburg,Merseburga,Merzeburg,Mjezybor,mei ze bao,mrsybwrgh,mrzbwrg,Мерзебург,מרזבורג,مرسيبورغ,梅泽堡","latitude":"51.35478","longitude":"11.98923","feature_class":"P","feature_code":"PPLA3","country_code":"DE","cc2":"","admin1_code":"14","admin2_code":"00","admin3_code":"15088","admin4_code":"15088220","population":"34780","elevation":"","dem":"101","timezone":"Europe/Berlin","modification_date":"2015-09-05"},{"geonameid":"2871749","name":"Merschbach","asciiname":"Merschbach","alternatenames":"","latitude":"49.8","longitude":"7","feature_class":"P","feature_code":"PPLA4","country_code":"DE","cc2":"","admin1_code":"08","admin2_code":"00","admin3_code":"07231","admin4_code":"07231083","population":"52","elevation":"","dem":"259","timezone":"Europe/Berlin","modification_date":"2011-04-25"},{"geonameid":"2871762","name":"Mermuth","asciiname":"Mermuth","alternatenames":"","latitude":"50.16667","longitude":"7.48333","feature_class":"P","feature_code":"PPLA4","country_code":"DE","cc2":"","admin1_code":"08","admin2_code":"00","admin3_code":"07140","admin4_code":"07140093","population":"313","elevation":"","dem":"367","timezone":"Europe/Berlin","modification_date":"2011-04-25"},{"geonameid":"2871767","name":"Merlscheid","asciiname":"Merlscheid","alternatenames":"","latitude":"50.13333","longitude":"6.35","feature_class":"P","feature_code":"PPLA4","country_code":"DE","cc2":"","admin1_code":"08","admin2_code":"00","admin3_code":"07232","admin4_code":"07232270","population":"35","elevation":"","dem":"368","timezone":"Europe/Berlin","modification_date":"2011-04-25"},{"geonameid":"2871790","name":"Merklingen","asciiname":"Merklingen","alternatenames":"Merklingen,mei er ke lin gen,Мерклинген,Мерклінген,Մերկլինգեն,მერკლინგენი,梅尔克林根","latitude":"48.51135","longitude":"9.75496","feature_class":"P","feature_code":"PPLA4","country_code":"DE","cc2":"","admin1_code":"01","admin2_code":"084","admin3_code":"08425","admin4_code":"08425079","population":"1871","elevation":"","dem":"709","timezone":"Europe/Berlin","modification_date":"2011-04-25"},{"geonameid":"2871803","name":"Merkendorf","asciiname":"Merkendorf","alternatenames":"Merkendorf,Merkendorf i Mittelfranken,merukendorufu,mrkndwrf,Меркендорф,مرکندورف,メルケンドルフ","latitude":"49.20361","longitude":"10.70416","feature_class":"P","feature_code":"PPL","country_code":"DE","cc2":"","admin1_code":"02","admin2_code":"095","admin3_code":"09571","admin4_code":"09571177","population":"2898","elevation":"","dem":"434","timezone":"Europe/Berlin","modification_date":"2013-02-19"},{"geonameid":"2871805","name":"Merkenbach","asciiname":"Merkenbach","alternatenames":"","latitude":"50.65626","longitude":"8.29513","feature_class":"P","feature_code":"PPL","country_code":"DE","cc2":"","admin1_code":"05","admin2_code":"065","admin3_code":"06532","admin4_code":"06532012","population":"1600","elevation":"","dem":"252","timezone":"Europe/Berlin","modification_date":"2015-09-05"},{"geonameid":"2871807","name":"Merkelbach","asciiname":"Merkelbach","alternatenames":"Merkelbach,Merkelbeck","latitude":"50.65","longitude":"7.75","feature_class":"P","feature_code":"PPLA4","country_code":"DE","cc2":"","admin1_code":"08","admin2_code":"00","admin3_code":"07143","admin4_code":"07143262","population":"381","elevation":"","dem":"300","timezone":"Europe/Berlin","modification_date":"2011-04-25"},{"geonameid":"2871813","name":"Mering","asciiname":"Mering","alternatenames":"Mering,Moringen,mei lin,meringu,Меринг,Мерінг,メーリング,梅林","latitude":"48.2656","longitude":"10.98461","feature_class":"P","feature_code":"PPL","country_code":"DE","cc2":"","admin1_code":"02","admin2_code":"097","admin3_code":"09771","admin4_code":"09771146","population":"12820","elevation":"","dem":"511","timezone":"Europe/Berlin","modification_date":"2013-02-19"},{"geonameid":"2871829","name":"Merenberg","asciiname":"Merenberg","alternatenames":"Merenberg,mei lun bei ge,Меренберг,Меренберґ,梅伦贝格","latitude":"50.50707","longitude":"8.19194","feature_class":"P","feature_code":"PPL","country_code":"DE","cc2":"","admin1_code":"05","admin2_code":"065","admin3_code":"06533","admin4_code":"06533012","population":"3493","elevation":"","dem":"312","timezone":"Europe/Berlin","modification_date":"2015-09-04"},{"geonameid":"2871831","name":"Merdingen","asciiname":"Merdingen","alternatenames":"Merdingen,mei er ding gen,Мердинген,Мердінген,Մերդինգեն,梅尔丁根","latitude":"48.01667","longitude":"7.68333","feature_class":"P","feature_code":"PPLA4","country_code":"DE","cc2":"","admin1_code":"01","admin2_code":"083","admin3_code":"08315","admin4_code":"08315072","population":"2648","elevation":"","dem":"193","timezone":"Europe/Berlin","modification_date":"2011-04-25"},{"geonameid":"2871832","name":"Merchweiler","asciiname":"Merchweiler","alternatenames":"Merkhvajler,mei er xi wei lei,Мерхвайлер,Мерхвајлер,梅尔希韦勒","latitude":"49.35","longitude":"7.05","feature_class":"P","feature_code":"PPLA4","country_code":"DE","cc2":"","admin1_code":"09","admin2_code":"00","admin3_code":"10043","admin4_code":"10043113","population":"10863","elevation":"","dem":"357","timezone":"Europe/Berlin","modification_date":"2011-04-25"},{"geonameid":"2871835","name":"Merching","asciiname":"Merching","alternatenames":"Merkhing,Merxing,mei er xing,meruhingu,Мерхинг,Мерхінг,Մերխինգ,メルヒング,梅尔兴","latitude":"48.24594","longitude":"10.9853","feature_class":"P","feature_code":"PPLA4","country_code":"DE","cc2":"","admin1_code":"02","admin2_code":"097","admin3_code":"09771","admin4_code":"09771145","population":"3133","elevation":"","dem":"529","timezone":"Europe/Berlin","modification_date":"2011-04-25"},{"geonameid":"2871845","name":"Meppen","asciiname":"Meppen","alternatenames":"Mepen,Meppen,mbn,mpn,Мепен,Меппен,مبن,مپن","latitude":"52.69064","longitude":"7.29097","feature_class":"P","feature_code":"PPLA3","country_code":"DE","cc2":"","admin1_code":"06","admin2_code":"00","admin3_code":"03454","admin4_code":"03454035","population":"34198","elevation":"","dem":"15","timezone":"Europe/Berlin","modification_date":"2015-09-05"},{"geonameid":"2871884","name":"Menteroda","asciiname":"Menteroda","alternatenames":"Menteroda,men te luo da,Ментерода,门特罗达","latitude":"51.30763","longitude":"10.56323","feature_class":"P","feature_code":"PPLA4","country_code":"DE","cc2":"","admin1_code":"15","admin2_code":"00","admin3_code":"16064","admin4_code":"16064072","population":"2494","elevation":"","dem":"423","timezone":"Europe/Berlin","modification_date":"2014-01-16"},{"geonameid":"2871889","name":"Menslage","asciiname":"Menslage","alternatenames":"Menslage,men si la ge,Менслаге,门斯拉格","latitude":"52.68333","longitude":"7.81667","feature_class":"P","feature_code":"PPLA4","country_code":"DE","cc2":"","admin1_code":"06","admin2_code":"00","admin3_code":"03459","admin4_code":"03459025","population":"2608","elevation":"","dem":"22","timezone":"Europe/Berlin","modification_date":"2011-04-25"},{"geonameid":"2871915","name":"Menningen","asciiname":"Menningen","alternatenames":"","latitude":"49.83333","longitude":"6.48333","feature_class":"P","feature_code":"PPLA4","country_code":"DE","cc2":"","admin1_code":"08","admin2_code":"00","admin3_code":"07232","admin4_code":"07232078","population":"187","elevation":"","dem":"297","timezone":"Europe/Berlin","modification_date":"2011-04-25"},{"geonameid":"2871950","name":"Mengkofen","asciiname":"Mengkofen","alternatenames":"Mengofen,Menkofen,men ke fen,mngkwfn,Менгофен,Менкофен,Մենգոֆեն,منگکوفن,门科芬","latitude":"48.71894","longitude":"12.44047","feature_class":"P","feature_code":"PPLA4","country_code":"DE","cc2":"","admin1_code":"02","admin2_code":"092","admin3_code":"09279","admin4_code":"09279127","population":"5695","elevation":"","dem":"399","timezone":"Europe/Berlin","modification_date":"2012-11-13"},{"geonameid":"2871953","name":"Mengerskirchen","asciiname":"Mengerskirchen","alternatenames":"Mengerskirchen,Mengerskirkhen,men ge er si ji xing,Менгерскирхен,Менгерскірхен,门格尔斯基兴","latitude":"50.56392","longitude":"8.15555","feature_class":"P","feature_code":"PPL","country_code":"DE","cc2":"","admin1_code":"05","admin2_code":"065","admin3_code":"06533","admin4_code":"06533011","population":"6116","elevation":"","dem":"412","timezone":"Europe/Berlin","modification_date":"2015-09-04"},{"geonameid":"2871958","name":"Mengersgereuth-Hämmern","asciiname":"Mengersgereuth-Haemmern","alternatenames":"Mengersgereuth-Hammern,Mengersgereuth-Hämmern,Mengersgerojt-Khemern,Mengersgerojt-Khemmern,Менгерсгеройт-Хеммерн,Менгерсгеројт-Хемерн","latitude":"50.3973","longitude":"11.11649","feature_class":"P","feature_code":"PPL","country_code":"DE","cc2":"","admin1_code":"15","admin2_code":"00","admin3_code":"16072","admin4_code":"16072023","population":"2972","elevation":"","dem":"500","timezone":"Europe/Berlin","modification_date":"2015-09-05"},{"geonameid":"2871960","name":"Mengerschied","asciiname":"Mengerschied","alternatenames":"","latitude":"49.91667","longitude":"7.5","feature_class":"P","feature_code":"PPLA4","country_code":"DE","cc2":"","admin1_code":"08","admin2_code":"00","admin3_code":"07140","admin4_code":"07140092","population":"800","elevation":"","dem":"375","timezone":"Europe/Berlin","modification_date":"2011-04-25"},{"geonameid":"2871963","name":"Mengenich","asciiname":"Mengenich","alternatenames":"Bocklemuend,Bocklemuend / Mengenich,Bocklemünd,Bocklemünd / Mengenich,Mengenich","latitude":"50.9785","longitude":"6.86737","feature_class":"P","feature_code":"PPLX","country_code":"DE","cc2":"","admin1_code":"07","admin2_code":"053","admin3_code":"05315","admin4_code":"05315000","population":"10350","elevation":"","dem":"52","timezone":"Europe/Berlin","modification_date":"2013-08-03"},{"geonameid":"2871964","name":"Mengen","asciiname":"Mengen","alternatenames":"Mengen,men gen,mngn  alman,Менген,منگن، آلمان,门根","latitude":"48.04951","longitude":"9.33005","feature_class":"P","feature_code":"PPL","country_code":"DE","cc2":"","admin1_code":"01","admin2_code":"084","admin3_code":"08437","admin4_code":"08437076","population":"10205","elevation":"561","dem":"562","timezone":"Europe/Berlin","modification_date":"2013-02-16"},{"geonameid":"2871979","name":"Mendig","asciiname":"Mendig","alternatenames":"Mendig,Mending,men di xi,mendihi,mndyg,mndygh,Мендиг,منديغ,مندیگ,メンディヒ,门迪希","latitude":"50.36667","longitude":"7.28333","feature_class":"P","feature_code":"PPL","country_code":"DE","cc2":"","admin1_code":"08","admin2_code":"00","admin3_code":"07137","admin4_code":"07137069","population":"8813","elevation":"","dem":"195","timezone":"Europe/Berlin","modification_date":"2015-09-04"},{"geonameid":"2871983","name":"Menden","asciiname":"Menden","alternatenames":"Menden,Mennen,men deng,mndn,Менден,مندن,门登","latitude":"51.44337","longitude":"7.77825","feature_class":"P","feature_code":"PPL","country_code":"DE","cc2":"","admin1_code":"07","admin2_code":"059","admin3_code":"05962","admin4_code":"05962040","population":"58451","elevation":"","dem":"165","timezone":"Europe/Berlin","modification_date":"2015-09-05"},{"geonameid":"2871990","name":"Memmingerberg","asciiname":"Memmingerberg","alternatenames":"Memingerberg,Memmingerberg,mei ming ge bei ge,Мемингерберг,Меммингерберг,Меммінгерберг,Մեմինգերբերգ,梅明格贝格","latitude":"47.98803","longitude":"10.22295","feature_class":"P","feature_code":"PPLA4","country_code":"DE","cc2":"","admin1_code":"02","admin2_code":"097","admin3_code":"09778","admin4_code":"09778171","population":"2579","elevation":"","dem":"633","timezone":"Europe/Berlin","modification_date":"2012-11-27"},{"geonameid":"2871992","name":"Memmingen","asciiname":"Memmingen","alternatenames":"FMM,Gorad Memingen,Memingen,Memmingen,mei ming gen,memingen,mmyngn,Горад Мемінген,Меминген,Мемминген,Меммінген,ممینگن,ሜሚንገን,メミンゲン,梅明根","latitude":"47.98372","longitude":"10.18527","feature_class":"P","feature_code":"PPL","country_code":"DE","cc2":"","admin1_code":"02","admin2_code":"097","admin3_code":"09764","admin4_code":"09764000","population":"41135","elevation":"","dem":"598","timezone":"Europe/Berlin","modification_date":"2013-02-19"},{"geonameid":"2872003","name":"Memmelsdorf","asciiname":"Memmelsdorf","alternatenames":"Memelsdorf,Memmel'sdorf,mei mo er si duo fu,menmerusudorufu,Мемелсдорф,Меммельсдорф,Մեմելսդորֆ,メンメルスドルフ,梅默尔斯多夫","latitude":"49.93012","longitude":"10.95921","feature_class":"P","feature_code":"PPLA4","country_code":"DE","cc2":"","admin1_code":"02","admin2_code":"094","admin3_code":"09471","admin4_code":"09471159","population":"9001","elevation":"","dem":"285","timezone":"Europe/Berlin","modification_date":"2011-04-25"},{"geonameid":"2872028","name":"Melsungen","asciiname":"Melsungen","alternatenames":"Mel'zungen,Melsungen,Melzungen,mei er song gen,meruzungen,mlzwnghn,mlzwngn,Мелзунген,Мельзунген,Մելզունգեն,ملزونغن,ملزونگن,メルズンゲン,梅尔松根","latitude":"51.13029","longitude":"9.55236","feature_class":"P","feature_code":"PPL","country_code":"DE","cc2":"","admin1_code":"05","admin2_code":"066","admin3_code":"06634","admin4_code":"06634014","population":"14004","elevation":"","dem":"179","timezone":"Europe/Berlin","modification_date":"2015-09-05"},{"geonameid":"2872031","name":"Melsdorf","asciiname":"Melsdorf","alternatenames":"Melsdorf","latitude":"54.31667","longitude":"10.03333","feature_class":"P","feature_code":"PPLA4","country_code":"DE","cc2":"","admin1_code":"10","admin2_code":"00","admin3_code":"01058","admin4_code":"01058104","population":"1775","elevation":"","dem":"16","timezone":"Europe/Berlin","modification_date":"2011-04-25"},{"geonameid":"2872033","name":"Melsbach","asciiname":"Melsbach","alternatenames":"","latitude":"50.48333","longitude":"7.48333","feature_class":"P","feature_code":"PPLA4","country_code":"DE","cc2":"","admin1_code":"08","admin2_code":"00","admin3_code":"07138","admin4_code":"07138043","population":"2139","elevation":"","dem":"181","timezone":"Europe/Berlin","modification_date":"2011-04-25"},{"geonameid":"2872036","name":"Melpers","asciiname":"Melpers","alternatenames":"","latitude":"50.55","longitude":"10.15","feature_class":"P","feature_code":"PPLA4","country_code":"DE","cc2":"","admin1_code":"15","admin2_code":"00","admin3_code":"16066","admin4_code":"16066043","population":"106","elevation":"","dem":"592","timezone":"Europe/Berlin","modification_date":"2011-04-25"},{"geonameid":"2872047","name":"Mellrichstadt","asciiname":"Mellrichstadt","alternatenames":"Mel'rikhshtadt,Mell'rikstadt,Mellrichstadt,Melrikhshtat,mei er li xi si ta te,mlrysh ashtat,Мелльрикстадт,Мелрихштат,Мельрихштадт,Мельріхштадт,Մելրիխշթաթ,ملريش اشتات,ملریش‌اشتات,梅尔里希斯塔特","latitude":"50.42849","longitude":"10.30334","feature_class":"P","feature_code":"PPL","country_code":"DE","cc2":"","admin1_code":"02","admin2_code":"096","admin3_code":"09673","admin4_code":"09673142","population":"6254","elevation":"","dem":"280","timezone":"Europe/Berlin","modification_date":"2013-02-19"},{"geonameid":"2872056","name":"Mellinghausen","asciiname":"Mellinghausen","alternatenames":"","latitude":"52.70697","longitude":"8.89704","feature_class":"P","feature_code":"PPLA4","country_code":"DE","cc2":"","admin1_code":"06","admin2_code":"00","admin3_code":"03251","admin4_code":"03251027","population":"1090","elevation":"","dem":"47","timezone":"Europe/Berlin","modification_date":"2011-04-25"},{"geonameid":"2872057","name":"Mellingen","asciiname":"Mellingen","alternatenames":"","latitude":"50.93333","longitude":"11.4","feature_class":"P","feature_code":"PPLA4","country_code":"DE","cc2":"","admin1_code":"15","admin2_code":"00","admin3_code":"16071","admin4_code":"16071056","population":"1234","elevation":"","dem":"231","timezone":"Europe/Berlin","modification_date":"2011-04-25"},{"geonameid":"2872065","name":"Am Mellensee","asciiname":"Am Mellensee","alternatenames":"Am Melenze,Am-Mellenze,Mellen,a mu mei lun sai,am mlnzh,Ам Мелензе,Ам-Меллензе,Ամ Մելենզե,آم ملنزه,阿姆梅伦塞","latitude":"52.18333","longitude":"13.4","feature_class":"P","feature_code":"PPLA4","country_code":"DE","cc2":"DE","admin1_code":"11","admin2_code":"00","admin3_code":"12072","admin4_code":"12072002","population":"0","elevation":"","dem":"38","timezone":"Europe/Berlin","modification_date":"2011-07-31"},{"geonameid":"2872073","name":"Mellenbach-Glasbach","asciiname":"Mellenbach-Glasbach","alternatenames":"Melenbakh-Glasbakh,Mellenbach-Glasbach,Mellenbakh-Glasbakh,mei lun ba-ge la si ba he,Меленбах-Гласбах,Мелленбах-Гласбах,梅伦巴-格拉斯巴赫","latitude":"50.61667","longitude":"11.1","feature_class":"P","feature_code":"PPLA4","country_code":"DE","cc2":"","admin1_code":"15","admin2_code":"00","admin3_code":"16073","admin4_code":"16073054","population":"1159","elevation":"","dem":"600","timezone":"Europe/Berlin","modification_date":"2011-04-25"},{"geonameid":"2872079","name":"Melle","asciiname":"Melle","alternatenames":"Mele,Melle,Mellea,mei lei,mlh  alman,mylh,Меле,Мелле,مله، آلمان,ميله,梅勒","latitude":"52.20197","longitude":"8.33826","feature_class":"P","feature_code":"PPL","country_code":"DE","cc2":"","admin1_code":"06","admin2_code":"00","admin3_code":"03459","admin4_code":"03459024","population":"46514","elevation":"","dem":"82","timezone":"Europe/Berlin","modification_date":"2015-09-04"},{"geonameid":"2872100","name":"Meldorf","asciiname":"Meldorf","alternatenames":"Mel'dorf,Meldoerp,Meldorf,Meldörp,mei er duo fu,mldwrf,Мелдорф,Мельдорф,ملدورف,梅尔多夫","latitude":"54.09182","longitude":"9.0687","feature_class":"P","feature_code":"PPL","country_code":"DE","cc2":"","admin1_code":"10","admin2_code":"00","admin3_code":"01051","admin4_code":"01051074","population":"7719","elevation":"","dem":"4","timezone":"Europe/Berlin","modification_date":"2015-09-04"},{"geonameid":"2872102","name":"Melchow","asciiname":"Melchow","alternatenames":"Mel'khov,Melkhov,mei er xiao,Мелхов,Мельхов,Մելչով,梅尔肖","latitude":"52.77613","longitude":"13.70647","feature_class":"P","feature_code":"PPLA4","country_code":"DE","cc2":"","admin1_code":"11","admin2_code":"00","admin3_code":"12060","admin4_code":"12060161","population":"1069","elevation":"","dem":"62","timezone":"Europe/Berlin","modification_date":"2011-07-31"},{"geonameid":"2872117","name":"Melbeck","asciiname":"Melbeck","alternatenames":"","latitude":"53.18333","longitude":"10.4","feature_class":"P","feature_code":"PPLA4","country_code":"DE","cc2":"","admin1_code":"06","admin2_code":"00","admin3_code":"03355","admin4_code":"03355024","population":"3358","elevation":"","dem":"41","timezone":"Europe/Berlin","modification_date":"2011-07-31"},{"geonameid":"2872124","name":"Meitzendorf","asciiname":"Meitzendorf","alternatenames":"","latitude":"52.21308","longitude":"11.56174","feature_class":"P","feature_code":"PPL","country_code":"DE","cc2":"","admin1_code":"14","admin2_code":"00","admin3_code":"15083","admin4_code":"15083040","population":"1113","elevation":"","dem":"53","timezone":"Europe/Berlin","modification_date":"2014-05-16"},{"geonameid":"2872126","name":"Meitingen","asciiname":"Meitingen","alternatenames":"Majtingen,Meitinga,Meitingen,mai ting gen,Майтинген,Майтінген,Мајтинген,Մայթինգեն,迈廷根","latitude":"48.54586","longitude":"10.85179","feature_class":"P","feature_code":"PPL","country_code":"DE","cc2":"","admin1_code":"02","admin2_code":"097","admin3_code":"09772","admin4_code":"09772177","population":"11201","elevation":"","dem":"432","timezone":"Europe/Berlin","modification_date":"2013-02-19"},{"geonameid":"2872149","name":"Meißenheim","asciiname":"Meissenheim","alternatenames":"Majsengajm,Majsenkhajm,Майсенгайм,Майсенхайм,Мајсенхајм","latitude":"48.41035","longitude":"7.77266","feature_class":"P","feature_code":"PPLA4","country_code":"DE","cc2":"","admin1_code":"01","admin2_code":"083","admin3_code":"08317","admin4_code":"08317075","population":"3636","elevation":"","dem":"147","timezone":"Europe/Berlin","modification_date":"2011-07-31"},{"geonameid":"2872155","name":"Meissen","asciiname":"Meissen","alternatenames":"Majsen,Meissen,Meißen,Mejsen,Misen,Misnia,Misno,Miśnia,Mišno,Míšeň,mai sen,maisen,maysn,mayysn,mi sen,myysn,Майсен,Мајсен,Мейсен,מייסן,مائیسن,مايسن,مایسن,ไมเซน,マイセン,迈森,마이센","latitude":"51.16158","longitude":"13.4737","feature_class":"P","feature_code":"PPLA3","country_code":"DE","cc2":"","admin1_code":"13","admin2_code":"00","admin3_code":"14627","admin4_code":"14627140","population":"28492","elevation":"","dem":"109","timezone":"Europe/Berlin","modification_date":"2015-09-05"},{"geonameid":"2872173","name":"Meisenheim","asciiname":"Meisenheim","alternatenames":"Majzenkhajm,Meisenheim,mai sen hai mu,mayznhaym,Майзенхайм,Мајзенхајм,مايزنهايم,مایزنهایم,迈森海姆","latitude":"49.70721","longitude":"7.66765","feature_class":"P","feature_code":"PPL","country_code":"DE","cc2":"","admin1_code":"08","admin2_code":"00","admin3_code":"07133","admin4_code":"07133065","population":"2887","elevation":"","dem":"169","timezone":"Europe/Berlin","modification_date":"2015-09-05"},{"geonameid":"2872195","name":"Meisburg","asciiname":"Meisburg","alternatenames":"","latitude":"50.11667","longitude":"6.68333","feature_class":"P","feature_code":"PPLA4","country_code":"DE","cc2":"","admin1_code":"08","admin2_code":"00","admin3_code":"07233","admin4_code":"07233043","population":"259","elevation":"","dem":"539","timezone":"Europe/Berlin","modification_date":"2011-04-25"},{"geonameid":"2872225","name":"Meiningen","asciiname":"Meiningen","alternatenames":"Mainin'nken,Mainingia,Majningen,Meiningen,Stadt Meiningen,mai ning gen,mainingen,maynynghn,maynyngn,myynyngn,Μάινινγκεν,Майнинген,Майнінген,Мајнинген,מיינינגן,ماينينغن,ماینینگن,マイニンゲン,迈宁根","latitude":"50.56787","longitude":"10.41521","feature_class":"P","feature_code":"PPLA3","country_code":"DE","cc2":"","admin1_code":"15","admin2_code":"00","admin3_code":"16066","admin4_code":"16066042","population":"21580","elevation":"","dem":"292","timezone":"Europe/Berlin","modification_date":"2015-09-05"},{"geonameid":"2872231","name":"Meinheim","asciiname":"Meinheim","alternatenames":"Majngajm,Majnkhajm,Maynhaym,mai yin hai mu,Майнгайм,Майнхайм,Мајнхајм,Մայնհայմ,迈因海姆","latitude":"49.03333","longitude":"10.81667","feature_class":"P","feature_code":"PPLA4","country_code":"DE","cc2":"","admin1_code":"02","admin2_code":"095","admin3_code":"09577","admin4_code":"09577150","population":"928","elevation":"","dem":"435","timezone":"Europe/Berlin","modification_date":"2011-04-25"},{"geonameid":"2872237","name":"Meinerzhagen","asciiname":"Meinerzhagen","alternatenames":"Majnercgagen,Majnerckhagen,Meinerzhagen,mai nei er ci ha gen,maynrtshaghn,Майнерцгаген,Майнерцхаген,Мајнерцхаген,ماينرتسهاغن,ماینرتس‌هاگن,迈内尔茨哈根","latitude":"51.1074","longitude":"7.64838","feature_class":"P","feature_code":"PPL","country_code":"DE","cc2":"","admin1_code":"07","admin2_code":"059","admin3_code":"05962","admin4_code":"05962036","population":"21982","elevation":"","dem":"399","timezone":"Europe/Berlin","modification_date":"2015-09-04"},{"geonameid":"2872244","name":"Meinersen","asciiname":"Meinersen","alternatenames":"Maansse,Maanssen,Maanße,Maanßen,Mansse,Meinsse,Meinße,Mānße","latitude":"52.47436","longitude":"10.35247","feature_class":"P","feature_code":"PPLA4","country_code":"DE","cc2":"","admin1_code":"06","admin2_code":"00","admin3_code":"03151","admin4_code":"03151017","population":"8322","elevation":"","dem":"54","timezone":"Europe/Berlin","modification_date":"2011-03-15"},{"geonameid":"2872255","name":"Meine","asciiname":"Meine","alternatenames":"Mainum,Majne,mai nei,Майне,Мајне,迈内","latitude":"52.38493","longitude":"10.53932","feature_class":"P","feature_code":"PPLA4","country_code":"DE","cc2":"","admin1_code":"06","admin2_code":"00","admin3_code":"03151","admin4_code":"03151016","population":"0","elevation":"","dem":"79","timezone":"Europe/Berlin","modification_date":"2015-12-08"},{"geonameid":"2872261","name":"Meinborn","asciiname":"Meinborn","alternatenames":"","latitude":"50.5","longitude":"7.56667","feature_class":"P","feature_code":"PPLA4","country_code":"DE","cc2":"","admin1_code":"08","admin2_code":"00","admin3_code":"07138","admin4_code":"07138042","population":"466","elevation":"","dem":"308","timezone":"Europe/Berlin","modification_date":"2011-04-25"},{"geonameid":"2872347","name":"Meiderich","asciiname":"Meiderich","alternatenames":"Meiderich,Meiderich/Beeck","latitude":"51.46667","longitude":"6.76667","feature_class":"P","feature_code":"PPLX","country_code":"DE","cc2":"","admin1_code":"07","admin2_code":"051","admin3_code":"05112","admin4_code":"05112000","population":"45297","elevation":"","dem":"30","timezone":"Europe/Berlin","modification_date":"2015-09-05"},{"geonameid":"2872362","name":"Mehrstetten","asciiname":"Mehrstetten","alternatenames":"Mershteten,Mershtetten,mei er si te teng,Мерштетен,Мерштеттен,梅尔斯特滕,梅爾斯特滕","latitude":"48.37609","longitude":"9.566","feature_class":"P","feature_code":"PPLA4","country_code":"DE","cc2":"","admin1_code":"01","admin2_code":"084","admin3_code":"08415","admin4_code":"08415048","population":"1454","elevation":"","dem":"755","timezone":"Europe/Berlin","modification_date":"2011-04-25"},{"geonameid":"2872374","name":"Mehringen","asciiname":"Mehringen","alternatenames":"Mehringen","latitude":"51.72663","longitude":"11.51264","feature_class":"P","feature_code":"PPL","country_code":"DE","cc2":"","admin1_code":"14","admin2_code":"00","admin3_code":"15089","admin4_code":"15089015","population":"1194","elevation":"","dem":"108","timezone":"Europe/Berlin","modification_date":"2015-09-05"},{"geonameid":"2872375","name":"Mehring","asciiname":"Mehring","alternatenames":"","latitude":"49.8","longitude":"6.83333","feature_class":"P","feature_code":"PPLA4","country_code":"DE","cc2":"","admin1_code":"08","admin2_code":"00","admin3_code":"07235","admin4_code":"07235083","population":"2171","elevation":"","dem":"154","timezone":"Europe/Berlin","modification_date":"2011-07-31"},{"geonameid":"2872377","name":"Mehring","asciiname":"Mehring","alternatenames":"","latitude":"48.18333","longitude":"12.78333","feature_class":"P","feature_code":"PPLA4","country_code":"DE","cc2":"","admin1_code":"02","admin2_code":"091","admin3_code":"09171","admin4_code":"09171124","population":"2242","elevation":"","dem":"412","timezone":"Europe/Berlin","modification_date":"2011-04-25"},{"geonameid":"2872380","name":"Mehrhoog","asciiname":"Mehrhoog","alternatenames":"","latitude":"51.73826","longitude":"6.51164","feature_class":"P","feature_code":"PPLL","country_code":"DE","cc2":"","admin1_code":"07","admin2_code":"051","admin3_code":"05170","admin4_code":"05170012","population":"6520","elevation":"21","dem":"23","timezone":"Europe/Berlin","modification_date":"2012-08-04"},{"geonameid":"2872389","name":"Mehren","asciiname":"Mehren","alternatenames":"Mehren","latitude":"50.68333","longitude":"7.5","feature_class":"P","feature_code":"PPLA4","country_code":"DE","cc2":"","admin1_code":"08","admin2_code":"00","admin3_code":"07132","admin4_code":"07132069","population":"522","elevation":"","dem":"261","timezone":"Europe/Berlin","modification_date":"2011-04-25"},{"geonameid":"2872390","name":"Mehren","asciiname":"Mehren","alternatenames":"Meren,mei lun,Мерен,梅倫","latitude":"50.18333","longitude":"6.88333","feature_class":"P","feature_code":"PPLA4","country_code":"DE","cc2":"","admin1_code":"08","admin2_code":"00","admin3_code":"07233","admin4_code":"07233042","population":"1385","elevation":"","dem":"498","timezone":"Europe/Berlin","modification_date":"2011-04-25"},{"geonameid":"2872403","name":"Mehna","asciiname":"Mehna","alternatenames":"Mehna","latitude":"50.96667","longitude":"12.31667","feature_class":"P","feature_code":"PPLA4","country_code":"DE","cc2":"","admin1_code":"15","admin2_code":"00","admin3_code":"16077","admin4_code":"16077031","population":"356","elevation":"","dem":"249","timezone":"Europe/Berlin","modification_date":"2011-04-25"},{"geonameid":"2872405","name":"Mehmels","asciiname":"Mehmels","alternatenames":"","latitude":"50.63333","longitude":"10.33333","feature_class":"P","feature_code":"PPLA4","country_code":"DE","cc2":"","admin1_code":"15","admin2_code":"00","admin3_code":"16066","admin4_code":"16066041","population":"416","elevation":"","dem":"311","timezone":"Europe/Berlin","modification_date":"2011-04-25"},{"geonameid":"2872409","name":"Mehltheuer","asciiname":"Mehltheuer","alternatenames":"","latitude":"50.5453","longitude":"12.037","feature_class":"P","feature_code":"PPL","country_code":"DE","cc2":"","admin1_code":"13","admin2_code":"00","admin3_code":"14523","admin4_code":"14523365","population":"1587","elevation":"","dem":"513","timezone":"Europe/Berlin","modification_date":"2015-09-05"},{"geonameid":"2872417","name":"Mehlmeisel","asciiname":"Mehlmeisel","alternatenames":"Mel'majzel',Melmajzel,Melmayzel,mei er mai sai er,merumaizeru,Мелмајзел,Мельмайзель,Մելմայզել,メールマイゼル,梅尔迈塞尔","latitude":"49.96667","longitude":"11.85","feature_class":"P","feature_code":"PPLA4","country_code":"DE","cc2":"","admin1_code":"02","admin2_code":"094","admin3_code":"09472","admin4_code":"09472164","population":"1409","elevation":"","dem":"730","timezone":"Europe/Berlin","modification_date":"2011-04-25"},{"geonameid":"2872428","name":"Mehlingen","asciiname":"Mehlingen","alternatenames":"Mehlingen,Melingen,Мелинген","latitude":"49.5","longitude":"7.85","feature_class":"P","feature_code":"PPLA4","country_code":"DE","cc2":"","admin1_code":"08","admin2_code":"00","admin3_code":"07335","admin4_code":"07335026","population":"3882","elevation":"","dem":"304","timezone":"Europe/Berlin","modification_date":"2011-04-25"},{"geonameid":"2872447","name":"Mehlbek","asciiname":"Mehlbek","alternatenames":"Mehlbek","latitude":"54.00456","longitude":"9.43453","feature_class":"P","feature_code":"PPLA4","country_code":"DE","cc2":"","admin1_code":"10","admin2_code":"00","admin3_code":"01061","admin4_code":"01061067","population":"466","elevation":"","dem":"22","timezone":"Europe/Berlin","modification_date":"2011-04-25"},{"geonameid":"2872449","name":"Mehlbach","asciiname":"Mehlbach","alternatenames":"","latitude":"49.51667","longitude":"7.71667","feature_class":"P","feature_code":"PPLA4","country_code":"DE","cc2":"","admin1_code":"08","admin2_code":"00","admin3_code":"07335","admin4_code":"07335025","population":"1193","elevation":"","dem":"290","timezone":"Europe/Berlin","modification_date":"2011-04-25"},{"geonameid":"2872463","name":"Meggerdorf","asciiname":"Meggerdorf","alternatenames":"Meggerdorf","latitude":"54.35","longitude":"9.4","feature_class":"P","feature_code":"PPLA4","country_code":"DE","cc2":"","admin1_code":"10","admin2_code":"00","admin3_code":"01059","admin4_code":"01059058","population":"701","elevation":"","dem":"-1","timezone":"Europe/Berlin","modification_date":"2011-04-25"},{"geonameid":"2872469","name":"Megesheim","asciiname":"Megesheim","alternatenames":"","latitude":"48.93333","longitude":"10.65","feature_class":"P","feature_code":"PPLA4","country_code":"DE","cc2":"","admin1_code":"02","admin2_code":"097","admin3_code":"09779","admin4_code":"09779180","population":"900","elevation":"","dem":"418","timezone":"Europe/Berlin","modification_date":"2011-04-25"},{"geonameid":"2872470","name":"Meezen","asciiname":"Meezen","alternatenames":"Meezen","latitude":"54.05","longitude":"9.7","feature_class":"P","feature_code":"PPLA4","country_code":"DE","cc2":"","admin1_code":"10","admin2_code":"00","admin3_code":"01058","admin4_code":"01058103","population":"389","elevation":"","dem":"45","timezone":"Europe/Berlin","modification_date":"2011-04-25"},{"geonameid":"2872486","name":"Meersburg","asciiname":"Meersburg","alternatenames":"Meersburg,Mersburg,Neersburg,measuburuku,meeoseubuleukeu,meersburgi,mei er si bao,myrzbwrg,Мерсбург,Մեերսբուրգ,میرزبورگ,მეერსბურგი,メーアスブルク,梅尔斯堡,메어스부르크","latitude":"47.69419","longitude":"9.27113","feature_class":"P","feature_code":"PPL","country_code":"DE","cc2":"","admin1_code":"01","admin2_code":"084","admin3_code":"08435","admin4_code":"08435036","population":"5528","elevation":"","dem":"426","timezone":"Europe/Berlin","modification_date":"2012-08-30"},{"geonameid":"2872500","name":"Meerfeld","asciiname":"Meerfeld","alternatenames":"","latitude":"50.1","longitude":"6.75","feature_class":"P","feature_code":"PPLA4","country_code":"DE","cc2":"","admin1_code":"08","admin2_code":"00","admin3_code":"07231","admin4_code":"07231082","population":"355","elevation":"","dem":"390","timezone":"Europe/Berlin","modification_date":"2011-04-25"},{"geonameid":"2872503","name":"Meerdorf","asciiname":"Meerdorf","alternatenames":"Maerdoerp,Meerdorp,Märdörp","latitude":"52.34583","longitude":"10.31745","feature_class":"P","feature_code":"PPL","country_code":"DE","cc2":"","admin1_code":"06","admin2_code":"00","admin3_code":"03157","admin4_code":"03157008","population":"1140","elevation":"","dem":"72","timezone":"Europe/Berlin","modification_date":"2015-09-18"},{"geonameid":"2872504","name":"Meerbusch","asciiname":"Meerbusch","alternatenames":"Meerbusch,Merbush,ZOK,mei er bu shi,myrbwsh,Мербуш,ميربوش,میربوش,梅尔布施","latitude":"51.26118","longitude":"6.6717","feature_class":"P","feature_code":"PPL","country_code":"DE","cc2":"","admin1_code":"07","admin2_code":"051","admin3_code":"05162","admin4_code":"05162022","population":"54826","elevation":"","dem":"39","timezone":"Europe/Berlin","modification_date":"2015-09-05"},{"geonameid":"2872512","name":"Meerbeck","asciiname":"Meerbeck","alternatenames":"","latitude":"52.33333","longitude":"9.15","feature_class":"P","feature_code":"PPLA4","country_code":"DE","cc2":"","admin1_code":"06","admin2_code":"00","admin3_code":"03257","admin4_code":"03257023","population":"2130","elevation":"","dem":"64","timezone":"Europe/Berlin","modification_date":"2011-07-31"},{"geonameid":"2872519","name":"Meerane","asciiname":"Meerane","alternatenames":"Meerane,Merane,Meranė,Mērane,mei la nei,myranh,Меране,ميرانه,میرانه,梅拉内","latitude":"50.84688","longitude":"12.46473","feature_class":"P","feature_code":"PPL","country_code":"DE","cc2":"","admin1_code":"13","admin2_code":"00","admin3_code":"14524","admin4_code":"14524190","population":"17325","elevation":"","dem":"248","timezone":"Europe/Berlin","modification_date":"2015-09-05"},{"geonameid":"2872527","name":"Meeder","asciiname":"Meeder","alternatenames":"","latitude":"50.31667","longitude":"10.91667","feature_class":"P","feature_code":"PPLA4","country_code":"DE","cc2":"","admin1_code":"02","admin2_code":"094","admin3_code":"09473","admin4_code":"09473144","population":"4107","elevation":"","dem":"323","timezone":"Europe/Berlin","modification_date":"2011-07-31"},{"geonameid":"2872553","name":"Medelby","asciiname":"Medelby","alternatenames":"Medelby","latitude":"54.81667","longitude":"9.18333","feature_class":"P","feature_code":"PPLA4","country_code":"DE","cc2":"","admin1_code":"10","admin2_code":"00","admin3_code":"01059","admin4_code":"01059143","population":"878","elevation":"","dem":"31","timezone":"Europe/Berlin","modification_date":"2011-04-25"},{"geonameid":"2872557","name":"Medebach","asciiname":"Medebach","alternatenames":"Medebach,Medebakh,mdbakh,mei de ba,mydhbakh,Медебах,مدباخ,ميدهباخ,梅德巴","latitude":"51.19713","longitude":"8.70635","feature_class":"P","feature_code":"PPL","country_code":"DE","cc2":"","admin1_code":"07","admin2_code":"059","admin3_code":"05958","admin4_code":"05958028","population":"8276","elevation":"","dem":"410","timezone":"Europe/Berlin","modification_date":"2015-09-04"},{"geonameid":"2872558","name":"Meddewade","asciiname":"Meddewade","alternatenames":"Meddewade","latitude":"53.81667","longitude":"10.45","feature_class":"P","feature_code":"PPLA4","country_code":"DE","cc2":"","admin1_code":"10","admin2_code":"00","admin3_code":"01062","admin4_code":"01062046","population":"756","elevation":"","dem":"11","timezone":"Europe/Berlin","modification_date":"2011-04-25"},{"geonameid":"2872559","name":"Meddersheim","asciiname":"Meddersheim","alternatenames":"Medderskhajm,Mederskhajm,mei de er si hai mu,Меддерсхайм,Медерсхајм,梅德尔斯海姆","latitude":"49.78333","longitude":"7.61667","feature_class":"P","feature_code":"PPLA4","country_code":"DE","cc2":"","admin1_code":"08","admin2_code":"00","admin3_code":"07133","admin4_code":"07133064","population":"1368","elevation":"","dem":"151","timezone":"Europe/Berlin","modification_date":"2011-04-25"},{"geonameid":"2872562","name":"Medard","asciiname":"Medard","alternatenames":"Medard,mei da er de,Медард,梅达尔德","latitude":"49.66667","longitude":"7.61667","feature_class":"P","feature_code":"PPLA4","country_code":"DE","cc2":"","admin1_code":"08","admin2_code":"00","admin3_code":"07336","admin4_code":"07336061","population":"526","elevation":"","dem":"157","timezone":"Europe/Berlin","modification_date":"2011-04-25"},{"geonameid":"2872571","name":"Mecklenburg","asciiname":"Mecklenburg","alternatenames":"Dorf Mecklenburg,Mecklenburg,Mecklenburg Dorf","latitude":"53.8427","longitude":"11.4633","feature_class":"P","feature_code":"PPL","country_code":"DE","cc2":"","admin1_code":"12","admin2_code":"00","admin3_code":"13074","admin4_code":"13074019","population":"3088","elevation":"","dem":"33","timezone":"Europe/Berlin","modification_date":"2015-09-05"},{"geonameid":"2872580","name":"Meckesheim","asciiname":"Meckesheim","alternatenames":"Meckesheim,Mekeskhajm,Mekkesgajm,Mekkeskhajm,mei ke si hai mu,mekkesuhaimu,Мекесхајм,Меккесгайм,Меккесхайм,メッケスハイム,梅克斯海姆","latitude":"49.32167","longitude":"8.81944","feature_class":"P","feature_code":"PPLA4","country_code":"DE","cc2":"","admin1_code":"01","admin2_code":"082","admin3_code":"08226","admin4_code":"08226049","population":"5409","elevation":"","dem":"144","timezone":"Europe/Berlin","modification_date":"2011-04-25"},{"geonameid":"2872582","name":"Meckenheim","asciiname":"Meckenheim","alternatenames":"Meckem,Meckenheim,Mekenkhajm,Mekkenkhajm,mei ken hai mu,mknhaym,Мекенхајм,Меккенхайм,مکنهایم,梅肯海姆","latitude":"50.62388","longitude":"7.02942","feature_class":"P","feature_code":"PPL","country_code":"DE","cc2":"","admin1_code":"07","admin2_code":"053","admin3_code":"05382","admin4_code":"05382032","population":"25515","elevation":"","dem":"185","timezone":"Europe/Berlin","modification_date":"2015-09-04"},{"geonameid":"2872583","name":"Meckenheim","asciiname":"Meckenheim","alternatenames":"Meckenheim,Meehenheim,Mekkenkhajm,Меккенхайм","latitude":"49.40444","longitude":"8.23917","feature_class":"P","feature_code":"PPLA4","country_code":"DE","cc2":"","admin1_code":"08","admin2_code":"00","admin3_code":"07332","admin4_code":"07332035","population":"3376","elevation":"","dem":"114","timezone":"Europe/Berlin","modification_date":"2011-04-25"},{"geonameid":"2872585","name":"Meckenbeuren","asciiname":"Meckenbeuren","alternatenames":"Meckenbeuren,Mekenbojren,Mekkenbojren,mei ken bo yi lun,Мекенбојрен,Меккенбойрен,Մեքենբոյրեն,მეკენბოირენი,梅肯博伊伦","latitude":"47.7","longitude":"9.56667","feature_class":"P","feature_code":"PPLA4","country_code":"DE","cc2":"","admin1_code":"01","admin2_code":"084","admin3_code":"08435","admin4_code":"08435035","population":"13183","elevation":"","dem":"415","timezone":"Europe/Berlin","modification_date":"2011-07-31"},{"geonameid":"2872586","name":"Meckenbach","asciiname":"Meckenbach","alternatenames":"","latitude":"49.78333","longitude":"7.5","feature_class":"P","feature_code":"PPLA4","country_code":"DE","cc2":"","admin1_code":"08","admin2_code":"00","admin3_code":"07133","admin4_code":"07133063","population":"422","elevation":"","dem":"320","timezone":"Europe/Berlin","modification_date":"2011-04-25"},{"geonameid":"2872587","name":"Meckenbach","asciiname":"Meckenbach","alternatenames":"","latitude":"49.61667","longitude":"7.1","feature_class":"P","feature_code":"PPLA4","country_code":"DE","cc2":"","admin1_code":"08","admin2_code":"00","admin3_code":"07134","admin4_code":"07134053","population":"0","elevation":"","dem":"454","timezone":"Europe/Berlin","modification_date":"2011-04-25"},{"geonameid":"2872594","name":"Meckel","asciiname":"Meckel","alternatenames":"","latitude":"49.88977","longitude":"6.51712","feature_class":"P","feature_code":"PPLA4","country_code":"DE","cc2":"","admin1_code":"08","admin2_code":"00","admin3_code":"07232","admin4_code":"07232077","population":"373","elevation":"","dem":"298","timezone":"Europe/Berlin","modification_date":"2011-07-31"},{"geonameid":"2872600","name":"Mechterstädt","asciiname":"Mechterstaedt","alternatenames":"Mechterstadt,Mechterstaedt,Mechterstädt,Mekhtershtedt,Mekhtershtet,Мехтерштедт,Мехтерштет","latitude":"50.94201","longitude":"10.5238","feature_class":"P","feature_code":"PPL","country_code":"DE","cc2":"","admin1_code":"15","admin2_code":"00","admin3_code":"16067","admin4_code":"16067088","population":"1154","elevation":"","dem":"276","timezone":"Europe/Berlin","modification_date":"2015-09-05"},{"geonameid":"2872602","name":"Mechtersen","asciiname":"Mechtersen","alternatenames":"Mechtsen,Mekhterzen,mei xi te er sen,Мехтерзен,梅希特尔森","latitude":"53.28333","longitude":"10.31667","feature_class":"P","feature_code":"PPLA4","country_code":"DE","cc2":"","admin1_code":"06","admin2_code":"00","admin3_code":"03355","admin4_code":"03355023","population":"682","elevation":"","dem":"17","timezone":"Europe/Berlin","modification_date":"2011-04-25"},{"geonameid":"2872606","name":"Mechow","asciiname":"Mechow","alternatenames":"","latitude":"53.71667","longitude":"10.8","feature_class":"P","feature_code":"PPLA4","country_code":"DE","cc2":"","admin1_code":"10","admin2_code":"00","admin3_code":"01053","admin4_code":"01053088","population":"98","elevation":"","dem":"30","timezone":"Europe/Berlin","modification_date":"2011-04-25"},{"geonameid":"2872611","name":"Mechernich","asciiname":"Mechernich","alternatenames":"Mechernich,Mekhernikh,mei xie er ni xi,mshrnysh,Мехерних,Мехерніх,مشرنيش,مشرنیش,梅歇尔尼希","latitude":"50.59304","longitude":"6.65224","feature_class":"P","feature_code":"PPL","country_code":"DE","cc2":"","admin1_code":"07","admin2_code":"053","admin3_code":"05366","admin4_code":"05366028","population":"27537","elevation":"","dem":"301","timezone":"Europe/Berlin","modification_date":"2015-09-04"},{"geonameid":"2872617","name":"Mechelroda","asciiname":"Mechelroda","alternatenames":"","latitude":"50.91126","longitude":"11.37806","feature_class":"P","feature_code":"PPLA4","country_code":"DE","cc2":"","admin1_code":"15","admin2_code":"00","admin3_code":"16071","admin4_code":"16071055","population":"274","elevation":"","dem":"345","timezone":"Europe/Berlin","modification_date":"2011-04-25"},{"geonameid":"2872625","name":"Mayschoß","asciiname":"Mayschoss","alternatenames":"Majshos,Mayschoss,Mayschoß,mai shao si,Майшос,Мајшос,迈绍斯","latitude":"50.53333","longitude":"7.01667","feature_class":"P","feature_code":"PPLA4","country_code":"DE","cc2":"","admin1_code":"08","admin2_code":"00","admin3_code":"07131","admin4_code":"07131049","population":"971","elevation":"","dem":"335","timezone":"Europe/Berlin","modification_date":"2015-03-04"},{"geonameid":"2872649","name":"Mayen","asciiname":"Mayen","alternatenames":"Majen,Mayen,mai en,maien,mayn,mayn ,Майен,Майєн,Мајен,ماين,ماین،,マイエン,迈恩","latitude":"50.32797","longitude":"7.22277","feature_class":"P","feature_code":"PPL","country_code":"DE","cc2":"","admin1_code":"08","admin2_code":"00","admin3_code":"07137","admin4_code":"07137068","population":"19414","elevation":"","dem":"238","timezone":"Europe/Berlin","modification_date":"2015-09-05"},{"geonameid":"2872659","name":"Maxsain","asciiname":"Maxsain","alternatenames":"","latitude":"50.55","longitude":"7.78333","feature_class":"P","feature_code":"PPLA4","country_code":"DE","cc2":"","admin1_code":"08","admin2_code":"00","admin3_code":"07143","admin4_code":"07143046","population":"1158","elevation":"","dem":"296","timezone":"Europe/Berlin","modification_date":"2011-04-25"},{"geonameid":"2872670","name":"Maxhütte-Haidhof","asciiname":"Maxhutte-Haidhof","alternatenames":"Maksgjutte-Gajdgof,Makskhite-Khajdkhof,Makskhjutte-Khajdkhof,Maxhuette-Haidhof,Maxhutte,Maxhutte-Haidhof,Maxhütte,Maxhütte-Haidhof,ma ke si xu te-hai de huo fu,mkshwth-haydhwf,Максгютте-Гайдгоф,Максхите-Хајдхоф,Максхютте-Хайдхоф,مكسهوته-هايدهوف,مکسهوته-هایدهوف,马克斯许特-海德霍夫","latitude":"49.19963","longitude":"12.09229","feature_class":"P","feature_code":"PPL","country_code":"DE","cc2":"","admin1_code":"02","admin2_code":"093","admin3_code":"09376","admin4_code":"09376141","population":"10674","elevation":"","dem":"421","timezone":"Europe/Berlin","modification_date":"2015-03-04"},{"geonameid":"2872686","name":"Maxdorf","asciiname":"Maxdorf","alternatenames":"Maksdorf,ma ke si duo fu,makkusudorufu,Максдорф,マックスドルフ,马克斯多夫","latitude":"49.48806","longitude":"8.29167","feature_class":"P","feature_code":"PPLA4","country_code":"DE","cc2":"","admin1_code":"08","admin2_code":"00","admin3_code":"07338","admin4_code":"07338018","population":"6882","elevation":"","dem":"95","timezone":"Europe/Berlin","modification_date":"2011-04-25"},{"geonameid":"2872697","name":"Mauth","asciiname":"Mauth","alternatenames":"Maut,Mauth,mao te,mawt,Маут,Մաութ,ماوت,毛特","latitude":"48.88972","longitude":"13.58459","feature_class":"P","feature_code":"PPLA4","country_code":"DE","cc2":"","admin1_code":"02","admin2_code":"092","admin3_code":"09272","admin4_code":"09272134","population":"2566","elevation":"","dem":"821","timezone":"Europe/Berlin","modification_date":"2011-08-22"},{"geonameid":"2872739","name":"Mauschbach","asciiname":"Mauschbach","alternatenames":"","latitude":"49.18333","longitude":"7.4","feature_class":"P","feature_code":"PPLA4","country_code":"DE","cc2":"","admin1_code":"08","admin2_code":"00","admin3_code":"07340","admin4_code":"07340218","population":"270","elevation":"","dem":"250","timezone":"Europe/Berlin","modification_date":"2011-04-25"},{"geonameid":"2872775","name":"Maulburg","asciiname":"Maulburg","alternatenames":"Maul'burg,Maulburg,mao er bao,Маулбург,Маульбург,毛尔堡","latitude":"47.64631","longitude":"7.7821","feature_class":"P","feature_code":"PPLA4","country_code":"DE","cc2":"","admin1_code":"01","admin2_code":"083","admin3_code":"08336","admin4_code":"08336057","population":"4099","elevation":"","dem":"350","timezone":"Europe/Berlin","modification_date":"2011-04-25"},{"geonameid":"2872777","name":"Maulbronn","asciiname":"Maulbronn","alternatenames":"Maul,Maul'bronn,Maulbron,Maulbronn,mao er bu long,mauruburon,mawlbrwn,Маулброн,Маульбронн,Մաուլբրոն,ماولبرون,マウルブロン,毛尔布龙","latitude":"48.99958","longitude":"8.80337","feature_class":"P","feature_code":"PPL","country_code":"DE","cc2":"","admin1_code":"01","admin2_code":"082","admin3_code":"08236","admin4_code":"08236038","population":"6817","elevation":"","dem":"247","timezone":"Europe/Berlin","modification_date":"2013-02-16"},{"geonameid":"2872796","name":"Mauerstetten","asciiname":"Mauerstetten","alternatenames":"","latitude":"47.88333","longitude":"10.66667","feature_class":"P","feature_code":"PPLA4","country_code":"DE","cc2":"","admin1_code":"02","admin2_code":"097","admin3_code":"09777","admin4_code":"09777152","population":"2922","elevation":"","dem":"721","timezone":"Europe/Berlin","modification_date":"2011-04-25"},{"geonameid":"2872807","name":"Mauern","asciiname":"Mauern","alternatenames":"Mauehrn,Mauern,Mauren,mao ai er en,mawyrn,Мауерн,Мауэрн,Մաուերն,ماوئرن,毛埃尔恩","latitude":"48.51667","longitude":"11.9","feature_class":"P","feature_code":"PPLA4","country_code":"DE","cc2":"","admin1_code":"02","admin2_code":"091","admin3_code":"09178","admin4_code":"09178142","population":"2752","elevation":"","dem":"444","timezone":"Europe/Berlin","modification_date":"2011-04-25"},{"geonameid":"2872815","name":"Mauer","asciiname":"Mauer","alternatenames":"Mauehr,Mauer,mao e,maua,Мауер,Мауэр,マウアー,毛厄","latitude":"49.34083","longitude":"8.80028","feature_class":"P","feature_code":"PPLA4","country_code":"DE","cc2":"","admin1_code":"01","admin2_code":"082","admin3_code":"08226","admin4_code":"08226048","population":"3498","elevation":"","dem":"141","timezone":"Europe/Berlin","modification_date":"2011-04-25"},{"geonameid":"2872825","name":"Mauel","asciiname":"Mauel","alternatenames":"","latitude":"50.06667","longitude":"6.4","feature_class":"P","feature_code":"PPLA4","country_code":"DE","cc2":"","admin1_code":"08","admin2_code":"00","admin3_code":"07232","admin4_code":"07232267","population":"74","elevation":"","dem":"306","timezone":"Europe/Berlin","modification_date":"2011-04-25"},{"geonameid":"2872827","name":"Mauden","asciiname":"Mauden","alternatenames":"","latitude":"50.71667","longitude":"8","feature_class":"P","feature_code":"PPLA4","country_code":"DE","cc2":"","admin1_code":"08","admin2_code":"00","admin3_code":"07132","admin4_code":"07132068","population":"116","elevation":"","dem":"403","timezone":"Europe/Berlin","modification_date":"2011-04-25"},{"geonameid":"2872832","name":"Mauchenheim","asciiname":"Mauchenheim","alternatenames":"","latitude":"49.71806","longitude":"8.04611","feature_class":"P","feature_code":"PPLA4","country_code":"DE","cc2":"","admin1_code":"08","admin2_code":"00","admin3_code":"07331","admin4_code":"07331044","population":"983","elevation":"","dem":"226","timezone":"Europe/Berlin","modification_date":"2011-04-25"},{"geonameid":"2872860","name":"Matzerath","asciiname":"Matzerath","alternatenames":"","latitude":"50.15","longitude":"6.38333","feature_class":"P","feature_code":"PPLA4","country_code":"DE","cc2":"","admin1_code":"08","admin2_code":"00","admin3_code":"07232","admin4_code":"07232266","population":"54","elevation":"","dem":"470","timezone":"Europe/Berlin","modification_date":"2011-04-25"},{"geonameid":"2872880","name":"Matzenbach","asciiname":"Matzenbach","alternatenames":"Macenbakh,Matcenbakh,ma cen ba he,Матценбах,Маценбах,马岑巴赫","latitude":"49.5","longitude":"7.46667","feature_class":"P","feature_code":"PPLA4","country_code":"DE","cc2":"","admin1_code":"08","admin2_code":"00","admin3_code":"07336","admin4_code":"07336107","population":"700","elevation":"","dem":"298","timezone":"Europe/Berlin","modification_date":"2011-04-25"},{"geonameid":"2872892","name":"Mattstedt","asciiname":"Mattstedt","alternatenames":"","latitude":"51.05","longitude":"11.51667","feature_class":"P","feature_code":"PPLA4","country_code":"DE","cc2":"","admin1_code":"15","admin2_code":"00","admin3_code":"16071","admin4_code":"16071101","population":"545","elevation":"","dem":"195","timezone":"Europe/Berlin","modification_date":"2015-11-29"},{"geonameid":"2872953","name":"Masthorn","asciiname":"Masthorn","alternatenames":"","latitude":"50.15","longitude":"6.3","feature_class":"P","feature_code":"PPLA4","country_code":"DE","cc2":"","admin1_code":"08","admin2_code":"00","admin3_code":"07232","admin4_code":"07232265","population":"73","elevation":"","dem":"445","timezone":"Europe/Berlin","modification_date":"2011-04-25"},{"geonameid":"2872955","name":"Mastershausen","asciiname":"Mastershausen","alternatenames":"Masterskhauzen,ma si te er si hao sen,Мастерсхаузен,马斯特尔斯豪森","latitude":"50.06667","longitude":"7.35","feature_class":"P","feature_code":"PPLA4","country_code":"DE","cc2":"","admin1_code":"08","admin2_code":"00","admin3_code":"07140","admin4_code":"07140204","population":"1202","elevation":"","dem":"413","timezone":"Europe/Berlin","modification_date":"2011-04-25"},{"geonameid":"2872962","name":"Maßweiler","asciiname":"Massweiler","alternatenames":"Massweiler,Maßweiler","latitude":"49.26667","longitude":"7.53333","feature_class":"P","feature_code":"PPLA4","country_code":"DE","cc2":"","admin1_code":"08","admin2_code":"00","admin3_code":"07340","admin4_code":"07340217","population":"1158","elevation":"","dem":"347","timezone":"Europe/Berlin","modification_date":"2015-03-04"},{"geonameid":"2872972","name":"Massing","asciiname":"Massing","alternatenames":"Masing,Massing,Maszing,ma xing,masyng,Масинг,Массинг,Массінг,Մասինգ,ماسینگ,马兴","latitude":"48.39118","longitude":"12.60947","feature_class":"P","feature_code":"PPL","country_code":"DE","cc2":"","admin1_code":"02","admin2_code":"092","admin3_code":"09277","admin4_code":"09277133","population":"4144","elevation":"","dem":"429","timezone":"Europe/Berlin","modification_date":"2013-02-19"},{"geonameid":"2872980","name":"Masserberg","asciiname":"Masserberg","alternatenames":"Maserberg,Masserberg,Mazerberg,ma se er bei ge,Мазерберг,Масерберг,Массерберг,马瑟尔贝格","latitude":"50.51667","longitude":"10.98333","feature_class":"P","feature_code":"PPLA4","country_code":"DE","cc2":"","admin1_code":"15","admin2_code":"00","admin3_code":"16069","admin4_code":"16069061","population":"2828","elevation":"","dem":"711","timezone":"Europe/Berlin","modification_date":"2011-04-25"},{"geonameid":"2872996","name":"Massenbachhausen","asciiname":"Massenbachhausen","alternatenames":"Massenbakhgauzen,Massenbakhkhauzen,Mazenbakhauzen,ma sen ba hao sen,massenbahhahauzen,Мазенбахаузен,Массенбахгаузен,Массенбаххаузен,マッセンバッハハウゼン,马森巴豪森","latitude":"49.17778","longitude":"9.04333","feature_class":"P","feature_code":"PPLA4","country_code":"DE","cc2":"","admin1_code":"01","admin2_code":"081","admin3_code":"08125","admin4_code":"08125061","population":"3676","elevation":"","dem":"210","timezone":"Europe/Berlin","modification_date":"2011-04-25"},{"geonameid":"2873011","name":"Maßbach","asciiname":"Massbach","alternatenames":"Masbakh,Masbax,Massbach,Maßbach,ma si ba he,Масбах,Մասբախ,马斯巴赫","latitude":"50.18321","longitude":"10.27522","feature_class":"P","feature_code":"PPL","country_code":"DE","cc2":"","admin1_code":"02","admin2_code":"096","admin3_code":"09672","admin4_code":"09672131","population":"4819","elevation":"","dem":"284","timezone":"Europe/Berlin","modification_date":"2015-03-04"},{"geonameid":"2873022","name":"Maselheim","asciiname":"Maselheim","alternatenames":"Mazel'gajm,Mazel'khajm,Mazelhaym,Mazelkhajm,ma sai er hai mu,mazelhaimi,Мазелхајм,Мазельгайм,Мазельхайм,Մազելհայմ,მაზელჰაიმი,马塞尔海姆","latitude":"48.13333","longitude":"9.88333","feature_class":"P","feature_code":"PPLA4","country_code":"DE","cc2":"","admin1_code":"01","admin2_code":"084","admin3_code":"08426","admin4_code":"08426071","population":"4534","elevation":"","dem":"544","timezone":"Europe/Berlin","modification_date":"2011-04-25"},{"geonameid":"2873049","name":"Masburg","asciiname":"Masburg","alternatenames":"","latitude":"50.25","longitude":"7.11667","feature_class":"P","feature_code":"PPLA4","country_code":"DE","cc2":"","admin1_code":"08","admin2_code":"00","admin3_code":"07135","admin4_code":"07135058","population":"1037","elevation":"","dem":"441","timezone":"Europe/Berlin","modification_date":"2011-04-25"},{"geonameid":"2873056","name":"Marzling","asciiname":"Marzling","alternatenames":"Marcling,ma er ci ling,martslyng,Марцлинг,Марцлінг,Մարցլինգ,مارتسلینگ,马尔茨灵","latitude":"48.40904","longitude":"11.79382","feature_class":"P","feature_code":"PPLA4","country_code":"DE","cc2":"","admin1_code":"02","admin2_code":"091","admin3_code":"09178","admin4_code":"09178140","population":"2899","elevation":"","dem":"442","timezone":"Europe/Berlin","modification_date":"2011-07-31"},{"geonameid":"2873061","name":"Marzhausen","asciiname":"Marzhausen","alternatenames":"","latitude":"50.68333","longitude":"7.75","feature_class":"P","feature_code":"PPLA4","country_code":"DE","cc2":"","admin1_code":"08","admin2_code":"00","admin3_code":"07143","admin4_code":"07143261","population":"258","elevation":"","dem":"315","timezone":"Europe/Berlin","modification_date":"2011-04-25"},{"geonameid":"2873074","name":"Marzahn","asciiname":"Marzahn","alternatenames":"Berlin-Marzahn,marzaہn-ہylrzڈwrf,mrzʼn,מרצאן,مارزاہن-ہیلرزڈورف","latitude":"52.54525","longitude":"13.56983","feature_class":"P","feature_code":"PPLX","country_code":"DE","cc2":"","admin1_code":"16","admin2_code":"00","admin3_code":"11000","admin4_code":"11000000","population":"103768","elevation":"","dem":"62","timezone":"Europe/Berlin","modification_date":"2014-04-12"},{"geonameid":"2873080","name":"Marxheim","asciiname":"Marxheim","alternatenames":"Marksgajm,Markskhajm,ma er ke si hai mu,marukusuhaimu,Марксгайм,Марксхайм,Մարքսհայմ,マルクスハイム,马尔克斯海姆","latitude":"48.74153","longitude":"10.94504","feature_class":"P","feature_code":"PPLA4","country_code":"DE","cc2":"","admin1_code":"02","admin2_code":"097","admin3_code":"09779","admin4_code":"09779178","population":"2574","elevation":"","dem":"407","timezone":"Europe/Berlin","modification_date":"2012-11-13"},{"geonameid":"2873087","name":"Marxen","asciiname":"Marxen","alternatenames":"","latitude":"53.31667","longitude":"10.01667","feature_class":"P","feature_code":"PPLA4","country_code":"DE","cc2":"","admin1_code":"06","admin2_code":"00","admin3_code":"03353","admin4_code":"03353024","population":"1251","elevation":"","dem":"38","timezone":"Europe/Berlin","modification_date":"2011-04-25"},{"geonameid":"2873108","name":"Martinstein","asciiname":"Martinstein","alternatenames":"Martinshtajn,ma er ting si tai yin,Мартинштайн,Мартинштајн,马尔廷斯泰因","latitude":"49.8","longitude":"7.53333","feature_class":"P","feature_code":"PPLA4","country_code":"DE","cc2":"","admin1_code":"08","admin2_code":"00","admin3_code":"07133","admin4_code":"07133062","population":"329","elevation":"","dem":"289","timezone":"Europe/Berlin","modification_date":"2011-04-25"},{"geonameid":"2873122","name":"Martinshöhe","asciiname":"Martinshohe","alternatenames":"Martinshoehe,Martinshöhe","latitude":"49.36667","longitude":"7.48333","feature_class":"P","feature_code":"PPLA4","country_code":"DE","cc2":"","admin1_code":"08","admin2_code":"00","admin3_code":"07335","admin4_code":"07335203","population":"1757","elevation":"","dem":"385","timezone":"Europe/Berlin","modification_date":"2015-03-04"},{"geonameid":"2873126","name":"Martinsheim","asciiname":"Martinsheim","alternatenames":"Martinsgajm,Martinskhajm,ma er ting si hai mu,Мартинсхайм,Мартинсхајм,Мартінсгайм,Մարթինսհայմ,马尔廷斯海姆","latitude":"49.6235","longitude":"10.14879","feature_class":"P","feature_code":"PPLA4","country_code":"DE","cc2":"","admin1_code":"02","admin2_code":"096","admin3_code":"09675","admin4_code":"09675150","population":"1062","elevation":"","dem":"283","timezone":"Europe/Berlin","modification_date":"2011-04-25"},{"geonameid":"2873140","name":"Martinroda","asciiname":"Martinroda","alternatenames":"","latitude":"50.8","longitude":"10.06667","feature_class":"P","feature_code":"PPLA4","country_code":"DE","cc2":"","admin1_code":"15","admin2_code":"00","admin3_code":"16063","admin4_code":"16063082","population":"297","elevation":"","dem":"370","timezone":"Europe/Berlin","modification_date":"2015-11-29"},{"geonameid":"2873141","name":"Martinroda","asciiname":"Martinroda","alternatenames":"","latitude":"50.71667","longitude":"10.88333","feature_class":"P","feature_code":"PPLA4","country_code":"DE","cc2":"","admin1_code":"15","admin2_code":"00","admin3_code":"16070","admin4_code":"16070034","population":"894","elevation":"","dem":"475","timezone":"Europe/Berlin","modification_date":"2011-04-25"},{"geonameid":"2873144","name":"Martinhagen","asciiname":"Martinhagen","alternatenames":"","latitude":"51.28688","longitude":"9.28611","feature_class":"P","feature_code":"PPL","country_code":"DE","cc2":"","admin1_code":"05","admin2_code":"066","admin3_code":"06633","admin4_code":"06633023","population":"1500","elevation":"380","dem":"385","timezone":"Europe/Berlin","modification_date":"2015-09-05"},{"geonameid":"2873150","name":"Marth","asciiname":"Marth","alternatenames":"Marth","latitude":"51.38333","longitude":"10","feature_class":"P","feature_code":"PPLA4","country_code":"DE","cc2":"","admin1_code":"15","admin2_code":"00","admin3_code":"16061","admin4_code":"16061069","population":"358","elevation":"","dem":"272","timezone":"Europe/Berlin","modification_date":"2011-04-25"},{"geonameid":"2873153","name":"Martfeld","asciiname":"Martfeld","alternatenames":"Martfel'd,Martfeld,Mattfeld,ma er te fei er de,Мартфелд,Мартфельд,马尔特费尔德","latitude":"52.86667","longitude":"9.06667","feature_class":"P","feature_code":"PPLA4","country_code":"DE","cc2":"","admin1_code":"06","admin2_code":"00","admin3_code":"03251","admin4_code":"03251026","population":"2867","elevation":"","dem":"12","timezone":"Europe/Berlin","modification_date":"2011-04-25"},{"geonameid":"2873159","name":"Martensrade","asciiname":"Martensrade","alternatenames":"Martensrade","latitude":"54.28333","longitude":"10.4","feature_class":"P","feature_code":"PPLA4","country_code":"DE","cc2":"","admin1_code":"10","admin2_code":"00","admin3_code":"01057","admin4_code":"01057050","population":"1069","elevation":"","dem":"63","timezone":"Europe/Berlin","modification_date":"2011-04-25"},{"geonameid":"2873211","name":"Marsberg","asciiname":"Marsberg","alternatenames":"Eresburg,Marsberg,ma er si bei ge,mrsbwrg,mrsbwrgh,Марсберг,مرسبورغ,مرسبورگ,ማርስበርግ,马尔斯贝格","latitude":"51.46171","longitude":"8.84949","feature_class":"P","feature_code":"PPL","country_code":"DE","cc2":"","admin1_code":"07","admin2_code":"059","admin3_code":"05958","admin4_code":"05958024","population":"21914","elevation":"","dem":"254","timezone":"Europe/Berlin","modification_date":"2015-09-05"},{"geonameid":"2873220","name":"Marquartstein","asciiname":"Marquartstein","alternatenames":"Markvartshtajn,Marquartstoa,ma er ku a er ci tai yin,markwartshtayn,Марквартштайн,Марквартштајн,Մարկվարթշթայն,مارکوارتشتاین,马尔库阿尔茨泰因","latitude":"47.75857","longitude":"12.46219","feature_class":"P","feature_code":"PPLA4","country_code":"DE","cc2":"","admin1_code":"02","admin2_code":"091","admin3_code":"09189","admin4_code":"09189129","population":"3125","elevation":"","dem":"544","timezone":"Europe/Berlin","modification_date":"2011-04-25"},{"geonameid":"2873224","name":"Marpingen","asciiname":"Marpingen","alternatenames":"Marpingen,ma er ping gen,Марпинген,Марпінген,马尔平根","latitude":"49.45228","longitude":"7.0582","feature_class":"P","feature_code":"PPLA4","country_code":"DE","cc2":"","admin1_code":"09","admin2_code":"00","admin3_code":"10046","admin4_code":"10046112","population":"11358","elevation":"","dem":"285","timezone":"Europe/Berlin","modification_date":"2011-04-25"},{"geonameid":"2873226","name":"Maroth","asciiname":"Maroth","alternatenames":"","latitude":"50.58333","longitude":"7.68333","feature_class":"P","feature_code":"PPLA4","country_code":"DE","cc2":"","admin1_code":"08","admin2_code":"00","admin3_code":"07143","admin4_code":"07143045","population":"257","elevation":"","dem":"280","timezone":"Europe/Berlin","modification_date":"2011-04-25"},{"geonameid":"2873227","name":"Marolterode","asciiname":"Marolterode","alternatenames":"","latitude":"51.23333","longitude":"10.68333","feature_class":"P","feature_code":"PPLA4","country_code":"DE","cc2":"","admin1_code":"15","admin2_code":"00","admin3_code":"16064","admin4_code":"16064043","population":"364","elevation":"","dem":"308","timezone":"Europe/Berlin","modification_date":"2011-04-25"},{"geonameid":"2873228","name":"Maroldsweisach","asciiname":"Maroldsweisach","alternatenames":"Marol'dsvajzakh,Maroldsvajsakh,Maroldsweisach,ma luo er ci wei sa,Маролдсвајсах,Марольдсвайзах,马罗尔茨魏萨","latitude":"50.19578","longitude":"10.66003","feature_class":"P","feature_code":"PPL","country_code":"DE","cc2":"","admin1_code":"02","admin2_code":"096","admin3_code":"09674","admin4_code":"09674171","population":"3788","elevation":"","dem":"333","timezone":"Europe/Berlin","modification_date":"2013-02-19"},{"geonameid":"2873234","name":"Marnheim","asciiname":"Marnheim","alternatenames":"Marnkhajm,ma en hai mu,Марнхайм,Марнхајм,马恩海姆","latitude":"49.63278","longitude":"8.04","feature_class":"P","feature_code":"PPLA4","country_code":"DE","cc2":"","admin1_code":"08","admin2_code":"00","admin3_code":"07333","admin4_code":"07333045","population":"1642","elevation":"","dem":"190","timezone":"Europe/Berlin","modification_date":"2011-04-25"},{"geonameid":"2873237","name":"Marnerdeich","asciiname":"Marnerdeich","alternatenames":"Marnerdeich","latitude":"53.95","longitude":"8.98333","feature_class":"P","feature_code":"PPLA4","country_code":"DE","cc2":"","admin1_code":"10","admin2_code":"00","admin3_code":"01051","admin4_code":"01051073","population":"348","elevation":"","dem":"-1","timezone":"Europe/Berlin","modification_date":"2011-04-25"},{"geonameid":"2873250","name":"Marlow","asciiname":"Marlow","alternatenames":"","latitude":"54.15439","longitude":"12.57261","feature_class":"P","feature_code":"PPL","country_code":"DE","cc2":"","admin1_code":"12","admin2_code":"00","admin3_code":"13073","admin4_code":"13073055","population":"4881","elevation":"","dem":"29","timezone":"Europe/Berlin","modification_date":"2015-09-04"},{"geonameid":"2873251","name":"Marloffstein","asciiname":"Marloffstein","alternatenames":"Marloffshtajn,Marlofshtajn,ma er luo fu si tai yin,marofushutain,Марлоффштайн,Марлофштайн,Марлофштајн,マーロフシュタイン,马尔洛夫斯泰因","latitude":"49.61794","longitude":"11.06323","feature_class":"P","feature_code":"PPLA4","country_code":"DE","cc2":"","admin1_code":"02","admin2_code":"095","admin3_code":"09572","admin4_code":"09572141","population":"1612","elevation":"","dem":"364","timezone":"Europe/Berlin","modification_date":"2011-04-25"},{"geonameid":"2873262","name":"Marl","asciiname":"Marl","alternatenames":"","latitude":"52.48333","longitude":"8.36667","feature_class":"P","feature_code":"PPLA4","country_code":"DE","cc2":"","admin1_code":"06","admin2_code":"00","admin3_code":"03251","admin4_code":"03251025","population":"570","elevation":"","dem":"41","timezone":"Europe/Berlin","modification_date":"2011-04-25"},{"geonameid":"2873263","name":"Marl","asciiname":"Marl","alternatenames":"Marl,Marl',ma er,marl  alman,Марл,Марль,مارل، آلمان,马尔","latitude":"51.65671","longitude":"7.09038","feature_class":"P","feature_code":"PPL","country_code":"DE","cc2":"","admin1_code":"07","admin2_code":"055","admin3_code":"05562","admin4_code":"05562024","population":"91398","elevation":"","dem":"56","timezone":"Europe/Berlin","modification_date":"2015-09-04"},{"geonameid":"2873276","name":"Markvippach","asciiname":"Markvippach","alternatenames":"Marctvipeche [a. 1221],de Vichbeke [a. 1234]","latitude":"51.07894","longitude":"11.17498","feature_class":"P","feature_code":"PPLA4","country_code":"DE","cc2":"","admin1_code":"15","admin2_code":"00","admin3_code":"16068","admin4_code":"16068036","population":"569","elevation":"","dem":"173","timezone":"Europe/Berlin","modification_date":"2014-12-18"},{"geonameid":"2873278","name":"Marktzeuln","asciiname":"Marktzeuln","alternatenames":"Markcojln,Marktcojl'n,ma er ke cuo yi er en,marktswyln,marukutotsu~oirun,Марктцойльн,Маркцојлн,Մարքթցոյլն,مارکتسویلن,マルクトツォイルン,马尔克措伊尔恩","latitude":"50.16673","longitude":"11.16692","feature_class":"P","feature_code":"PPL","country_code":"DE","cc2":"","admin1_code":"02","admin2_code":"094","admin3_code":"09478","admin4_code":"09478144","population":"1803","elevation":"","dem":"293","timezone":"Europe/Berlin","modification_date":"2013-02-19"},{"geonameid":"2873280","name":"Markt Wald","asciiname":"Markt Wald","alternatenames":"Markt Vald,Markt Wald,Markt-Val'd,ma er ke te wa er de,Маркт Валд,Маркт-Вальд,Մարքթ Վալդ,马尔克特瓦尔德","latitude":"48.1368","longitude":"10.58198","feature_class":"P","feature_code":"PPL","country_code":"DE","cc2":"","admin1_code":"02","admin2_code":"097","admin3_code":"09778","admin4_code":"09778169","population":"2359","elevation":"","dem":"636","timezone":"Europe/Berlin","modification_date":"2013-02-19"},{"geonameid":"2873283","name":"Marktsteft","asciiname":"Marktsteft","alternatenames":"Marktsteft,Marktstett,ma er ke ci te fu te,marktshtft,Марктстефт,Մարքթսթեֆտ,ماركتشتفت,مارک‌اشتفل,马尔克茨特夫特","latitude":"49.69606","longitude":"10.13626","feature_class":"P","feature_code":"PPL","country_code":"DE","cc2":"","admin1_code":"02","admin2_code":"096","admin3_code":"09675","admin4_code":"09675149","population":"1779","elevation":"","dem":"192","timezone":"Europe/Berlin","modification_date":"2013-02-19"},{"geonameid":"2873285","name":"Markt Schwaben","asciiname":"Markt Schwaben","alternatenames":"Markt Shvaben,Markt Swaben,Markt-Shvaben,Schwabe,ma ke te shi wa ben,markt shwabn,Маркт Швабен,Маркт-Швабен,مارکت شوابن,马克特施瓦本","latitude":"48.18949","longitude":"11.8691","feature_class":"P","feature_code":"PPL","country_code":"DE","cc2":"","admin1_code":"02","admin2_code":"091","admin3_code":"09175","admin4_code":"09175127","population":"10857","elevation":"","dem":"512","timezone":"Europe/Berlin","modification_date":"2013-02-19"},{"geonameid":"2873286","name":"Marktschorgast","asciiname":"Marktschorgast","alternatenames":"Markchorgast,Marktschorgast,Marktshorgast,ma er ke ci xiao er jia si te,marukutoshorugasuto,Марктшоргаст,Маркчоргаст,Մարքթշորգասթ,マルクトショルガスト,马尔克茨肖尔加斯特","latitude":"50.09475","longitude":"11.65465","feature_class":"P","feature_code":"PPL","country_code":"DE","cc2":"","admin1_code":"02","admin2_code":"094","admin3_code":"09477","admin4_code":"09477139","population":"1660","elevation":"","dem":"479","timezone":"Europe/Berlin","modification_date":"2013-02-19"},{"geonameid":"2873287","name":"Marktschellenberg","asciiname":"Marktschellenberg","alternatenames":"Markchelenberg,Marktschellenberg,Marktschellnberg,Marktselenberg,Marktshellenberg,Schellenberg,ma ke te xie lun bei ge,markt shlnbrg,Марктшелленберг,Маркчеленберг,Մարկտշելենբերգ,مارکت شلنبرگ,马克特谢伦贝格","latitude":"47.69657","longitude":"13.0434","feature_class":"P","feature_code":"PPL","country_code":"DE","cc2":"","admin1_code":"02","admin2_code":"091","admin3_code":"09172","admin4_code":"09172124","population":"1855","elevation":"","dem":"517","timezone":"Europe/Berlin","modification_date":"2013-02-19"},{"geonameid":"2873288","name":"Markt Rettenbach","asciiname":"Markt Rettenbach","alternatenames":"Markt Retenbakh,Markt Rettenbach,Markt-Rettenbakh,ma er ke te lei teng ba he,Маркт Ретенбах,Маркт-Реттенбах,Մարքթ Ռեթենբախ,马尔克特雷滕巴赫","latitude":"47.94733","longitude":"10.39608","feature_class":"P","feature_code":"PPL","country_code":"DE","cc2":"","admin1_code":"02","admin2_code":"097","admin3_code":"09778","admin4_code":"09778168","population":"3688","elevation":"","dem":"676","timezone":"Europe/Berlin","modification_date":"2013-02-19"},{"geonameid":"2873289","name":"Marktredwitz","asciiname":"Marktredwitz","alternatenames":"Harktrednitz,Marktredvic,Marktredwitz,Martredwitz,ma ke te lei de wei ci,marktrdfyts,marukutoredovu~ittsu,Марктредвиц,Марктредвіц,Մարկտրեդվից,ماركتردفيتس,مارک‌ردویتس,マルクトレドヴィッツ,马克特雷德维茨","latitude":"50.00443","longitude":"12.08593","feature_class":"P","feature_code":"PPL","country_code":"DE","cc2":"","admin1_code":"02","admin2_code":"094","admin3_code":"09479","admin4_code":"09479136","population":"18204","elevation":"","dem":"539","timezone":"Europe/Berlin","modification_date":"2013-02-19"},{"geonameid":"2873290","name":"Marktoffingen","asciiname":"Marktoffingen","alternatenames":"","latitude":"48.93333","longitude":"10.48333","feature_class":"P","feature_code":"PPLA4","country_code":"DE","cc2":"","admin1_code":"02","admin2_code":"097","admin3_code":"09779","admin4_code":"09779177","population":"1382","elevation":"","dem":"438","timezone":"Europe/Berlin","modification_date":"2011-04-25"},{"geonameid":"2873291","name":"Marktoberdorf","asciiname":"Marktoberdorf","alternatenames":"Marktoberdorf,ma ke te ao bo duo fu,markt awbrdwrf,marukutoobadorufu,Марктобердорф,Մարքտոբերդորֆ,ماركت أوبردورف,مارکت‌اوبردورف,マルクトオーバードルフ,马克特奥伯多夫","latitude":"47.77964","longitude":"10.61713","feature_class":"P","feature_code":"PPLA3","country_code":"DE","cc2":"","admin1_code":"02","admin2_code":"097","admin3_code":"09777","admin4_code":"09777151","population":"18505","elevation":"","dem":"728","timezone":"Europe/Berlin","modification_date":"2014-01-16"},{"geonameid":"2873292","name":"Markt Nordheim","asciiname":"Markt Nordheim","alternatenames":"Markt Nordheim,Markt Nordkhajm,Markt-Nordgajm,Markt-Nordkhajm,ma er ke te nuo er de hai mu,Маркт Нордхајм,Маркт-Нордгайм,Маркт-Нордхайм,Մարքթ Նորդհայմ,马尔克特诺尔德海姆","latitude":"49.59095","longitude":"10.35564","feature_class":"P","feature_code":"PPL","country_code":"DE","cc2":"","admin1_code":"02","admin2_code":"095","admin3_code":"09575","admin4_code":"09575146","population":"1182","elevation":"","dem":"330","timezone":"Europe/Berlin","modification_date":"2013-02-19"},{"geonameid":"2873295","name":"Marktleuthen","asciiname":"Marktleuthen","alternatenames":"Marktleuthen,Marktljojten,Marktlojten,Marktlyoyten,ma er ke te luo yi teng,marktlwytn,marukutoroiten,Марктлойтен,Марктлојтен,Марктлёйтен,Մարկտլյոյտեն,ماركتلويتن,مارکت‌لویتن,マルクトロイテン,马尔克特洛伊滕","latitude":"50.13007","longitude":"12.00226","feature_class":"P","feature_code":"PPL","country_code":"DE","cc2":"","admin1_code":"02","admin2_code":"094","admin3_code":"09479","admin4_code":"09479135","population":"3673","elevation":"","dem":"525","timezone":"Europe/Berlin","modification_date":"2013-02-19"},{"geonameid":"2873296","name":"Marktleugast","asciiname":"Marktleugast","alternatenames":"Markt Lengast,Marktleugast,Marktljojgast,Marktlojgast,ma er ke te luo yi jia si te,markt lwygast,marukutoroigasuto,Марктлойгаст,Марктлојгаст,Марктлёйгаст,Մարքթլոյգասթ,مارکت لویگاست,マルクトロイガスト,马尔克特洛伊加斯特","latitude":"50.17306","longitude":"11.63389","feature_class":"P","feature_code":"PPL","country_code":"DE","cc2":"","admin1_code":"02","admin2_code":"094","admin3_code":"09477","admin4_code":"09477138","population":"3688","elevation":"","dem":"551","timezone":"Europe/Berlin","modification_date":"2013-02-19"},{"geonameid":"2873298","name":"Marktl","asciiname":"Marktl","alternatenames":"Markhl,Marktl,Marktl am Inn,Marktl',Марктль","latitude":"48.25516","longitude":"12.8447","feature_class":"P","feature_code":"PPL","country_code":"DE","cc2":"","admin1_code":"02","admin2_code":"091","admin3_code":"09171","admin4_code":"09171123","population":"2654","elevation":"","dem":"365","timezone":"Europe/Berlin","modification_date":"2013-11-20"},{"geonameid":"2873300","name":"Markt Indersdorf","asciiname":"Markt Indersdorf","alternatenames":"Markt Indersdorf,Markt-Indersdorf,ma ke te yin de si duo fu,markt ayndrsdwrf,Маркт Индерсдорф,Маркт-Індерсдорф,Маркт-Индерсдорф,Մարկտ Ինդերսդորֆ,مارکت ایندرسدورف,马克特因德斯多夫","latitude":"48.36058","longitude":"11.37789","feature_class":"P","feature_code":"PPL","country_code":"DE","cc2":"","admin1_code":"02","admin2_code":"091","admin3_code":"09174","admin4_code":"09174131","population":"9263","elevation":"","dem":"469","timezone":"Europe/Berlin","modification_date":"2013-02-19"},{"geonameid":"2873301","name":"Marktheidenfeld","asciiname":"Marktheidenfeld","alternatenames":"Marktajdenfel'd,Marktgajdenfel'd,Marktheidenfeld,Marktkhajdenfel'd,Marktkhajdenfeld,ma er ke tai deng fei er de,markt haydnfld,Марктайденфельд,Марктгайденфельд,Марктхайденфельд,Марктхајденфелд,Մարքթհայդենֆելդ,ماركت هايدنفلد,مارکت‌هایدنفلد,马尔克泰登费尔德","latitude":"49.8454","longitude":"9.60359","feature_class":"P","feature_code":"PPL","country_code":"DE","cc2":"","admin1_code":"02","admin2_code":"096","admin3_code":"09677","admin4_code":"09677157","population":"11024","elevation":"","dem":"162","timezone":"Europe/Berlin","modification_date":"2013-02-19"},{"geonameid":"2873302","name":"Marktgraitz","asciiname":"Marktgraitz","alternatenames":"Marktgraitz,Marktgrajc,ma er ke te ge lai ci,markt grayts,marukutoguraitsu,Марктграйц,Марктграјц,Մարքթգրայց,مارکت گرایتس,マルクトグライツ,马尔克特格赖茨","latitude":"50.18358","longitude":"11.19441","feature_class":"P","feature_code":"PPL","country_code":"DE","cc2":"","admin1_code":"02","admin2_code":"094","admin3_code":"09478","admin4_code":"09478143","population":"1331","elevation":"","dem":"289","timezone":"Europe/Berlin","modification_date":"2013-02-19"},{"geonameid":"2873304","name":"Markt Erlbach","asciiname":"Markt Erlbach","alternatenames":"Markt Erlbach,Markt Erlbakh,Markt-Ehrl'bakh,Markt-Erl'bakh,ma er ke te ai er ba he,Маркт Ерлбах,Маркт-Ерльбах,Маркт-Эрльбах,Մարքթ Էրլբախ,马尔克特埃尔巴赫","latitude":"49.49367","longitude":"10.65265","feature_class":"P","feature_code":"PPL","country_code":"DE","cc2":"","admin1_code":"02","admin2_code":"095","admin3_code":"09575","admin4_code":"09575145","population":"5716","elevation":"","dem":"388","timezone":"Europe/Berlin","modification_date":"2013-02-19"},{"geonameid":"2873307","name":"Marktbreit","asciiname":"Marktbreit","alternatenames":"Marktbrajt,ma ke te bu lai te,markt brayt,Марктбрайт,Марктбрајт,Մարքթբրայթ,ماركت برايت,مارکت‌برایت,马克特布赖特","latitude":"49.66541","longitude":"10.14811","feature_class":"P","feature_code":"PPL","country_code":"DE","cc2":"","admin1_code":"02","admin2_code":"096","admin3_code":"09675","admin4_code":"09675147","population":"3700","elevation":"","dem":"191","timezone":"Europe/Berlin","modification_date":"2013-02-19"},{"geonameid":"2873308","name":"Markt Bibart","asciiname":"Markt Bibart","alternatenames":"Markt Bibart","latitude":"49.64787","longitude":"10.42492","feature_class":"P","feature_code":"PPL","country_code":"DE","cc2":"","admin1_code":"02","admin2_code":"095","admin3_code":"09575","admin4_code":"09575144","population":"1978","elevation":"","dem":"314","timezone":"Europe/Berlin","modification_date":"2013-02-19"},{"geonameid":"2873309","name":"Markt Berolzheim","asciiname":"Markt Berolzheim","alternatenames":"Berolzheim,Markt Berolckhajm,Markt-Berol'cgajm,Markt-Berol'ckhajm,ma er ke te bei luo er ci hai mu,Маркт Беролцхајм,Маркт-Берольцгайм,Маркт-Берольцхайм,Մարկտ Բերոլցհայմ,马尔克特贝罗尔茨海姆","latitude":"49.00955","longitude":"10.84473","feature_class":"P","feature_code":"PPL","country_code":"DE","cc2":"","admin1_code":"02","admin2_code":"095","admin3_code":"09577","admin4_code":"09577149","population":"1370","elevation":"","dem":"422","timezone":"Europe/Berlin","modification_date":"2013-02-19"},{"geonameid":"2873310","name":"Marktbergel","asciiname":"Marktbergel","alternatenames":"Marktbergel,Marktbergel',ma ke te bei ge er,Марктбергел,Марктбергель,Մարքթբերգել,马克特贝格尔","latitude":"49.44156","longitude":"10.36355","feature_class":"P","feature_code":"PPL","country_code":"DE","cc2":"","admin1_code":"02","admin2_code":"095","admin3_code":"09575","admin4_code":"09575143","population":"1687","elevation":"","dem":"364","timezone":"Europe/Berlin","modification_date":"2013-02-19"},{"geonameid":"2873318","name":"Marksuhl","asciiname":"Marksuhl","alternatenames":"Marksuhl,Marksul,Markzul,Markzul',ma ke su er,Маркзул,Маркзуль,Марксул,马克苏尔","latitude":"50.91667","longitude":"10.2","feature_class":"P","feature_code":"PPLA4","country_code":"DE","cc2":"","admin1_code":"15","admin2_code":"00","admin3_code":"16063","admin4_code":"16063052","population":"3250","elevation":"","dem":"251","timezone":"Europe/Berlin","modification_date":"2011-04-25"},{"geonameid":"2873331","name":"Markranstädt","asciiname":"Markranstaedt","alternatenames":"Markranshtedt,Markranshtet,Markranstaedt,Markranstete,Markranstädt,Markranštete,ma ke lan si tai te,markranshtd,markranshtyt,Маркранштедт,Маркранштет,ماركرانشتيت,مارکرانشتد,马克兰斯泰特","latitude":"51.30146","longitude":"12.2202","feature_class":"P","feature_code":"PPL","country_code":"DE","cc2":"","admin1_code":"13","admin2_code":"00","admin3_code":"14729","admin4_code":"14729270","population":"13053","elevation":"","dem":"126","timezone":"Europe/Berlin","modification_date":"2015-09-05"},{"geonameid":"2873340","name":"Markneukirchen","asciiname":"Markneukirchen","alternatenames":"Markneikirhene,Markneukirchen,Marknojkirkhen,ma er ke nuo yi ji er xing,marknwykyrshn,Маркнойкирхен,Маркнојкирхен,ماركنويكيرشن,مارک‌نویکیرشن,马尔克诺伊基尔兴","latitude":"50.31144","longitude":"12.32951","feature_class":"P","feature_code":"PPL","country_code":"DE","cc2":"","admin1_code":"13","admin2_code":"00","admin3_code":"14523","admin4_code":"14523200","population":"7095","elevation":"","dem":"500","timezone":"Europe/Berlin","modification_date":"2015-09-05"},{"geonameid":"2873343","name":"Marklohe","asciiname":"Marklohe","alternatenames":"Lohe,Markloeh,Marklohe,Marklokhe,ma er ke luo hei,marukuroe,Марклохе,Марклоэ,マルクローエ,马尔克洛黑","latitude":"52.66667","longitude":"9.16667","feature_class":"P","feature_code":"PPLA4","country_code":"DE","cc2":"","admin1_code":"06","admin2_code":"00","admin3_code":"03256","admin4_code":"03256021","population":"4396","elevation":"","dem":"23","timezone":"Europe/Berlin","modification_date":"2011-07-31"},{"geonameid":"2873344","name":"Marklkofen","asciiname":"Marklkofen","alternatenames":"Markl'kofen,Marklkofen,ma er ke er ke fen,marklkwfn,Марклкофен,Марклькофен,Մարքլքոֆեն,مارکلکوفن,马尔克尔科芬","latitude":"48.55","longitude":"12.56667","feature_class":"P","feature_code":"PPLA4","country_code":"DE","cc2":"","admin1_code":"02","admin2_code":"092","admin3_code":"09279","admin4_code":"09279126","population":"3818","elevation":"","dem":"418","timezone":"Europe/Berlin","modification_date":"2011-04-25"},{"geonameid":"2873352","name":"Markkleeberg","asciiname":"Markkleeberg","alternatenames":"Markkleberg,Markkleeberg,Markkleeberg West,Markleberg,Markleberga,Marklēberga,ma ke lai bei ge,mark klybrgh,Маркклеберг,Марклеберг,مارك كليبرغ,مارک‌کلیبرگ,马克莱贝格","latitude":"51.2755","longitude":"12.36906","feature_class":"P","feature_code":"PPL","country_code":"DE","cc2":"","admin1_code":"13","admin2_code":"00","admin3_code":"14729","admin4_code":"14729260","population":"24000","elevation":"","dem":"124","timezone":"Europe/Berlin","modification_date":"2015-09-05"},{"geonameid":"2873356","name":"Märkisches Viertel","asciiname":"Markisches Viertel","alternatenames":"Berlin-Maerkisches Viertel,Berlin-Märkisches Viertel,Markisches Viertel,Märkisches Viertel","latitude":"52.59841","longitude":"13.35766","feature_class":"P","feature_code":"PPLX","country_code":"DE","cc2":"","admin1_code":"16","admin2_code":"00","admin3_code":"11000","admin4_code":"11000000","population":"35230","elevation":"","dem":"52","timezone":"Europe/Berlin","modification_date":"2014-04-12"},{"geonameid":"2873369","name":"Markgröningen","asciiname":"Markgroningen","alternatenames":"Markgr'oningen,Markgreningen,Markgrjoningen,Markgroeningen,Markgronningen,Markgröningen,ma er ke ge lei ning gen,markghrwnynghn,Маркгренинген,Маркгрьонинген,Маркгрёнинген,ماركغرونينغن,مارک‌گرونینگن,马尔克格勒宁根","latitude":"48.90493","longitude":"9.08059","feature_class":"P","feature_code":"PPL","country_code":"DE","cc2":"","admin1_code":"01","admin2_code":"081","admin3_code":"08118","admin4_code":"08118050","population":"14414","elevation":"","dem":"286","timezone":"Europe/Berlin","modification_date":"2015-03-04"},{"geonameid":"2873400","name":"Markersdorf","asciiname":"Markersdorf","alternatenames":"","latitude":"51.13333","longitude":"14.88333","feature_class":"P","feature_code":"PPLA4","country_code":"DE","cc2":"","admin1_code":"13","admin2_code":"00","admin3_code":"14626","admin4_code":"14626300","population":"4408","elevation":"","dem":"247","timezone":"Europe/Berlin","modification_date":"2014-01-02"},{"geonameid":"2873409","name":"Markersbach","asciiname":"Markersbach","alternatenames":"Markersbach","latitude":"50.53545","longitude":"12.86149","feature_class":"P","feature_code":"PPL","country_code":"DE","cc2":"","admin1_code":"13","admin2_code":"00","admin3_code":"14521","admin4_code":"14521500","population":"1912","elevation":"","dem":"486","timezone":"Europe/Berlin","modification_date":"2015-09-05"},{"geonameid":"2873427","name":"Markdorf","asciiname":"Markdorf","alternatenames":"Markdorf,ma ke duo fu,markdwrf,Маркдорф,Մարկդորֆ,ماركدورف,مارکدورف,მარკდორფი,马克多夫","latitude":"47.71916","longitude":"9.39028","feature_class":"P","feature_code":"PPL","country_code":"DE","cc2":"","admin1_code":"01","admin2_code":"084","admin3_code":"08435","admin4_code":"08435034","population":"12486","elevation":"","dem":"441","timezone":"Europe/Berlin","modification_date":"2013-02-15"},{"geonameid":"2873459","name":"Marisfeld","asciiname":"Marisfeld","alternatenames":"Marisfel'd,Marisfeld,ma li si fei er de,Марисфелд,Марисфельд,马里斯费尔德","latitude":"50.55","longitude":"10.56667","feature_class":"P","feature_code":"PPLA4","country_code":"DE","cc2":"","admin1_code":"15","admin2_code":"00","admin3_code":"16069","admin4_code":"16069028","population":"452","elevation":"","dem":"398","timezone":"Europe/Berlin","modification_date":"2011-04-25"},{"geonameid":"2873460","name":"Maring-Noviand","asciiname":"Maring-Noviand","alternatenames":"","latitude":"49.93333","longitude":"7","feature_class":"P","feature_code":"PPLA4","country_code":"DE","cc2":"","admin1_code":"08","admin2_code":"00","admin3_code":"07231","admin4_code":"07231081","population":"1518","elevation":"","dem":"186","timezone":"Europe/Berlin","modification_date":"2011-04-25"},