{"nextFile":"cities.119.json","rows":[{"geonameid":"548442","name":"Kirishi","asciiname":"Kirishi","alternatenames":"Gorad Kiryshy,Kirichi,Kirisai,Kirischi,Kirishi,Kirisi,Kirisji,Kiriszy,Kiriŝi,Kirišai,Kiriši,Kiriși,Kírishi,ji li xi,kilisi,kyryshy,Горад Кірышы,Кириши,Кіріши,كيريشي,کیریشی,კირიში,基里希,키리시","latitude":"59.44712","longitude":"32.02049","feature_class":"P","feature_code":"PPL","country_code":"RU","cc2":"","admin1_code":"42","admin2_code":"","admin3_code":"","admin4_code":"","population":"56190","elevation":"","dem":"33","timezone":"Europe/Moscow","modification_date":"2012-01-17"},{"geonameid":"548478","name":"Kirillov","asciiname":"Kirillov","alternatenames":"Kirillov,Кириллов","latitude":"59.86299","longitude":"38.38128","feature_class":"P","feature_code":"PPL","country_code":"RU","cc2":"","admin1_code":"85","admin2_code":"","admin3_code":"","admin4_code":"","population":"8235","elevation":"","dem":"126","timezone":"Europe/Moscow","modification_date":"2012-01-17"},{"geonameid":"548493","name":"Kirgiz-Miyaki","asciiname":"Kirgiz-Miyaki","alternatenames":"Kirgiz-Mayaki,Kirgiz-Mijaki,Kirgiz-Miyaki,Киргиз-Мияки,Киргиз-Міяки,Кыргыз-Миякә,Ҡырғыҙ-Миәкә,Կիրգիզ-Միյակի","latitude":"53.6324","longitude":"54.7979","feature_class":"P","feature_code":"PPL","country_code":"RU","cc2":"","admin1_code":"08","admin2_code":"","admin3_code":"","admin4_code":"","population":"7673","elevation":"","dem":"221","timezone":"Asia/Yekaterinburg","modification_date":"2012-01-17"},{"geonameid":"548506","name":"Kireyevsk","asciiname":"Kireyevsk","alternatenames":"Kireevsk,Kireievsk,Kirejevsk,Kirejewsk,Kireyevka,Kireyevsk,Kireïevsk,Kiriejewsk,Kirjejewsk,Kiréyevsk,ji lie ye fu si ke,kileyebseukeu,kireefusuku,kyryfsk,kyryyfsk,Киреевск,Кирејевск,كيرييفسك,کیریفسک,キレーエフスク,基列耶夫斯克,키레옙스크","latitude":"53.93361","longitude":"37.92792","feature_class":"P","feature_code":"PPL","country_code":"RU","cc2":"","admin1_code":"76","admin2_code":"","admin3_code":"","admin4_code":"","population":"25513","elevation":"","dem":"212","timezone":"Europe/Moscow","modification_date":"2012-01-17"},{"geonameid":"548602","name":"Kingisepp","asciiname":"Kingisepp","alternatenames":"Gorad Kingisep,Jaama,Jamburg,Kinghisepp,Kingisep,Kingisepa,Kingisepp,Kingiseppu,Kingissepp,Kinguissepp,Yamburg,jin ji xie pu,king-gisepeu,kingisepeu,kingiseppu,kynghysyb,kyngysp,kyngysyp,qyngysp,Горад Кінгісеп,Кингисеп,Кингисепп,Кингисєппъ,Кінгісепп,קינגיספ,كينغيسيب,کینگیسپ,کینگیسیپ,კინგისეპი,キンギセップ,金吉谢普,킨기세프,킹기세프","latitude":"59.37331","longitude":"28.61343","feature_class":"P","feature_code":"PPL","country_code":"RU","cc2":"","admin1_code":"42","admin2_code":"","admin3_code":"","admin4_code":"","population":"50566","elevation":"","dem":"27","timezone":"Europe/Moscow","modification_date":"2012-01-17"},{"geonameid":"548605","name":"Kineshma","asciiname":"Kineshma","alternatenames":"Gorad Kineshma,Kinechma,Kineixma,Kineschma,Kineshima,Kineshma,Kineshme,Kinesjma,Kinesma,Kineszma,Kineŝma,Kineşma,Kinešma,Kineșma,Kiněšma,Kíneixma,Kíneshma,ji nie shen ma,kineshima,kinesima,kinesyuma,kynshma,kynyshma,Горад Кінешма,Кинешма,Кинешме,Киңәшмә,Кінешма,كينيشما,کینشما,کینیشما,キネシマ,基涅什马,키네슈마,키네시마","latitude":"57.43914","longitude":"42.12894","feature_class":"P","feature_code":"PPL","country_code":"RU","cc2":"","admin1_code":"21","admin2_code":"","admin3_code":"","admin4_code":"","population":"92983","elevation":"","dem":"109","timezone":"Europe/Moscow","modification_date":"2012-01-17"},{"geonameid":"548622","name":"Kinel’-Cherkassy","asciiname":"Kinel'-Cherkassy","alternatenames":"Kinel'-Cherkassy,Kinel'-Cherkasy,Kinel’-Cherkassy,Kinel’-Cherkasy,Кинель-Черкассы","latitude":"53.4706","longitude":"51.47431","feature_class":"P","feature_code":"PPL","country_code":"RU","cc2":"","admin1_code":"65","admin2_code":"","admin3_code":"","admin4_code":"","population":"18393","elevation":"","dem":"47","timezone":"Europe/Samara","modification_date":"2012-01-17"},{"geonameid":"548625","name":"Kinel’","asciiname":"Kinel'","alternatenames":"Kinel,Kinel',Kinel’,Кинель","latitude":"53.22571","longitude":"50.62907","feature_class":"P","feature_code":"PPL","country_code":"RU","cc2":"","admin1_code":"65","admin2_code":"","admin3_code":"","admin4_code":"","population":"34336","elevation":"","dem":"38","timezone":"Europe/Samara","modification_date":"2012-02-28"},{"geonameid":"548652","name":"Kimry","asciiname":"Kimry","alternatenames":"Gorad Kimry,Kimrai,Kimri,Kimro,Kimry,Kimrî,Kimrõ,Kimrı,ji mu lei,kimli,kimuru~i,kymry,Горад Кімры,Кимри,Кимры,Кімри,كيمري,کیمری,キームルィ,基姆雷,킴리","latitude":"56.86667","longitude":"37.35","feature_class":"P","feature_code":"PPL","country_code":"RU","cc2":"","admin1_code":"77","admin2_code":"","admin3_code":"","admin4_code":"","population":"52070","elevation":"","dem":"126","timezone":"Europe/Moscow","modification_date":"2012-01-17"},{"geonameid":"548658","name":"Kimovsk","asciiname":"Kimovsk","alternatenames":"Bol'shaya Mikhaylovka,Bol’shaya Mikhaylovka,Gorad Kimausk,Kimovsk,Kimowsk,Kímovsk,Mikhaylovka,ji mo fu si ke,kimobseukeu,kimofusuku,kymwfsk,Горад Кімаўск,Кимовск,كيموفسك,کیموفسک,キモフスク,基莫夫斯克,키몹스크","latitude":"53.97164","longitude":"38.53186","feature_class":"P","feature_code":"PPL","country_code":"RU","cc2":"","admin1_code":"76","admin2_code":"","admin3_code":"","admin4_code":"","population":"31947","elevation":"","dem":"228","timezone":"Europe/Moscow","modification_date":"2012-01-17"},{"geonameid":"548695","name":"Kil’mez’","asciiname":"Kil'mez'","alternatenames":"Kil'ma,Kil'mez',Kil’ma,Kil’mez’,Кильмезь","latitude":"56.94389","longitude":"51.065","feature_class":"P","feature_code":"PPL","country_code":"RU","cc2":"","admin1_code":"33","admin2_code":"","admin3_code":"","admin4_code":"","population":"5954","elevation":"","dem":"122","timezone":"Europe/Volgograd","modification_date":"2014-03-12"},{"geonameid":"548715","name":"Kilemary","asciiname":"Kilemary","alternatenames":"Kilemary,Килемары","latitude":"56.77825","longitude":"46.86594","feature_class":"P","feature_code":"PPL","country_code":"RU","cc2":"","admin1_code":"45","admin2_code":"","admin3_code":"","admin4_code":"","population":"3903","elevation":"","dem":"104","timezone":"Europe/Moscow","modification_date":"2012-01-17"},{"geonameid":"548740","name":"Kikvidze","asciiname":"Kikvidze","alternatenames":"Kikvidse,Kikvidze,Preobrazhenka,Preobrazhenskaja,Preobrazhenskaya,Киквидзе,Преображенская","latitude":"50.74161","longitude":"43.0518","feature_class":"P","feature_code":"PPL","country_code":"RU","cc2":"","admin1_code":"84","admin2_code":"","admin3_code":"","admin4_code":"","population":"5475","elevation":"","dem":"91","timezone":"Europe/Volgograd","modification_date":"2012-01-17"},{"geonameid":"548747","name":"Kiknur","asciiname":"Kiknur","alternatenames":"Kiknur,Кикнур","latitude":"57.30341","longitude":"47.20105","feature_class":"P","feature_code":"PPL","country_code":"RU","cc2":"","admin1_code":"33","admin2_code":"","admin3_code":"","admin4_code":"","population":"5246","elevation":"","dem":"113","timezone":"Europe/Volgograd","modification_date":"2012-01-17"},{"geonameid":"548763","name":"Kikerino","asciiname":"Kikerino","alternatenames":"Kikerino,Кикерино","latitude":"59.46204","longitude":"29.62993","feature_class":"P","feature_code":"PPL","country_code":"RU","cc2":"","admin1_code":"42","admin2_code":"","admin3_code":"","admin4_code":"","population":"1995","elevation":"","dem":"141","timezone":"Europe/Moscow","modification_date":"2012-02-28"},{"geonameid":"548781","name":"Kideksha","asciiname":"Kideksha","alternatenames":"Kideksha,Кидекша","latitude":"56.42381","longitude":"40.52146","feature_class":"P","feature_code":"PPL","country_code":"RU","cc2":"","admin1_code":"83","admin2_code":"","admin3_code":"","admin4_code":"","population":"8301","elevation":"","dem":"112","timezone":"Europe/Moscow","modification_date":"2012-01-17"},{"geonameid":"548791","name":"Kichmengskiy Gorodok","asciiname":"Kichmengskiy Gorodok","alternatenames":"Kichmengskij Gorodok,Kichmengskiy Gorodok,Kichmenskiy Gorodok,Kitsjmengskij Gorodok,Кичменгский Городок","latitude":"59.98164","longitude":"45.78543","feature_class":"P","feature_code":"PPL","country_code":"RU","cc2":"","admin1_code":"85","admin2_code":"","admin3_code":"","admin4_code":"","population":"6623","elevation":"","dem":"107","timezone":"Europe/Moscow","modification_date":"2012-01-17"},{"geonameid":"548890","name":"Khvoynaya","asciiname":"Khvoynaya","alternatenames":"Chwoinaja,Khvojnaja,Khvoynaya,Хвойная","latitude":"58.9","longitude":"34.53333","feature_class":"P","feature_code":"PPL","country_code":"RU","cc2":"","admin1_code":"52","admin2_code":"","admin3_code":"","admin4_code":"","population":"6637","elevation":"","dem":"164","timezone":"Europe/Moscow","modification_date":"2015-08-17"},{"geonameid":"548946","name":"Khvorostyanka","asciiname":"Khvorostyanka","alternatenames":"Khvorostjanka,Khvorostyahka,Khvorostyanka,Хворостянка","latitude":"52.6096","longitude":"48.9597","feature_class":"P","feature_code":"PPL","country_code":"RU","cc2":"","admin1_code":"65","admin2_code":"","admin3_code":"","admin4_code":"","population":"4899","elevation":"","dem":"43","timezone":"Europe/Samara","modification_date":"2012-01-17"},{"geonameid":"548964","name":"Khvatovka","asciiname":"Khvatovka","alternatenames":"Khvatovka,Хватовка","latitude":"52.35236","longitude":"46.56282","feature_class":"P","feature_code":"PPL","country_code":"RU","cc2":"","admin1_code":"67","admin2_code":"","admin3_code":"","admin4_code":"","population":"2301","elevation":"","dem":"289","timezone":"Europe/Volgograd","modification_date":"2012-01-17"},{"geonameid":"548972","name":"Khvastovichi","asciiname":"Khvastovichi","alternatenames":"Khastovichi,Khvastovichi,Khvastovitsji,Хвастовичи","latitude":"53.46942","longitude":"35.09409","feature_class":"P","feature_code":"PPL","country_code":"RU","cc2":"","admin1_code":"25","admin2_code":"","admin3_code":"","admin4_code":"","population":"4545","elevation":"","dem":"179","timezone":"Europe/Moscow","modification_date":"2012-01-17"},{"geonameid":"548982","name":"Khvalynsk","asciiname":"Khvalynsk","alternatenames":"Chvalynsk,Chwalynsk,Chwałyńsk,Gorad Khvalynsk,Hvalinsk,Hvalynsk,Jvalynsk,Khvalins'k,Khvalinsk,Khvalynsk,Xvalinsk,Xvalınsk,he wa lun si ke,heuballinseukeu,khfalynsk,khwalynsk,Ĥvalinsk,Горад Хвалынск,Хвалинск,Хвалинськ,Хвалынск,Хвалынск балһсн,خفالينسك,خوالینسک,赫瓦倫斯克,흐발린스크","latitude":"52.4906","longitude":"48.1058","feature_class":"P","feature_code":"PPL","country_code":"RU","cc2":"","admin1_code":"67","admin2_code":"","admin3_code":"","admin4_code":"","population":"13437","elevation":"","dem":"39","timezone":"Europe/Volgograd","modification_date":"2012-01-17"},{"geonameid":"548983","name":"Khvalovo","asciiname":"Khvalovo","alternatenames":"Khvalovo,Хвалово","latitude":"59.94774","longitude":"32.73723","feature_class":"P","feature_code":"PPL","country_code":"RU","cc2":"","admin1_code":"42","admin2_code":"","admin3_code":"","admin4_code":"","population":"1514","elevation":"","dem":"34","timezone":"Europe/Moscow","modification_date":"2013-01-10"},{"geonameid":"549105","name":"Khunzakh","asciiname":"Khunzakh","alternatenames":"Khumsakh,Khunzakh,Хунзах","latitude":"42.5424","longitude":"46.70689","feature_class":"P","feature_code":"PPL","country_code":"RU","cc2":"","admin1_code":"17","admin2_code":"","admin3_code":"","admin4_code":"","population":"3955","elevation":"","dem":"1661","timezone":"Europe/Moscow","modification_date":"2012-02-28"},{"geonameid":"549118","name":"Khumalag","asciiname":"Khumalag","alternatenames":"Khumalag,Хумалаг","latitude":"43.24031","longitude":"44.47521","feature_class":"P","feature_code":"PPL","country_code":"RU","cc2":"","admin1_code":"68","admin2_code":"","admin3_code":"","admin4_code":"","population":"3906","elevation":"","dem":"441","timezone":"Europe/Moscow","modification_date":"2012-01-17"},{"geonameid":"549175","name":"Khuchni","asciiname":"Khuchni","alternatenames":"Khuchni,Khunchi,Khutsjni,Хучни","latitude":"41.94986","longitude":"47.94854","feature_class":"P","feature_code":"PPL","country_code":"RU","cc2":"","admin1_code":"17","admin2_code":"","admin3_code":"","admin4_code":"","population":"3637","elevation":"","dem":"630","timezone":"Europe/Moscow","modification_date":"2012-01-17"},{"geonameid":"549191","name":"Khryashchevka","asciiname":"Khryashchevka","alternatenames":"Khrjashhevka,Khrjasjtsjevka,Khryashchevka,Khryashcheyevka,Хрящевка","latitude":"53.8119","longitude":"49.0916","feature_class":"P","feature_code":"PPL","country_code":"RU","cc2":"","admin1_code":"65","admin2_code":"","admin3_code":"","admin4_code":"","population":"3210","elevation":"","dem":"65","timezone":"Europe/Samara","modification_date":"2012-01-17"},{"geonameid":"549266","name":"Khrenovoye","asciiname":"Khrenovoye","alternatenames":"Chernowje,Chrenowje,Khrenovo,Khrenovoe,Khrenovoje,Khrenovoye,Хреновое","latitude":"51.12","longitude":"40.28889","feature_class":"P","feature_code":"PPL","country_code":"RU","cc2":"","admin1_code":"86","admin2_code":"","admin3_code":"","admin4_code":"","population":"5476","elevation":"","dem":"136","timezone":"Europe/Moscow","modification_date":"2012-01-17"},{"geonameid":"549341","name":"Khotynets","asciiname":"Khotynets","alternatenames":"Khotinets,Khotynec,Khotynets,Хотынец","latitude":"53.1286","longitude":"35.3966","feature_class":"P","feature_code":"PPL","country_code":"RU","cc2":"","admin1_code":"56","admin2_code":"","admin3_code":"","admin4_code":"","population":"4182","elevation":"","dem":"217","timezone":"Europe/Moscow","modification_date":"2012-01-17"},{"geonameid":"549373","name":"Khot'kovo","asciiname":"Khot'kovo","alternatenames":"Khot'kovo,Хотьково","latitude":"56.25699","longitude":"37.99544","feature_class":"P","feature_code":"PPL","country_code":"RU","cc2":"","admin1_code":"47","admin2_code":"","admin3_code":"","admin4_code":"","population":"20872","elevation":"","dem":"200","timezone":"Europe/Moscow","modification_date":"2008-05-07"},{"geonameid":"549424","name":"Khosta","asciiname":"Khosta","alternatenames":"Khosta,Хоста","latitude":"43.51484","longitude":"39.86825","feature_class":"P","feature_code":"PPL","country_code":"RU","cc2":"","admin1_code":"38","admin2_code":"6695246","admin3_code":"","admin4_code":"","population":"20000","elevation":"","dem":"13","timezone":"Europe/Moscow","modification_date":"2013-01-25"},{"geonameid":"549479","name":"Khoroshëvo-Mnevniki","asciiname":"Khoroshevo-Mnevniki","alternatenames":"Khoroshevo,Khoroshevo-Mnevniki,Khoroshjovo,Khoroshëvo,Khoroshëvo-Mnevniki,Хорошёво","latitude":"55.78363","longitude":"37.47137","feature_class":"P","feature_code":"PPLX","country_code":"RU","cc2":"","admin1_code":"47","admin2_code":"","admin3_code":"","admin4_code":"","population":"159000","elevation":"","dem":"148","timezone":"Europe/Moscow","modification_date":"2013-04-02"},{"geonameid":"549531","name":"Khorlovo","asciiname":"Khorlovo","alternatenames":"Khorlovo,Хорлово","latitude":"55.3327","longitude":"38.81365","feature_class":"P","feature_code":"PPL","country_code":"RU","cc2":"","admin1_code":"47","admin2_code":"","admin3_code":"","admin4_code":"","population":"3852","elevation":"","dem":"143","timezone":"Europe/Moscow","modification_date":"2012-01-17"},{"geonameid":"549610","name":"Khomutovo","asciiname":"Khomutovo","alternatenames":"Khomutovo,Khomutovskiy,Хомутово","latitude":"52.85386","longitude":"37.4388","feature_class":"P","feature_code":"PPL","country_code":"RU","cc2":"","admin1_code":"56","admin2_code":"","admin3_code":"","admin4_code":"","population":"4647","elevation":"","dem":"252","timezone":"Europe/Moscow","modification_date":"2012-01-17"},{"geonameid":"549617","name":"Khomutovka","asciiname":"Khomutovka","alternatenames":"Khomutovka,Хомутовка","latitude":"51.9207","longitude":"34.5619","feature_class":"P","feature_code":"PPL","country_code":"RU","cc2":"","admin1_code":"41","admin2_code":"","admin3_code":"","admin4_code":"","population":"4936","elevation":"","dem":"193","timezone":"Europe/Moscow","modification_date":"2012-01-17"},{"geonameid":"549718","name":"Kholm-Zhirkovskiy","asciiname":"Kholm-Zhirkovskiy","alternatenames":"Kholm,Kholm Zhirkovskij,Kholm Zjirkovskij,Kholm-Zhirkovskij,Kholm-Zhirkovskiy,Zhirkovskiy,Холм Жирковский,Холм-Жирковский","latitude":"55.51889","longitude":"33.47306","feature_class":"P","feature_code":"PPL","country_code":"RU","cc2":"","admin1_code":"69","admin2_code":"","admin3_code":"","admin4_code":"","population":"3726","elevation":"","dem":"226","timezone":"Europe/Moscow","modification_date":"2014-06-26"},{"geonameid":"549741","name":"Kholmskiy","asciiname":"Kholmskiy","alternatenames":"Cholmskaja,Kholmskaja,Kholmskaya,Kholmskij,Kholmskiy,Холмская,Холмский","latitude":"44.84694","longitude":"38.385","feature_class":"P","feature_code":"PPL","country_code":"RU","cc2":"","admin1_code":"38","admin2_code":"","admin3_code":"","admin4_code":"","population":"17494","elevation":"","dem":"46","timezone":"Europe/Moscow","modification_date":"2012-01-17"},{"geonameid":"549748","name":"Kholmogory","asciiname":"Kholmogory","alternatenames":"Cholmogory,Kholmogory,Холмогоры","latitude":"64.2229","longitude":"41.656","feature_class":"P","feature_code":"PPL","country_code":"RU","cc2":"","admin1_code":"06","admin2_code":"","admin3_code":"","admin4_code":"","population":"4417","elevation":"","dem":"5","timezone":"Europe/Moscow","modification_date":"2012-01-17"},{"geonameid":"549786","name":"Kholm","asciiname":"Kholm","alternatenames":"Kholm,Холм","latitude":"59.26667","longitude":"32.85","feature_class":"P","feature_code":"PPL","country_code":"RU","cc2":"","admin1_code":"52","admin2_code":"","admin3_code":"","admin4_code":"","population":"4228","elevation":"","dem":"60","timezone":"Europe/Moscow","modification_date":"2012-01-17"},{"geonameid":"549797","name":"Kholm","asciiname":"Kholm","alternatenames":"Cholm,Chołm,Holm,Jolm,Kholm,Kholm  Kholmsky,Xolm,holleum,horumu,huo er mu,khwlm,khwlm  bkhsh khwlmsky  awblast nwwgwrwd,Ĥolm,Холм,خولم,خولم، بخش خولمسکی، اوبلاست نووگورود,ホルム,霍爾姆,홀름","latitude":"57.14543","longitude":"31.1778","feature_class":"P","feature_code":"PPL","country_code":"RU","cc2":"","admin1_code":"52","admin2_code":"","admin3_code":"","admin4_code":"","population":"4000","elevation":"","dem":"71","timezone":"Europe/Moscow","modification_date":"2012-01-17"},{"geonameid":"549844","name":"Khokhryaki","asciiname":"Khokhryaki","alternatenames":"Khokhrjaki,Khokhryaki,Хохряки","latitude":"56.91561","longitude":"53.3221","feature_class":"P","feature_code":"PPL","country_code":"RU","cc2":"","admin1_code":"80","admin2_code":"","admin3_code":"","admin4_code":"","population":"3544","elevation":"","dem":"158","timezone":"Europe/Samara","modification_date":"2012-01-17"},{"geonameid":"549854","name":"Khokhlovo","asciiname":"Khokhlovo","alternatenames":"Khokhlova,Khokhlovo,Хохлово","latitude":"59.14923","longitude":"37.39978","feature_class":"P","feature_code":"PPL","country_code":"RU","cc2":"","admin1_code":"85","admin2_code":"","admin3_code":"","admin4_code":"","population":"2478","elevation":"","dem":"114","timezone":"Europe/Moscow","modification_date":"2012-01-17"},{"geonameid":"549891","name":"Khodz’","asciiname":"Khodz'","alternatenames":"Khodz,Khodz',Khodz’,Ходзь","latitude":"44.5102","longitude":"40.7142","feature_class":"P","feature_code":"PPL","country_code":"RU","cc2":"","admin1_code":"01","admin2_code":"","admin3_code":"","admin4_code":"","population":"3028","elevation":"","dem":"321","timezone":"Europe/Moscow","modification_date":"2012-01-17"},{"geonameid":"550102","name":"Khlevnoye","asciiname":"Khlevnoye","alternatenames":"Khlebnoye,Khlevnoe,Khlevnoje,Khlevnoye,Хлевное","latitude":"52.19512","longitude":"39.09316","feature_class":"P","feature_code":"PPL","country_code":"RU","cc2":"","admin1_code":"43","admin2_code":"","admin3_code":"","admin4_code":"","population":"6150","elevation":"","dem":"149","timezone":"Europe/Moscow","modification_date":"2012-01-17"},{"geonameid":"550201","name":"Khiv","asciiname":"Khiv","alternatenames":"Khiv,Хив","latitude":"41.75428","longitude":"47.93063","feature_class":"P","feature_code":"PPL","country_code":"RU","cc2":"","admin1_code":"17","admin2_code":"","admin3_code":"","admin4_code":"","population":"2401","elevation":"","dem":"954","timezone":"Europe/Moscow","modification_date":"2012-01-17"},{"geonameid":"550234","name":"Khislavichi","asciiname":"Khislavichi","alternatenames":"Khislavichi,Khislavitsji,Khoslavichi,Хиславичи","latitude":"54.18714","longitude":"32.15817","feature_class":"P","feature_code":"PPL","country_code":"RU","cc2":"","admin1_code":"69","admin2_code":"","admin3_code":"","admin4_code":"","population":"4496","elevation":"","dem":"184","timezone":"Europe/Moscow","modification_date":"2012-01-17"},{"geonameid":"550280","name":"Khimki","asciiname":"Khimki","alternatenames":"Chimkai,Chimki,Gorad Khimki,Himki,Jimki,Khimki,Moskau-Chimki,Ximki,himki,himuki,hymqy,khymky,xi mu ji,Ĥimki,Горад Хімкі,Химки,Химки балһсн,Хімки,Խիմկի,חימקי,خيمكي,خیمکی,ヒムキ,希姆基,힘키","latitude":"55.89704","longitude":"37.42969","feature_class":"P","feature_code":"PPL","country_code":"RU","cc2":"","admin1_code":"48","admin2_code":"","admin3_code":"","admin4_code":"","population":"142618","elevation":"","dem":"185","timezone":"Europe/Moscow","modification_date":"2015-09-11"},{"geonameid":"550366","name":"Khelyulya","asciiname":"Khelyulya","alternatenames":"Helylae,Helylä,Kheljulja,Khelyulya,Хелюля","latitude":"61.749","longitude":"30.66473","feature_class":"P","feature_code":"PPL","country_code":"RU","cc2":"","admin1_code":"28","admin2_code":"","admin3_code":"","admin4_code":"","population":"3082","elevation":"","dem":"10","timezone":"Europe/Moscow","modification_date":"2012-12-16"},{"geonameid":"550452","name":"Khatukay","asciiname":"Khatukay","alternatenames":"Khatukaj,Khatukay,Хатукай","latitude":"45.19074","longitude":"39.6632","feature_class":"P","feature_code":"PPL","country_code":"RU","cc2":"","admin1_code":"01","admin2_code":"","admin3_code":"","admin4_code":"","population":"4538","elevation":"","dem":"32","timezone":"Europe/Moscow","modification_date":"2012-01-17"},{"geonameid":"550478","name":"Khasavyurt","asciiname":"Khasavyurt","alternatenames":"Chassaw-Jurt,Khasavjurt,Khasavyurt,Staro Khasav-Yurt,Хасавюрт","latitude":"43.2509","longitude":"46.58766","feature_class":"P","feature_code":"PPLA2","country_code":"RU","cc2":"","admin1_code":"17","admin2_code":"Gorod Khasavyurt","admin3_code":"","admin4_code":"","population":"126829","elevation":"","dem":"129","timezone":"Europe/Moscow","modification_date":"2012-09-05"},{"geonameid":"550512","name":"Kharovsk","asciiname":"Kharovsk","alternatenames":"Charovsk,Charowsk,Harovsk,Karovsk,Kharovs'k,Kharovsk,ha luo fu si ke,kharwfsk,Ĥarovsk,Харовск,Харовськ,خاروفسك,خاروفسک,ხაროვსკი,哈羅夫斯克","latitude":"59.96425","longitude":"40.19121","feature_class":"P","feature_code":"PPL","country_code":"RU","cc2":"","admin1_code":"85","admin2_code":"","admin3_code":"","admin4_code":"","population":"11115","elevation":"","dem":"153","timezone":"Europe/Moscow","modification_date":"2012-01-17"},{"geonameid":"550516","name":"Kharlu","asciiname":"Kharlu","alternatenames":"Harlu,Kharlu,Харлу","latitude":"61.8","longitude":"30.95","feature_class":"P","feature_code":"PPL","country_code":"RU","cc2":"RU","admin1_code":"28","admin2_code":"","admin3_code":"","admin4_code":"","population":"3200","elevation":"","dem":"69","timezone":"Europe/Moscow","modification_date":"2012-12-16"},{"geonameid":"550574","name":"Kharitonovo","asciiname":"Kharitonovo","alternatenames":"Charitonovo,Kharitonovo,Khiritonovo,Харитоново","latitude":"61.40092","longitude":"47.49779","feature_class":"P","feature_code":"PPL","country_code":"RU","cc2":"","admin1_code":"06","admin2_code":"","admin3_code":"","admin4_code":"","population":"1402","elevation":"","dem":"110","timezone":"Europe/Moscow","modification_date":"2012-01-17"},{"geonameid":"550671","name":"Kharabali","asciiname":"Kharabali","alternatenames":"Charabali,Charabalinskoje,Gorad Kharabali,Harabali,Jarabali,Kharabali,Kharabalí,ha la ba li,kharabaly,Ĥarabali,Горад Харабалі,Харабали,Харабали балһсн,Харабалі,Хәрәбәле,خارابالي,خارابالی,哈拉巴利","latitude":"47.41958","longitude":"47.25678","feature_class":"P","feature_code":"PPL","country_code":"RU","cc2":"","admin1_code":"07","admin2_code":"","admin3_code":"","admin4_code":"","population":"18223","elevation":"","dem":"-7","timezone":"Europe/Volgograd","modification_date":"2012-01-17"},{"geonameid":"550708","name":"Khanskaya","asciiname":"Khanskaya","alternatenames":"Chanskaja,Khanskaja,Khanskaya,Ханская","latitude":"44.67702","longitude":"39.9616","feature_class":"P","feature_code":"PPL","country_code":"RU","cc2":"","admin1_code":"01","admin2_code":"","admin3_code":"","admin4_code":"","population":"11297","elevation":"","dem":"160","timezone":"Europe/Moscow","modification_date":"2012-01-17"},{"geonameid":"550726","name":"Khanino","asciiname":"Khanino","alternatenames":"Khanino,Ханино","latitude":"54.211","longitude":"36.62292","feature_class":"P","feature_code":"PPL","country_code":"RU","cc2":"","admin1_code":"76","admin2_code":"","admin3_code":"","admin4_code":"","population":"1256","elevation":"","dem":"196","timezone":"Europe/Moscow","modification_date":"2012-01-17"},{"geonameid":"550775","name":"Khamamatyurt","asciiname":"Khamamatyurt","alternatenames":"Khamamat-Jurt,Khamamatjurt,Khamamatyurt,Khamamayurt,Хамамат-Юрт,Хамаматюрт","latitude":"43.60809","longitude":"46.5006","feature_class":"P","feature_code":"PPL","country_code":"RU","cc2":"","admin1_code":"17","admin2_code":"","admin3_code":"","admin4_code":"","population":"4935","elevation":"","dem":"6","timezone":"Europe/Moscow","modification_date":"2012-01-17"},{"geonameid":"550785","name":"Orlov","asciiname":"Orlov","alternatenames":"Gorad Arlou,Khalturin,Orlov,Orlov i Russland,Orlow,ao er luo fu,awrlwf,awrlwf  rwsyh,Горад Арлоў,Орлов,أورلوف,اورلوف، روسیه,奧爾洛夫","latitude":"58.53946","longitude":"48.89173","feature_class":"P","feature_code":"PPL","country_code":"RU","cc2":"","admin1_code":"33","admin2_code":"","admin3_code":"","admin4_code":"","population":"8400","elevation":"","dem":"116","timezone":"Europe/Volgograd","modification_date":"2012-01-17"},{"geonameid":"550844","name":"Khadzhalmakhi","asciiname":"Khadzhalmakhi","alternatenames":"Khadzhalmakhi,Khajal-Makhi,Khodzhal-Makhinskskoye,Хаджалмахи","latitude":"42.42","longitude":"47.18206","feature_class":"P","feature_code":"PPL","country_code":"RU","cc2":"","admin1_code":"17","admin2_code":"","admin3_code":"","admin4_code":"","population":"6088","elevation":"","dem":"929","timezone":"Europe/Moscow","modification_date":"2014-03-12"},{"geonameid":"550846","name":"Khadyzhensk","asciiname":"Khadyzhensk","alternatenames":"Chadyschensk,Chadyzensk,Chadyżensk,Chadyžensk,Gorad Khadyzhehnsk,Hadijensk,Hadizensk,Hadižensk,Hadyzensk,Hadyžensk,Jadyzhensk,Khadijensk,Khadizhens'k,Khadizhensk,Khadyjensk,Khadyzhensk,Khadyzhenskaya,Khadyzhenskiy,Khadyzhensky,Khadyzhy,Khadyzjensk,Khadíjensk,Khuydyzhuy,Xadijensk,Xadıjensk,ha de ren si ke,khadyjynsk,khadyzhnsk,Ĥadiĵensk,Горад Хадыжэнск,Хадиженск,Хадиженськ,Хадыженск,Хадыженск балһсн,Хъыдыжъы,خاديجينسك,خادیژنسک,哈德任斯克","latitude":"44.4258","longitude":"39.5362","feature_class":"P","feature_code":"PPL","country_code":"RU","cc2":"","admin1_code":"38","admin2_code":"","admin3_code":"","admin4_code":"","population":"21685","elevation":"","dem":"113","timezone":"Europe/Moscow","modification_date":"2012-01-17"},{"geonameid":"550868","name":"Khabez","asciiname":"Khabez","alternatenames":"Khabez,Хабез","latitude":"44.0434","longitude":"41.772","feature_class":"P","feature_code":"PPL","country_code":"RU","cc2":"","admin1_code":"27","admin2_code":"","admin3_code":"","admin4_code":"","population":"5806","elevation":"","dem":"689","timezone":"Europe/Moscow","modification_date":"2012-01-17"},{"geonameid":"550902","name":"Kez","asciiname":"Kez","alternatenames":"Kez,Кез","latitude":"57.8957","longitude":"53.7132","feature_class":"P","feature_code":"PPLA2","country_code":"RU","cc2":"","admin1_code":"80","admin2_code":"","admin3_code":"","admin4_code":"","population":"10792","elevation":"","dem":"207","timezone":"Europe/Samara","modification_date":"2012-04-05"},{"geonameid":"550918","name":"Kevsala","asciiname":"Kevsala","alternatenames":"Kevsala,Кевсала","latitude":"45.79833","longitude":"42.69028","feature_class":"P","feature_code":"PPL","country_code":"RU","cc2":"","admin1_code":"70","admin2_code":"","admin3_code":"","admin4_code":"","population":"3532","elevation":"","dem":"88","timezone":"Europe/Moscow","modification_date":"2012-01-17"},{"geonameid":"550949","name":"Kesova Gora","asciiname":"Kesova Gora","alternatenames":"Kesova Gora,Kesova-Gora,Кесова Гора","latitude":"57.58361","longitude":"37.29222","feature_class":"P","feature_code":"PPL","country_code":"RU","cc2":"","admin1_code":"77","admin2_code":"","admin3_code":"","admin4_code":"","population":"3946","elevation":"","dem":"181","timezone":"Europe/Moscow","modification_date":"2012-01-17"},{"geonameid":"550973","name":"Kerva","asciiname":"Kerva","alternatenames":"Kerva,Керва","latitude":"55.61167","longitude":"39.57665","feature_class":"P","feature_code":"PPL","country_code":"RU","cc2":"","admin1_code":"47","admin2_code":"","admin3_code":"","admin4_code":"","population":"2784","elevation":"","dem":"126","timezone":"Europe/Moscow","modification_date":"2012-01-17"},{"geonameid":"551047","name":"Kerchevskiy","asciiname":"Kerchevskiy","alternatenames":"Kercheva,Kerchevo,Kerchevskij,Kerchevskiy,Kertsjevskij,Керчевский","latitude":"59.9456","longitude":"56.2959","feature_class":"P","feature_code":"PPL","country_code":"RU","cc2":"","admin1_code":"90","admin2_code":"","admin3_code":"","admin4_code":"","population":"2990","elevation":"","dem":"133","timezone":"Asia/Yekaterinburg","modification_date":"2012-04-05"},{"geonameid":"551070","name":"Kenzhe","asciiname":"Kenzhe","alternatenames":"Kenzhe,Kenzje,Кенже","latitude":"43.50167","longitude":"43.55722","feature_class":"P","feature_code":"PPL","country_code":"RU","cc2":"","admin1_code":"22","admin2_code":"","admin3_code":"","admin4_code":"","population":"10636","elevation":"","dem":"517","timezone":"Europe/Moscow","modification_date":"2012-01-17"},{"geonameid":"551124","name":"Kemlya","asciiname":"Kemlya","alternatenames":"Kemlja,Kemlya,Кемля","latitude":"54.6963","longitude":"45.2424","feature_class":"P","feature_code":"PPL","country_code":"RU","cc2":"","admin1_code":"46","admin2_code":"","admin3_code":"","admin4_code":"","population":"4761","elevation":"","dem":"125","timezone":"Europe/Moscow","modification_date":"2012-01-17"},{"geonameid":"551145","name":"Kem’","asciiname":"Kem'","alternatenames":"Kem,Kem',Kemi,Kem’,Ken,Vienan Kemi,Кемь","latitude":"64.95546","longitude":"34.57929","feature_class":"P","feature_code":"PPL","country_code":"RU","cc2":"","admin1_code":"28","admin2_code":"","admin3_code":"","admin4_code":"","population":"13829","elevation":"","dem":"15","timezone":"Europe/Moscow","modification_date":"2015-12-12"},{"geonameid":"551330","name":"Kazinka","asciiname":"Kazinka","alternatenames":"Kasinka,Kazinka,Казинка","latitude":"52.53817","longitude":"39.82164","feature_class":"P","feature_code":"PPL","country_code":"RU","cc2":"","admin1_code":"43","admin2_code":"","admin3_code":"","admin4_code":"","population":"3002","elevation":"","dem":"114","timezone":"Europe/Moscow","modification_date":"2013-07-22"},{"geonameid":"551438","name":"Kazanskaya","asciiname":"Kazanskaya","alternatenames":"Kasanskaja,Kazanskaja,Kazanskaya,Казанская","latitude":"49.79333","longitude":"41.14667","feature_class":"P","feature_code":"PPLA2","country_code":"RU","cc2":"","admin1_code":"61","admin2_code":"","admin3_code":"","admin4_code":"","population":"4946","elevation":"","dem":"76","timezone":"Europe/Moscow","modification_date":"2013-05-07"},{"geonameid":"551439","name":"Kazanskaya","asciiname":"Kazanskaya","alternatenames":"Kazanskaja,Kazanskaya,Казанская","latitude":"45.4106","longitude":"40.4361","feature_class":"P","feature_code":"PPL","country_code":"RU","cc2":"","admin1_code":"38","admin2_code":"","admin3_code":"","admin4_code":"","population":"10794","elevation":"","dem":"119","timezone":"Europe/Moscow","modification_date":"2012-01-17"},{"geonameid":"551487","name":"Kazan","asciiname":"Kazan","alternatenames":"Casanum,Caza,Cazã,Gorad Kazan',KZN,Kaasan,Kasa,Kasan,Kasã,Kazan,Kazan',Kazan' osh,Kazana,Kazane,Kazani,Kazanj,Kazano,Kazanė,Kazan’,Kazań,Kazaņa,Kazaň,Kazán,Khuazan,Khusan,Kozan',Kuazan,Kuzon,Qazan,Qozon,ka shan,kajan,kajhana,kazan,kazana,kha san,qazan,Καζάν,Горад Казань,Казан,Казань,Казань ош,Казањ,Каꙁанъ,Козань,Кузон,Къазан,Озаҥ,Хусан,Хъазан,Қазан,Ҡazan,Ҡазан,Կազան,קאזאן,قازان,كازان,کازان,कझान,काज़ान,คาซาน,ყაზანი,カザン,喀山,카잔","latitude":"55.78874","longitude":"49.12214","feature_class":"P","feature_code":"PPLA","country_code":"RU","cc2":"","admin1_code":"73","admin2_code":"862913","admin3_code":"","admin4_code":"","population":"1104738","elevation":"","dem":"61","timezone":"Europe/Moscow","modification_date":"2014-07-18"},{"geonameid":"551535","name":"Kazaki","asciiname":"Kazaki","alternatenames":"Kagaki,Kasaki,Kazaki,Казаки","latitude":"52.62484","longitude":"38.26488","feature_class":"P","feature_code":"PPL","country_code":"RU","cc2":"","admin1_code":"43","admin2_code":"","admin3_code":"","admin4_code":"","population":"3227","elevation":"","dem":"145","timezone":"Europe/Moscow","modification_date":"2012-01-17"},{"geonameid":"551638","name":"Kayasula","asciiname":"Kayasula","alternatenames":"Kajasula,Kayasula,Kayasulu,Terek-bay,Каясула","latitude":"44.325","longitude":"45","feature_class":"P","feature_code":"PPL","country_code":"RU","cc2":"","admin1_code":"70","admin2_code":"","admin3_code":"","admin4_code":"","population":"4982","elevation":"","dem":"84","timezone":"Europe/Moscow","modification_date":"2012-01-17"},{"geonameid":"551646","name":"Kayakent","asciiname":"Kayakent","alternatenames":"Kaja-Ken,Kajakent,Kaya Kend,Kayakent,Каякент","latitude":"42.38736","longitude":"47.90301","feature_class":"P","feature_code":"PPL","country_code":"RU","cc2":"","admin1_code":"17","admin2_code":"","admin3_code":"","admin4_code":"","population":"11805","elevation":"","dem":"159","timezone":"Europe/Moscow","modification_date":"2012-01-17"},{"geonameid":"551667","name":"Kavkazskiy","asciiname":"Kavkazskiy","alternatenames":"Karkazskiy,Kavkazskij,Kavkazskiy,Кавказский","latitude":"44.2672","longitude":"42.2347","feature_class":"P","feature_code":"PPL","country_code":"RU","cc2":"","admin1_code":"27","admin2_code":"","admin3_code":"","admin4_code":"","population":"3052","elevation":"","dem":"670","timezone":"Europe/Moscow","modification_date":"2012-01-17"},{"geonameid":"551669","name":"Kavkazskaya","asciiname":"Kavkazskaya","alternatenames":"Kavkazskaja,Kavkazskaya,Kawkaskaja,Кавказская","latitude":"45.4453","longitude":"40.6765","feature_class":"P","feature_code":"PPLA2","country_code":"RU","cc2":"","admin1_code":"38","admin2_code":"","admin3_code":"","admin4_code":"","population":"11680","elevation":"","dem":"138","timezone":"Europe/Moscow","modification_date":"2013-05-07"},{"geonameid":"551729","name":"Katyr-Yurt","asciiname":"Katyr-Yurt","alternatenames":"Katar-Jurt,Katar-Yurt,Katyr-Jurt,Katyr-Yurt,Kotar-Jurt,Kotar-Yurt,Kotarin-Jurt,Kotarin-Yurt,Tutovo,Катар-Юрт,Катыр-Юрт,Котар-Юрт,Котарин-Юрт","latitude":"43.17007","longitude":"45.37114","feature_class":"P","feature_code":"PPL","country_code":"RU","cc2":"","admin1_code":"12","admin2_code":"","admin3_code":"","admin4_code":"","population":"9202","elevation":"","dem":"234","timezone":"Europe/Moscow","modification_date":"2012-01-17"},{"geonameid":"551732","name":"Katyn'","asciiname":"Katyn'","alternatenames":"Katyn',Катынь","latitude":"54.77455","longitude":"31.69041","feature_class":"P","feature_code":"PPL","country_code":"RU","cc2":"","admin1_code":"69","admin2_code":"","admin3_code":"","admin4_code":"","population":"1737","elevation":"","dem":"183","timezone":"Europe/Moscow","modification_date":"2010-06-08"},{"geonameid":"551736","name":"Katunino","asciiname":"Katunino","alternatenames":"Katunino,Lakhta,Катунино","latitude":"64.3862","longitude":"40.6298","feature_class":"P","feature_code":"PPL","country_code":"RU","cc2":"","admin1_code":"06","admin2_code":"","admin3_code":"","admin4_code":"","population":"3255","elevation":"","dem":"20","timezone":"Europe/Moscow","modification_date":"2012-01-17"},{"geonameid":"551794","name":"Katav-Ivanovsk","asciiname":"Katav-Ivanovsk","alternatenames":"Gorad Katau-Ivanausk,Katav-Ivanovs'k,Katav-Ivanovsk,Katav-Ivanovskiy,Katav-Ivànovsk,Katav-Ivánovsk,Kataw-Iwanowsk,Kytau-Ivanovsk,ka ta fu-yi wan nuo fu si ke,kataf-ayfanwfsk,kataf-aywanwfsk,Горад Катаў-Іванаўск,Катав-Івановськ,Катав-Ивановск,Кытау-Ивановск,كاتاف-آيفانوفسك,کاتاف-ایوانوفسک,卡塔夫-伊萬諾夫斯克","latitude":"54.75306","longitude":"58.19556","feature_class":"P","feature_code":"PPL","country_code":"RU","cc2":"","admin1_code":"13","admin2_code":"","admin3_code":"","admin4_code":"","population":"19339","elevation":"","dem":"397","timezone":"Asia/Yekaterinburg","modification_date":"2012-01-17"},{"geonameid":"551816","name":"Kasumkent","asciiname":"Kasumkent","alternatenames":"Kasumkent,Касумкент","latitude":"41.67725","longitude":"48.14601","feature_class":"P","feature_code":"PPL","country_code":"RU","cc2":"","admin1_code":"17","admin2_code":"","admin3_code":"","admin4_code":"","population":"12225","elevation":"","dem":"495","timezone":"Europe/Moscow","modification_date":"2012-01-17"},{"geonameid":"551823","name":"Kastornoye","asciiname":"Kastornoye","alternatenames":"Kastornoe,Kastornoje,Kastornoye,Касторное","latitude":"51.8334","longitude":"38.1302","feature_class":"P","feature_code":"PPL","country_code":"RU","cc2":"","admin1_code":"41","admin2_code":"","admin3_code":"","admin4_code":"","population":"4390","elevation":"","dem":"165","timezone":"Europe/Moscow","modification_date":"2012-01-17"},{"geonameid":"551835","name":"Kastanayevo","asciiname":"Kastanayevo","alternatenames":"Kastanaevo,Kastanayevo,Кастанаево","latitude":"55.71667","longitude":"37.5","feature_class":"P","feature_code":"PPLX","country_code":"RU","cc2":"","admin1_code":"47","admin2_code":"","admin3_code":"","admin4_code":"","population":"20000","elevation":"","dem":"134","timezone":"Europe/Moscow","modification_date":"2013-04-02"},{"geonameid":"551846","name":"Kaspiyskiy","asciiname":"Kaspiyskiy","alternatenames":"Kaspijskij,Kaspiyskiy,Lagan,Lagan',Lagan’,Logan',Logan’,Каспийский,Лагань","latitude":"45.39288","longitude":"47.37073","feature_class":"P","feature_code":"PPL","country_code":"RU","cc2":"","admin1_code":"24","admin2_code":"","admin3_code":"","admin4_code":"","population":"14045","elevation":"","dem":"-27","timezone":"Europe/Moscow","modification_date":"2014-05-08"},{"geonameid":"551847","name":"Kaspiysk","asciiname":"Kaspiysk","alternatenames":"Dvigatel'stroy,Dvigatel’stroy,Kaspijsk,Kaspiysk,Sotsgorod,kaseupiseukeu,Каспийск,카스피스크","latitude":"42.88165","longitude":"47.63919","feature_class":"P","feature_code":"PPL","country_code":"RU","cc2":"","admin1_code":"17","admin2_code":"","admin3_code":"","admin4_code":"","population":"81752","elevation":"","dem":"-16","timezone":"Europe/Moscow","modification_date":"2012-01-17"},{"geonameid":"551891","name":"Kasimov","asciiname":"Kasimov","alternatenames":"Cassim,Gorad Kasimau,Kasimov,Kasimova,Kasimow,Kassimov,Kassimow,Kassímov,Kasímov,ka xi mo fu,kashimofu,kasimopeu,kasymwf,qasymwf,Горад Касімаў,Касимов,Касимов балһсн,Ханкирмән,قاسیموف,كاسيموف,کاسیموف,カシモフ,卡西莫夫,카시모프","latitude":"54.94111","longitude":"41.39528","feature_class":"P","feature_code":"PPL","country_code":"RU","cc2":"","admin1_code":"62","admin2_code":"","admin3_code":"","admin4_code":"","population":"35355","elevation":"","dem":"133","timezone":"Europe/Moscow","modification_date":"2012-01-17"},{"geonameid":"551948","name":"Kashirskoye","asciiname":"Kashirskoye","alternatenames":"Kashirskoe,Kashirskoye,Kasjirskoje,Каширское","latitude":"51.41945","longitude":"39.61248","feature_class":"P","feature_code":"PPL","country_code":"RU","cc2":"","admin1_code":"86","admin2_code":"","admin3_code":"","admin4_code":"","population":"4564","elevation":"","dem":"131","timezone":"Europe/Moscow","modification_date":"2012-01-17"},{"geonameid":"551964","name":"Kashira","asciiname":"Kashira","alternatenames":"Gorad Kashyra,Kachira,Kaschira,Kashira,Kasira,Kasjira,Kaszyra,Kaŝira,Kaşira,Kašira,Kașira,ka xi la,kashira,kashyra,kasila,Горад Кашыра,Кашира,كاشيرا,کاشیرا,カシーラ,卡希拉,카시라","latitude":"54.84444","longitude":"38.16694","feature_class":"P","feature_code":"PPL","country_code":"RU","cc2":"","admin1_code":"47","admin2_code":"","admin3_code":"","admin4_code":"","population":"40084","elevation":"","dem":"152","timezone":"Europe/Moscow","modification_date":"2012-01-17"},{"geonameid":"551986","name":"Kashin","asciiname":"Kashin","alternatenames":"Gorad Kashyn,Kachine,Kaschin,Kashin,Kasin,Kasjin,Kaszyn,Kaŝin,Kaşin,Kašin,ka shen,kashin,kashyn,kasin,Горад Кашын,Кашин,كاشين,کاشین,カシン,卡申,카신","latitude":"57.35917","longitude":"37.60806","feature_class":"P","feature_code":"PPL","country_code":"RU","cc2":"","admin1_code":"77","admin2_code":"","admin3_code":"","admin4_code":"","population":"16598","elevation":"","dem":"120","timezone":"Europe/Moscow","modification_date":"2008-11-30"},{"geonameid":"552006","name":"Kashary","asciiname":"Kashary","alternatenames":"Kashary,Kasjary,Кашары","latitude":"49.04001","longitude":"41.00557","feature_class":"P","feature_code":"PPLA2","country_code":"RU","cc2":"","admin1_code":"61","admin2_code":"","admin3_code":"","admin4_code":"","population":"6292","elevation":"","dem":"81","timezone":"Europe/Moscow","modification_date":"2013-05-07"},{"geonameid":"552133","name":"Karsun","asciiname":"Karsun","alternatenames":"Karsun,Карсун","latitude":"54.19941","longitude":"46.9827","feature_class":"P","feature_code":"PPL","country_code":"RU","cc2":"","admin1_code":"81","admin2_code":"","admin3_code":"","admin4_code":"","population":"8128","elevation":"","dem":"161","timezone":"Europe/Moscow","modification_date":"2012-01-17"},{"geonameid":"552161","name":"Karpushikha","asciiname":"Karpushikha","alternatenames":"Karpushikha,Karpusjikha,Карпушиха","latitude":"57.50167","longitude":"59.89556","feature_class":"P","feature_code":"PPL","country_code":"RU","cc2":"","admin1_code":"71","admin2_code":"","admin3_code":"","admin4_code":"","population":"1497","elevation":"","dem":"282","timezone":"Asia/Yekaterinburg","modification_date":"2012-01-17"},{"geonameid":"552256","name":"Karpogory","asciiname":"Karpogory","alternatenames":"Karpogori,Karpogory,Карпогоры,Կարպոգորի","latitude":"64.00189","longitude":"44.44513","feature_class":"P","feature_code":"PPL","country_code":"RU","cc2":"","admin1_code":"06","admin2_code":"","admin3_code":"","admin4_code":"","population":"4441","elevation":"","dem":"54","timezone":"Europe/Moscow","modification_date":"2012-01-17"},{"geonameid":"552312","name":"Karmaskaly","asciiname":"Karmaskaly","alternatenames":"Karmakaly,Karmaskaly,Кармаскалы","latitude":"54.3709","longitude":"56.1837","feature_class":"P","feature_code":"PPL","country_code":"RU","cc2":"","admin1_code":"08","admin2_code":"","admin3_code":"","admin4_code":"","population":"7858","elevation":"","dem":"130","timezone":"Asia/Yekaterinburg","modification_date":"2012-01-17"},{"geonameid":"552433","name":"Karinskoye","asciiname":"Karinskoye","alternatenames":"Karinskoe,Karinskoye,Каринское","latitude":"55.70969","longitude":"36.68903","feature_class":"P","feature_code":"PPL","country_code":"RU","cc2":"RU","admin1_code":"47","admin2_code":"","admin3_code":"","admin4_code":"","population":"1643","elevation":"","dem":"167","timezone":"Europe/Moscow","modification_date":"2013-04-27"},{"geonameid":"552465","name":"Kargopol’","asciiname":"Kargopol'","alternatenames":"Kargopol,Kargopol',Kargopol’,Каргополь","latitude":"61.50359","longitude":"38.9486","feature_class":"P","feature_code":"PPL","country_code":"RU","cc2":"","admin1_code":"06","admin2_code":"","admin3_code":"","admin4_code":"","population":"10966","elevation":"","dem":"121","timezone":"Europe/Moscow","modification_date":"2013-11-01"},{"geonameid":"552500","name":"Kargalinskaya","asciiname":"Kargalinskaya","alternatenames":"Kargalinskaja,Kargalinskaya,Kargalinski,Karginskaja,Karginskaya,Karpalinskaya,Каргалинская,Каргалински,Каргинская","latitude":"43.74381","longitude":"46.47821","feature_class":"P","feature_code":"PPL","country_code":"RU","cc2":"","admin1_code":"12","admin2_code":"","admin3_code":"","admin4_code":"","population":"5371","elevation":"","dem":"-1","timezone":"Europe/Moscow","modification_date":"2014-03-12"},{"geonameid":"552555","name":"Kardzhin","asciiname":"Kardzhin","alternatenames":"Kardzhin,Kardzjin,Карджин","latitude":"43.27368","longitude":"44.29075","feature_class":"P","feature_code":"PPL","country_code":"RU","cc2":"","admin1_code":"68","admin2_code":"","admin3_code":"","admin4_code":"","population":"3154","elevation":"","dem":"367","timezone":"Europe/Moscow","modification_date":"2012-01-17"},{"geonameid":"552558","name":"Kardymovo","asciiname":"Kardymovo","alternatenames":"Kardymoro,Kardymovo,Кардымово","latitude":"54.89016","longitude":"32.43111","feature_class":"P","feature_code":"PPL","country_code":"RU","cc2":"","admin1_code":"69","admin2_code":"","admin3_code":"","admin4_code":"","population":"4951","elevation":"","dem":"195","timezone":"Europe/Moscow","modification_date":"2012-01-17"},{"geonameid":"552562","name":"Kardonikskaya","asciiname":"Kardonikskaya","alternatenames":"Kardonikskaja,Kardonikskaya,Кардоникская","latitude":"43.86577","longitude":"41.71432","feature_class":"P","feature_code":"PPL","country_code":"RU","cc2":"","admin1_code":"27","admin2_code":"","admin3_code":"","admin4_code":"","population":"7830","elevation":"","dem":"888","timezone":"Europe/Moscow","modification_date":"2012-01-17"},{"geonameid":"552568","name":"Kardailovo","asciiname":"Kardailovo","alternatenames":"Kapoailovskaya,Kardailovo,Kardailovskaya,Kardailovskiy,Кардаилово","latitude":"51.53861","longitude":"53.90417","feature_class":"P","feature_code":"PPL","country_code":"RU","cc2":"","admin1_code":"55","admin2_code":"","admin3_code":"","admin4_code":"","population":"3036","elevation":"","dem":"72","timezone":"Asia/Yekaterinburg","modification_date":"2012-01-17"},{"geonameid":"552692","name":"Karata","asciiname":"Karata","alternatenames":"Karata,Карата","latitude":"42.59486","longitude":"46.3393","feature_class":"P","feature_code":"PPL","country_code":"RU","cc2":"","admin1_code":"17","admin2_code":"","admin3_code":"","admin4_code":"","population":"4838","elevation":"","dem":"1457","timezone":"Europe/Moscow","modification_date":"2012-01-17"},{"geonameid":"552830","name":"Karakulino","asciiname":"Karakulino","alternatenames":"Karakulino,Каракулино","latitude":"56.012","longitude":"53.70669","feature_class":"P","feature_code":"PPL","country_code":"RU","cc2":"","admin1_code":"80","admin2_code":"","admin3_code":"","admin4_code":"","population":"5052","elevation":"","dem":"112","timezone":"Europe/Samara","modification_date":"2012-01-17"},{"geonameid":"552862","name":"Karaidel’","asciiname":"Karaidel'","alternatenames":"Karaidel,Karaidel',Karaidel’,Караидель","latitude":"55.83373","longitude":"56.90692","feature_class":"P","feature_code":"PPL","country_code":"RU","cc2":"","admin1_code":"08","admin2_code":"","admin3_code":"","admin4_code":"","population":"5184","elevation":"","dem":"206","timezone":"Asia/Yekaterinburg","modification_date":"2012-01-17"},{"geonameid":"552887","name":"Karagay","asciiname":"Karagay","alternatenames":"Karagaj,Karagay,Карагай","latitude":"58.26669","longitude":"54.93678","feature_class":"P","feature_code":"PPL","country_code":"RU","cc2":"","admin1_code":"90","admin2_code":"","admin3_code":"","admin4_code":"","population":"6586","elevation":"","dem":"133","timezone":"Asia/Yekaterinburg","modification_date":"2012-01-17"},{"geonameid":"552895","name":"Karagach","asciiname":"Karagach","alternatenames":"Inalov,Karagach,Karagachevo,Karagatsj,Карагач","latitude":"43.80528","longitude":"43.775","feature_class":"P","feature_code":"PPL","country_code":"RU","cc2":"","admin1_code":"22","admin2_code":"","admin3_code":"","admin4_code":"","population":"5870","elevation":"","dem":"269","timezone":"Europe/Moscow","modification_date":"2012-01-17"},{"geonameid":"552920","name":"Karachev","asciiname":"Karachev","alternatenames":"Karachev,Karatschew,Karatsjev,Карачев","latitude":"53.12292","longitude":"34.98517","feature_class":"P","feature_code":"PPL","country_code":"RU","cc2":"","admin1_code":"10","admin2_code":"","admin3_code":"","admin4_code":"","population":"19757","elevation":"","dem":"204","timezone":"Europe/Moscow","modification_date":"2012-01-17"},{"geonameid":"552924","name":"Karachayevsk","asciiname":"Karachayevsk","alternatenames":"Karachaevsk,Karachayevsk,Karatsjajevsk,Klukhori,Mikojan-Schachar,Mikopi Shakhar,Mikoyan-Shakhar,Карачаевск","latitude":"43.77399","longitude":"41.91419","feature_class":"P","feature_code":"PPL","country_code":"RU","cc2":"","admin1_code":"27","admin2_code":"","admin3_code":"","admin4_code":"","population":"20264","elevation":"","dem":"860","timezone":"Europe/Moscow","modification_date":"2012-01-17"},{"geonameid":"552951","name":"Karabulak","asciiname":"Karabulak","alternatenames":"Gorad Karabulak,Karaboelak,Karabolak,Karaboulak,Karabulak,Karabulak i Ingusjetia,Karabulako,Karabulakskaya,Karabułak,ka la bu la ke,kalabullakeu,karaburaku,karabwlak,karabwlak  ayngwshtya,Горад Карабулак,Караболак,Карабулак,Карабулак балһсн,Элдархан-ГӀала,كارابولاك,کارابولاک، اینگوشتیا,カラブラク,卡拉布拉克,카라불라크","latitude":"43.30513","longitude":"44.89949","feature_class":"P","feature_code":"PPL","country_code":"RU","cc2":"","admin1_code":"19","admin2_code":"","admin3_code":"","admin4_code":"","population":"34511","elevation":"","dem":"418","timezone":"Europe/Moscow","modification_date":"2012-08-04"},{"geonameid":"552953","name":"Karabudakhkent","asciiname":"Karabudakhkent","alternatenames":"Karabudachkent,Karabudakhkent,Karabudukh,Karabulakh-Kend,Карабудахкент","latitude":"42.7087","longitude":"47.56735","feature_class":"P","feature_code":"PPL","country_code":"RU","cc2":"","admin1_code":"17","admin2_code":"","admin3_code":"","admin4_code":"","population":"13207","elevation":"","dem":"192","timezone":"Europe/Moscow","modification_date":"2012-01-17"},{"geonameid":"552974","name":"Karabash","asciiname":"Karabash","alternatenames":"Karabash,Karabasj,Карабаш","latitude":"54.693","longitude":"52.58359","feature_class":"P","feature_code":"PPL","country_code":"RU","cc2":"","admin1_code":"73","admin2_code":"","admin3_code":"","admin4_code":"","population":"5149","elevation":"","dem":"144","timezone":"Europe/Moscow","modification_date":"2012-01-17"},{"geonameid":"552977","name":"Karabanovo","asciiname":"Karabanovo","alternatenames":"Gorad Karabanava,Karabanovo,Karabanowo,ka la ba nuo wo,kalabanobo,karabanovu~o,karabanwfw,Горад Карабанава,Карабаново,كارابانوفو,کارابانوفو,カラバノヴォ,卡拉巴諾沃,카라바노보","latitude":"56.31667","longitude":"38.7","feature_class":"P","feature_code":"PPL","country_code":"RU","cc2":"","admin1_code":"83","admin2_code":"","admin3_code":"","admin4_code":"","population":"15615","elevation":"","dem":"173","timezone":"Europe/Moscow","modification_date":"2012-01-17"},{"geonameid":"552999","name":"Kapustin Yar","asciiname":"Kapustin Yar","alternatenames":"Kapustin Jar,Kapustin Yar,Капустин Яр","latitude":"48.58175","longitude":"45.74481","feature_class":"P","feature_code":"PPL","country_code":"RU","cc2":"","admin1_code":"07","admin2_code":"","admin3_code":"","admin4_code":"","population":"6476","elevation":"","dem":"8","timezone":"Europe/Volgograd","modification_date":"2012-01-17"},{"geonameid":"553034","name":"Kapotnya","asciiname":"Kapotnya","alternatenames":"Kapotnja,Kapotnya,Капотня","latitude":"55.63806","longitude":"37.79306","feature_class":"P","feature_code":"PPLX","country_code":"RU","cc2":"","admin1_code":"48","admin2_code":"","admin3_code":"","admin4_code":"","population":"29594","elevation":"","dem":"140","timezone":"Europe/Moscow","modification_date":"2013-04-02"},{"geonameid":"553092","name":"Kantyshevo","asciiname":"Kantyshevo","alternatenames":"Kantyshevo,Kantysjevo,Nartovo,Nartovskoya,Кантышево","latitude":"43.22824","longitude":"44.63322","feature_class":"P","feature_code":"PPL","country_code":"RU","cc2":"","admin1_code":"19","admin2_code":"","admin3_code":"","admin4_code":"","population":"17363","elevation":"","dem":"542","timezone":"Europe/Moscow","modification_date":"2012-08-04"},{"geonameid":"553099","name":"Kantemirovka","asciiname":"Kantemirovka","alternatenames":"Kantemirovka,Kantemirowka,Кантемировка","latitude":"49.70887","longitude":"39.85922","feature_class":"P","feature_code":"PPLA2","country_code":"RU","cc2":"","admin1_code":"86","admin2_code":"","admin3_code":"","admin4_code":"","population":"12770","elevation":"","dem":"131","timezone":"Europe/Moscow","modification_date":"2014-07-08"},{"geonameid":"553138","name":"Kangly","asciiname":"Kangly","alternatenames":"Kangly,Канглы","latitude":"44.25444","longitude":"43.03083","feature_class":"P","feature_code":"PPL","country_code":"RU","cc2":"","admin1_code":"70","admin2_code":"","admin3_code":"","admin4_code":"","population":"3494","elevation":"","dem":"312","timezone":"Europe/Moscow","modification_date":"2012-01-17"},{"geonameid":"553152","name":"Kanevskaya","asciiname":"Kanevskaya","alternatenames":"Kanevskaia,Kanevskaja,Kanevskaya,Kanewskaja,Kanivs'ka,Каневская,Канівська","latitude":"46.0849","longitude":"38.9596","feature_class":"P","feature_code":"PPLA2","country_code":"RU","cc2":"","admin1_code":"38","admin2_code":"","admin3_code":"","admin4_code":"","population":"45334","elevation":"","dem":"13","timezone":"Europe/Moscow","modification_date":"2013-05-07"},{"geonameid":"553159","name":"Kanelovskaya","asciiname":"Kanelovskaya","alternatenames":"Kanelovskaja,Kanelovskaya,Konelovskaya,Krasnopolyanka,Канеловская","latitude":"46.5896","longitude":"39.1944","feature_class":"P","feature_code":"PPL","country_code":"RU","cc2":"","admin1_code":"38","admin2_code":"","admin3_code":"","admin4_code":"","population":"4332","elevation":"","dem":"7","timezone":"Europe/Moscow","modification_date":"2012-01-17"},{"geonameid":"553169","name":"Kandry","asciiname":"Kandry","alternatenames":"Kandry,Kandry-Amineva,Кандры","latitude":"54.56667","longitude":"54.11667","feature_class":"P","feature_code":"PPL","country_code":"RU","cc2":"","admin1_code":"08","admin2_code":"","admin3_code":"","admin4_code":"","population":"12100","elevation":"","dem":"168","timezone":"Asia/Yekaterinburg","modification_date":"2012-01-17"},{"geonameid":"553190","name":"Kandalaksha","asciiname":"Kandalaksha","alternatenames":"Kaeddluhtt,Kandalaksa,Kandalakscha,Kandalaksha,Kandalaksja,Kandalaksza,Kandalakŝa,Kandalakša,Kandałaksza,Kannanlahti,Kannanlaksi,Kannanlakši,Kantalahti,Käddluhtt,kandallagsya,kandarakusha,Кандалакша,カンダラクシャ,칸달락샤","latitude":"67.162","longitude":"32.41229","feature_class":"P","feature_code":"PPL","country_code":"RU","cc2":"","admin1_code":"49","admin2_code":"","admin3_code":"","admin4_code":"","population":"38431","elevation":"","dem":"40","timezone":"Europe/Moscow","modification_date":"2012-12-28"},{"geonameid":"553216","name":"Kanash","asciiname":"Kanash","alternatenames":"Gorad Kanash,Kanach,Kanas,Kanasch,Kanash,Kanasj,Kanasz,Kanax,Kanaŝ,Kanaş,Kanaš,Shikhrany,ka na shen,kanash,kanasi,Горад Канаш,Канаш,Каҥаш,كاناش,کاناش,卡納什,카나시","latitude":"55.50962","longitude":"47.49127","feature_class":"P","feature_code":"PPL","country_code":"RU","cc2":"","admin1_code":"16","admin2_code":"","admin3_code":"","admin4_code":"","population":"49886","elevation":"","dem":"196","timezone":"Europe/Moscow","modification_date":"2012-02-28"},{"geonameid":"553233","name":"Kanadey","asciiname":"Kanadey","alternatenames":"Kanadej,Kanadey,Канадей","latitude":"53.16786","longitude":"47.52644","feature_class":"P","feature_code":"PPL","country_code":"RU","cc2":"","admin1_code":"81","admin2_code":"","admin3_code":"","admin4_code":"","population":"2076","elevation":"","dem":"97","timezone":"Europe/Moscow","modification_date":"2012-01-17"},{"geonameid":"553248","name":"Kamyzyak","asciiname":"Kamyzyak","alternatenames":"Kamysjak,Kamyziak,Kamyzjak,Kamyzyak,Камызяк","latitude":"46.10995","longitude":"48.07364","feature_class":"P","feature_code":"PPL","country_code":"RU","cc2":"","admin1_code":"07","admin2_code":"","admin3_code":"","admin4_code":"","population":"16191","elevation":"","dem":"-24","timezone":"Europe/Volgograd","modification_date":"2012-01-17"},{"geonameid":"553271","name":"Kamyshla","asciiname":"Kamyshla","alternatenames":"Kamyshla,Kamysjla,Камышла","latitude":"54.11693","longitude":"52.14262","feature_class":"P","feature_code":"PPL","country_code":"RU","cc2":"","admin1_code":"65","admin2_code":"","admin3_code":"","admin4_code":"","population":"4789","elevation":"","dem":"140","timezone":"Europe/Samara","modification_date":"2012-01-17"},{"geonameid":"553287","name":"Kamyshin","asciiname":"Kamyshin","alternatenames":"Gorad Kamyshyn,Kamishin,Kamisin,Kamixin,Kamiŝin,Kamišin,Kamosin,Kamychine,Kamyschin,Kamyshin,Kamysin,Kamysinas,Kamysjin,Kamyszyn,Kamyšin,Kamyšinas,Kamîșin,Kamõšin,ka mei shen,kamisin,kamuishin,kamyshn,kamyshyn,Горад Камышын,Камишин,Камышин,Камышин балһсн,Կամիշին,كاميشين,کامیشن,کامیشین,カムイシン,卡梅申,카미신","latitude":"50.09833","longitude":"45.41601","feature_class":"P","feature_code":"PPL","country_code":"RU","cc2":"","admin1_code":"84","admin2_code":"","admin3_code":"","admin4_code":"","population":"128626","elevation":"","dem":"73","timezone":"Europe/Volgograd","modification_date":"2012-01-17"},{"geonameid":"553310","name":"Kamyshevatskaya","asciiname":"Kamyshevatskaya","alternatenames":"Kamishevatskaya,Kamuishevat,Kamyschewatkaja,Kamyshevatka,Kamyshevatskaja,Kamyshevatskaya,Kamyshyevat,Kamysjevatskaja,Камышеватская","latitude":"46.41316","longitude":"37.95632","feature_class":"P","feature_code":"PPL","country_code":"RU","cc2":"","admin1_code":"38","admin2_code":"","admin3_code":"","admin4_code":"","population":"5201","elevation":"","dem":"13","timezone":"Europe/Moscow","modification_date":"2012-01-17"},{"geonameid":"553374","name":"Kaminskiy","asciiname":"Kaminskiy","alternatenames":"Gorki-Pavlovo,Gorki-Pavlovy,Kaminskij,Kaminskiy,Kaminsky,Каминский","latitude":"57.15159","longitude":"41.47318","feature_class":"P","feature_code":"PPL","country_code":"RU","cc2":"","admin1_code":"21","admin2_code":"","admin3_code":"","admin4_code":"","population":"1645","elevation":"","dem":"116","timezone":"Europe/Moscow","modification_date":"2012-01-17"},{"geonameid":"553389","name":"Kameshkovo","asciiname":"Kameshkovo","alternatenames":"Kameshkovo,Kamesjkovo,Камешково","latitude":"56.35305","longitude":"41.00941","feature_class":"P","feature_code":"PPL","country_code":"RU","cc2":"","admin1_code":"83","admin2_code":"","admin3_code":"","admin4_code":"","population":"13935","elevation":"","dem":"99","timezone":"Europe/Moscow","modification_date":"2012-01-17"},{"geonameid":"553399","name":"Kamensk-Shakhtinskiy","asciiname":"Kamensk-Shakhtinskiy","alternatenames":"Kamensk,Kamensk Shakhtinski,Kamensk-Schachtinskij,Kamensk-Schachtiuski,Kamensk-Shakhtinskij,Kamensk-Shakhtinskiy,Kamenskaya,Каменск,Каменск-Шахтинский","latitude":"48.31779","longitude":"40.25948","feature_class":"P","feature_code":"PPLA2","country_code":"RU","cc2":"","admin1_code":"61","admin2_code":"","admin3_code":"","admin4_code":"","population":"75814","elevation":"","dem":"57","timezone":"Europe/Moscow","modification_date":"2013-05-07"},{"geonameid":"553416","name":"Kamenskiy","asciiname":"Kamenskiy","alternatenames":"Grimm,Kamenskij,Kamenskiy,Lesnoy Karamysh,Каменский","latitude":"50.88547","longitude":"45.48801","feature_class":"P","feature_code":"PPL","country_code":"RU","cc2":"","admin1_code":"67","admin2_code":"","admin3_code":"","admin4_code":"","population":"3617","elevation":"","dem":"194","timezone":"Europe/Volgograd","modification_date":"2012-01-17"},{"geonameid":"553427","name":"Kamenolomni","asciiname":"Kamenolomni","alternatenames":"Kamenolomni,Kamenolomnya,Каменоломни","latitude":"47.66853","longitude":"40.2051","feature_class":"P","feature_code":"PPLA2","country_code":"RU","cc2":"","admin1_code":"61","admin2_code":"","admin3_code":"","admin4_code":"","population":"12262","elevation":"","dem":"62","timezone":"Europe/Moscow","modification_date":"2013-05-07"},{"geonameid":"553513","name":"Kamennomostskoye","asciiname":"Kamennomostskoye","alternatenames":"Kamennomostskoe,Kamennomostskoje,Kamennomostskoye,Kamenomostskoye,Karmovo,Каменномостское","latitude":"43.73722","longitude":"43.05139","feature_class":"P","feature_code":"PPL","country_code":"RU","cc2":"","admin1_code":"22","admin2_code":"","admin3_code":"","admin4_code":"","population":"6316","elevation":"","dem":"821","timezone":"Europe/Moscow","modification_date":"2012-01-17"},{"geonameid":"553514","name":"Kamennomostskiy","asciiname":"Kamennomostskiy","alternatenames":"Kamennomostskaja,Kamennomostskaya,Kamennomostskij,Kamennomostskiy,Каменномостский","latitude":"44.2891","longitude":"40.188","feature_class":"P","feature_code":"PPL","country_code":"RU","cc2":"","admin1_code":"01","admin2_code":"","admin3_code":"","admin4_code":"","population":"7585","elevation":"","dem":"453","timezone":"Europe/Moscow","modification_date":"2012-01-17"},{"geonameid":"553518","name":"Kamennogorsk","asciiname":"Kamennogorsk","alternatenames":"Antrea,Kamennogors'k,Kamennogorsk,Kamennogorska,Kamenogorsk,Kamiennogorsk,Kamjennogorsk,Kammenogorsk,Sankt Andree,ka mian nuo ge er si ke,kamennogoleuseukeu,kamnwgwrsk,kamynwghwrsk,Каменногорск,Каменногорськ,Каменогорск,كامينوغورسك,کامنوگورسک,卡緬諾戈爾斯克,카멘노고르스크","latitude":"60.95451","longitude":"29.13391","feature_class":"P","feature_code":"PPL","country_code":"RU","cc2":"","admin1_code":"42","admin2_code":"","admin3_code":"","admin4_code":"","population":"6208","elevation":"","dem":"30","timezone":"Europe/Moscow","modification_date":"2013-10-04"},{"geonameid":"553609","name":"Kamenka","asciiname":"Kamenka","alternatenames":"Kamenka,Каменка","latitude":"65.8835","longitude":"44.1272","feature_class":"P","feature_code":"PPL","country_code":"RU","cc2":"","admin1_code":"06","admin2_code":"","admin3_code":"","admin4_code":"","population":"3258","elevation":"","dem":"9","timezone":"Europe/Moscow","modification_date":"2012-04-05"},{"geonameid":"553655","name":"Kamenka","asciiname":"Kamenka","alternatenames":"Kamenka,Каменка","latitude":"57.39214","longitude":"41.79383","feature_class":"P","feature_code":"PPL","country_code":"RU","cc2":"","admin1_code":"21","admin2_code":"","admin3_code":"","admin4_code":"","population":"4124","elevation":"","dem":"99","timezone":"Europe/Moscow","modification_date":"2012-01-17"},{"geonameid":"553766","name":"Kamenka","asciiname":"Kamenka","alternatenames":"Kamenka,Каменка","latitude":"51.3223","longitude":"42.7678","feature_class":"P","feature_code":"PPL","country_code":"RU","cc2":"","admin1_code":"86","admin2_code":"","admin3_code":"","admin4_code":"","population":"9450","elevation":"","dem":"155","timezone":"Europe/Moscow","modification_date":"2012-01-17"},{"geonameid":"553769","name":"Kamenka","asciiname":"Kamenka","alternatenames":"Kamenka,Каменка","latitude":"50.71499","longitude":"39.42189","feature_class":"P","feature_code":"PPL","country_code":"RU","cc2":"","admin1_code":"86","admin2_code":"","admin3_code":"","admin4_code":"","population":"8594","elevation":"","dem":"232","timezone":"Europe/Moscow","modification_date":"2015-09-26"},{"geonameid":"553778","name":"Kamenka","asciiname":"Kamenka","alternatenames":"Kamenka,Каменка","latitude":"43.53333","longitude":"43.51667","feature_class":"P","feature_code":"PPL","country_code":"RU","cc2":"","admin1_code":"22","admin2_code":"","admin3_code":"","admin4_code":"","population":"3525","elevation":"","dem":"555","timezone":"Europe/Moscow","modification_date":"2012-01-17"},{"geonameid":"553791","name":"Kamenetskiy","asciiname":"Kamenetskiy","alternatenames":"Kameneckij,Kamenetskij,Kamenetskiy,Каменецкий","latitude":"54.01353","longitude":"38.22115","feature_class":"P","feature_code":"PPL","country_code":"RU","cc2":"","admin1_code":"76","admin2_code":"","admin3_code":"","admin4_code":"","population":"2788","elevation":"","dem":"233","timezone":"Europe/Moscow","modification_date":"2012-01-17"},{"geonameid":"553828","name":"Kambileyevskoye","asciiname":"Kambileyevskoye","alternatenames":"Kambileevskoe,Kambilejevskoje,Kambileyevskoye,Nizhniy Dzherakh,Verkhne-Kambileyevskoye,Камбилеевское","latitude":"43.07858","longitude":"44.75216","feature_class":"P","feature_code":"PPL","country_code":"RU","cc2":"","admin1_code":"68","admin2_code":"","admin3_code":"","admin4_code":"","population":"7770","elevation":"","dem":"632","timezone":"Europe/Moscow","modification_date":"2012-01-17"},{"geonameid":"553835","name":"Kambarka","asciiname":"Kambarka","alternatenames":"Gorad Kambarka,Kamarka,Kambark,Kambarka,Kambarskiy,kambaleuka,kambarka,kan ba er ka,Горад Камбарка,Камбарка,كامباركا,کامبارکا,坎巴爾卡,캄바르카","latitude":"56.2666","longitude":"54.2056","feature_class":"P","feature_code":"PPL","country_code":"RU","cc2":"","admin1_code":"80","admin2_code":"","admin3_code":"","admin4_code":"","population":"12464","elevation":"","dem":"78","timezone":"Europe/Samara","modification_date":"2012-04-05"},{"geonameid":"553878","name":"Kama","asciiname":"Kama","alternatenames":"Butysh,Kama,Кама","latitude":"56.30512","longitude":"54.09361","feature_class":"P","feature_code":"PPL","country_code":"RU","cc2":"","admin1_code":"80","admin2_code":"","admin3_code":"","admin4_code":"","population":"3439","elevation":"","dem":"74","timezone":"Europe/Samara","modification_date":"2012-01-17"},{"geonameid":"553884","name":"Kalyazin","asciiname":"Kalyazin","alternatenames":"Kaliazin,Kaljazin,Kalyazin,Калязин","latitude":"57.24028","longitude":"37.84333","feature_class":"P","feature_code":"PPL","country_code":"RU","cc2":"","admin1_code":"77","admin2_code":"","admin3_code":"","admin4_code":"","population":"14655","elevation":"","dem":"116","timezone":"Europe/Moscow","modification_date":"2012-01-17"},{"geonameid":"553915","name":"Kaluga","asciiname":"Kaluga","alternatenames":"Caluga,Gorad Kaluga,KLF,Kaloega,Kalouga,Kalug,Kaluga,Kalugae,Kalugo,Kaluqa,Kalyga,Kaługa,ka lu jia,kalluga,kaluga,kalwga,kalwgha,karuga,klwga,qlwgh,Горад Калуга,Калугæ,Калуга,Калуго,Կալուգա,קלוגה,كالوغا,کالوگا,کلوگا,कालुगा,ಕಲೂಗಾ,カルーガ,卡盧加,칼루가","latitude":"54.5293","longitude":"36.27542","feature_class":"P","feature_code":"PPLA","country_code":"RU","cc2":"","admin1_code":"25","admin2_code":"","admin3_code":"","admin4_code":"","population":"338978","elevation":"","dem":"200","timezone":"Europe/Moscow","modification_date":"2013-04-13"},{"geonameid":"553929","name":"Kaltasy","asciiname":"Kaltasy","alternatenames":"Kaltasy,Калтасы","latitude":"55.96926","longitude":"54.80321","feature_class":"P","feature_code":"PPL","country_code":"RU","cc2":"","admin1_code":"08","admin2_code":"","admin3_code":"","admin4_code":"","population":"4454","elevation":"","dem":"126","timezone":"Asia/Yekaterinburg","modification_date":"2012-01-17"},{"geonameid":"553955","name":"Kalnibolotskaya","asciiname":"Kalnibolotskaya","alternatenames":"Kainibolotskaya,Kalnibolotskaja,Kalnibolotskaya,Kanibolotskaya,Калниболотская","latitude":"46.00583","longitude":"40.45682","feature_class":"P","feature_code":"PPL","country_code":"RU","cc2":"","admin1_code":"38","admin2_code":"","admin3_code":"","admin4_code":"","population":"6578","elevation":"","dem":"47","timezone":"Europe/Moscow","modification_date":"2012-01-17"},{"geonameid":"554064","name":"Kalinovskoye","asciiname":"Kalinovskoye","alternatenames":"Kalinovskoe,Kalinovskoje,Kalinovskoye,Kalivo,Калиновское","latitude":"44.8635","longitude":"42.9622","feature_class":"P","feature_code":"PPL","country_code":"RU","cc2":"","admin1_code":"70","admin2_code":"","admin3_code":"","admin4_code":"","population":"3951","elevation":"","dem":"370","timezone":"Europe/Moscow","modification_date":"2012-01-17"},{"geonameid":"554077","name":"Kalinovskaya","asciiname":"Kalinovskaya","alternatenames":"Gal-GIala,Gal-Gala,Gal-Ġala,Galne,Kahnoyakaya,Kalinovskaja,Kalinovskaya,Kalinovski,Kalinovskoe,Kalinovskoye,Гал-ГІала,Галне,Калиновская,Калиновски,Калиновское","latitude":"43.57383","longitude":"45.5209","feature_class":"P","feature_code":"PPL","country_code":"RU","cc2":"","admin1_code":"12","admin2_code":"","admin3_code":"","admin4_code":"","population":"8305","elevation":"","dem":"69","timezone":"Europe/Moscow","modification_date":"2012-08-04"},{"geonameid":"554153","name":"Kalino","asciiname":"Kalino","alternatenames":"Kalino,Калино","latitude":"58.2504","longitude":"57.6085","feature_class":"P","feature_code":"PPL","country_code":"RU","cc2":"","admin1_code":"90","admin2_code":"","admin3_code":"","admin4_code":"","population":"2473","elevation":"","dem":"136","timezone":"Asia/Yekaterinburg","modification_date":"2012-01-17"},{"geonameid":"554173","name":"Kalininskaya","asciiname":"Kalininskaya","alternatenames":"Kalininskaja,Kalininskaya,Kalininskyaya,Popovicheskaya,Popovichevskaya,Popovichskaya,Popoviehskaya,Popowitscheskaja,Калининская","latitude":"45.4844","longitude":"38.66221","feature_class":"P","feature_code":"PPLA2","country_code":"RU","cc2":"","admin1_code":"38","admin2_code":"","admin3_code":"","admin4_code":"","population":"13363","elevation":"","dem":"10","timezone":"Europe/Moscow","modification_date":"2013-05-07"},{"geonameid":"554199","name":"Kalininsk","asciiname":"Kalininsk","alternatenames":"Balanda,Gorad Kalininsk,Kalinins'k,Kalininsk,Kalíninsk,jia li ning si ke,kalynynsk,kalynynsk  awblast saratwf,Горад Калінінск,Калининск,Калининск балһсн,Калињинск,Калінінськ,كالينينسك,کالینینسک، اوبلاست ساراتوف,加里寧斯克","latitude":"51.5","longitude":"44.4758","feature_class":"P","feature_code":"PPL","country_code":"RU","cc2":"","admin1_code":"67","admin2_code":"","admin3_code":"","admin4_code":"","population":"18685","elevation":"","dem":"143","timezone":"Europe/Volgograd","modification_date":"2012-01-17"},{"geonameid":"554233","name":"Korolev","asciiname":"Korolev","alternatenames":"Kaliningrad,Kalininskiy,Korolev,Koroljov,Королев,Королёв","latitude":"55.91417","longitude":"37.82556","feature_class":"P","feature_code":"PPL","country_code":"RU","cc2":"","admin1_code":"47","admin2_code":"","admin3_code":"","admin4_code":"","population":"139798","elevation":"","dem":"161","timezone":"Europe/Moscow","modification_date":"2014-03-13"},{"geonameid":"554234","name":"Kaliningrad","asciiname":"Kaliningrad","alternatenames":"Calininopolis,Gorad Kaliningrad,KGD,Kalinin'nkrant,Kaliningrad,Kaliningrada,Kaliningradas,Kaliningrado,Kaliningradum,Kaliningrau,Kaliningráu,Kalininqrad,Kalinjingrad,Kalinyingrad,Kalinyingrád,Kalińingrad,Kalíníngrad,Karaliaucios,Karaliaucius,Karaliaučios,Karaliaučius,Kaļiņingrada,Kenisberg,Koenigsbarg,Koenigsberg,Koenigsberg in Preussen,Korigsberg,Krolewiec,Królewiec,Kënisberg,Königsbarg,Königsberg,Königsberg in Preußen,Körigsberg,jia li ning ge lei,kalininagrada,kalliningeuladeu,kalynynghrad,kalynyngrad,kariningurado,qlynyngrd,Καλίνινγκραντ,Горад Калінінград,Калининград,Калињинград,Калінінград,Կալինինգրադ,קלינינגרד,كالينينغراد,کالیننگراڈ,کالینینگراد,کیلننگراڈ,कालिनिनग्राद,ಕಲಿನಿನ್‍ಗ್ರಾಡ್,კალინინგრადი,カリーニングラード,加里寧格勒,칼리닌그라드","latitude":"54.70649","longitude":"20.51095","feature_class":"P","feature_code":"PPLA","country_code":"RU","cc2":"","admin1_code":"23","admin2_code":"825118","admin3_code":"","admin4_code":"","population":"434954","elevation":"","dem":"2","timezone":"Europe/Kaliningrad","modification_date":"2015-01-14"},{"geonameid":"554236","name":"Kalininaul","asciiname":"Kalininaul","alternatenames":"Kalininaoul,Kalininaul,Shircha-Ehvla,Yurt-Aukh,klynn awl,Калининаул,Ширча-Эвла,كلينن أؤل","latitude":"43.07121","longitude":"46.56679","feature_class":"P","feature_code":"PPL","country_code":"RU","cc2":"","admin1_code":"17","admin2_code":"","admin3_code":"","admin4_code":"","population":"4752","elevation":"","dem":"594","timezone":"Europe/Moscow","modification_date":"2012-01-17"},{"geonameid":"554269","name":"Kalinin","asciiname":"Kalinin","alternatenames":"Kalinin,Калинин","latitude":"47.24678","longitude":"39.51088","feature_class":"P","feature_code":"PPL","country_code":"RU","cc2":"","admin1_code":"61","admin2_code":"","admin3_code":"","admin4_code":"","population":"3423","elevation":"","dem":"37","timezone":"Europe/Moscow","modification_date":"2012-01-17"},{"geonameid":"554297","name":"Kalikino","asciiname":"Kalikino","alternatenames":"Kadikino,Kalikino,Каликино","latitude":"52.9493","longitude":"39.8269","feature_class":"P","feature_code":"PPL","country_code":"RU","cc2":"","admin1_code":"43","admin2_code":"","admin3_code":"","admin4_code":"","population":"3352","elevation":"","dem":"108","timezone":"Europe/Moscow","modification_date":"2012-01-17"},{"geonameid":"554318","name":"Kalevala","asciiname":"Kalevala","alternatenames":"Kalevala,Uchtinskaja,Uhtua,Ukhta,Калевала","latitude":"65.19873","longitude":"31.18999","feature_class":"P","feature_code":"PPL","country_code":"RU","cc2":"","admin1_code":"28","admin2_code":"","admin3_code":"","admin4_code":"","population":"5431","elevation":"","dem":"106","timezone":"Europe/Moscow","modification_date":"2015-12-12"},{"geonameid":"554363","name":"Kalashnikovo","asciiname":"Kalashnikovo","alternatenames":"Kalashnikovo,Kalasjnikovo,Калашниково","latitude":"57.28237","longitude":"35.22617","feature_class":"P","feature_code":"PPL","country_code":"RU","cc2":"","admin1_code":"77","admin2_code":"","admin3_code":"","admin4_code":"","population":"5032","elevation":"","dem":"204","timezone":"Europe/Moscow","modification_date":"2012-01-17"},{"geonameid":"554397","name":"Kalach-na-Donu","asciiname":"Kalach-na-Donu","alternatenames":"Gorad Kalach-na-Done,Kalac Donal,Kalac na Donu,Kalac nad Donom,Kalac-na-Donu,Kalach,Kalach na Don,Kalach na Donu,Kalach-na-Donu,Kalacz-na-Donu,Kalatch-na-Donou,Kalats-na-Donu,Kalatsch,Kalatsch am Don,Kalatsj-Na-Donu,Kalatsj-na-Donu,Kalatx-na-Donu,Kalatx-na-Donú,Kalatš-na-Donu,Kalaĉ-na-Donu,Kalač Donal,Kalač na Donu,Kalač nad Donom,Kalač-na-Donu,Kałacz-na-Donu,dun he pan ka la qi,kalach-na-dwnw,kalatsh-na-dwnw,kallachinadonu,Горад Калач-на-Доне,Калач на Дон,Калач на Дону,Калач-на-Дону,Калач-на-Дону балһсн,كالاتش-نا-دونو,کالاچ-نا-دونو,頓河畔卡拉奇,칼라치나도누","latitude":"48.69099","longitude":"43.52638","feature_class":"P","feature_code":"PPL","country_code":"RU","cc2":"","admin1_code":"84","admin2_code":"","admin3_code":"","admin4_code":"","population":"27522","elevation":"","dem":"41","timezone":"Europe/Volgograd","modification_date":"2012-01-17"},{"geonameid":"554410","name":"Kalach","asciiname":"Kalach","alternatenames":"Kalach,Kalatsch,Kalatsj,Калач","latitude":"50.4258","longitude":"41.0261","feature_class":"P","feature_code":"PPL","country_code":"RU","cc2":"","admin1_code":"86","admin2_code":"","admin3_code":"","admin4_code":"","population":"20449","elevation":"","dem":"92","timezone":"Europe/Moscow","modification_date":"2012-01-17"},{"geonameid":"554444","name":"Kakhun","asciiname":"Kakhun","alternatenames":"Kakhun,Кахун","latitude":"43.54306","longitude":"43.87639","feature_class":"P","feature_code":"PPL","country_code":"RU","cc2":"","admin1_code":"22","admin2_code":"","admin3_code":"","admin4_code":"","population":"7490","elevation":"","dem":"297","timezone":"Europe/Moscow","modification_date":"2012-01-17"},{"geonameid":"554482","name":"Kagal’nitskaya","asciiname":"Kagal'nitskaya","alternatenames":"Kagal'nickaja,Kagal'nik,Kagal'nitskaya,Kagalnitskaja,Kagalnizkaja,Kagal’nik,Kagal’nitskaya,Kagolnitskaya,Кагальницкая","latitude":"46.88056","longitude":"40.14657","feature_class":"P","feature_code":"PPLA2","country_code":"RU","cc2":"","admin1_code":"61","admin2_code":"","admin3_code":"","admin4_code":"","population":"6848","elevation":"","dem":"27","timezone":"Europe/Moscow","modification_date":"2013-05-07"},{"geonameid":"554491","name":"Kafyr-Kumukh","asciiname":"Kafyr-Kumukh","alternatenames":"Kafyr-Kumuch,Kafyr-Kumukh,Kafyrkumyk',Kafyrkumyk’,Кафыр-Кумух","latitude":"42.83754","longitude":"47.15412","feature_class":"P","feature_code":"PPL","country_code":"RU","cc2":"","admin1_code":"17","admin2_code":"","admin3_code":"","admin4_code":"","population":"4274","elevation":"","dem":"368","timezone":"Europe/Moscow","modification_date":"2012-01-17"},{"geonameid":"554502","name":"Kadyy","asciiname":"Kadyy","alternatenames":"Kady,Kadyj,Kadyy,Кадый","latitude":"57.78704","longitude":"43.19029","feature_class":"P","feature_code":"PPL","country_code":"RU","cc2":"","admin1_code":"37","admin2_code":"","admin3_code":"","admin4_code":"","population":"3783","elevation":"","dem":"97","timezone":"Europe/Moscow","modification_date":"2012-01-17"},{"geonameid":"554535","name":"Kaduy","asciiname":"Kaduy","alternatenames":"Kadui,Kaduj,Kaduy,Teplova,Кадуй","latitude":"59.2","longitude":"37.15","feature_class":"P","feature_code":"PPL","country_code":"RU","cc2":"","admin1_code":"85","admin2_code":"","admin3_code":"","admin4_code":"","population":"11570","elevation":"","dem":"116","timezone":"Europe/Moscow","modification_date":"2012-01-17"},{"geonameid":"554544","name":"Kadoshkino","asciiname":"Kadoshkino","alternatenames":"Kadoshkino,Kadosjkino,Кадошкино","latitude":"54.0257","longitude":"44.4191","feature_class":"P","feature_code":"PPL","country_code":"RU","cc2":"","admin1_code":"46","admin2_code":"","admin3_code":"","admin4_code":"","population":"4763","elevation":"","dem":"237","timezone":"Europe/Moscow","modification_date":"2012-01-17"},{"geonameid":"554549","name":"Kadom","asciiname":"Kadom","alternatenames":"Kadom,Кадом","latitude":"54.55917","longitude":"42.4675","feature_class":"P","feature_code":"PPL","country_code":"RU","cc2":"","admin1_code":"62","admin2_code":"","admin3_code":"","admin4_code":"","population":"6027","elevation":"","dem":"97","timezone":"Europe/Moscow","modification_date":"2012-01-17"},{"geonameid":"554554","name":"Kadnikov","asciiname":"Kadnikov","alternatenames":"Gorad Kadnikau,Kadnikov,Kadnikow,Kádnikov,ka de ni ke fu,kadnykwf,Горад Каднікаў,Кадников,كادنيكوف,کادنیکوف,卡德尼科夫","latitude":"59.50218","longitude":"40.33803","feature_class":"P","feature_code":"PPL","country_code":"RU","cc2":"","admin1_code":"85","admin2_code":"","admin3_code":"","admin4_code":"","population":"5312","elevation":"","dem":"143","timezone":"Europe/Moscow","modification_date":"2012-01-17"},{"geonameid":"554599","name":"Kachkanar","asciiname":"Kachkanar","alternatenames":"Kachkanar,Katsjkanar,Качканар","latitude":"58.7002","longitude":"59.4839","feature_class":"P","feature_code":"PPL","country_code":"RU","cc2":"","admin1_code":"71","admin2_code":"","admin3_code":"","admin4_code":"","population":"43983","elevation":"","dem":"366","timezone":"Asia/Yekaterinburg","modification_date":"2012-04-05"},{"geonameid":"554668","name":"Kabardinka","asciiname":"Kabardinka","alternatenames":"Kabardinka,Kabardinskaya,Kabardinskiy Poselok,Kaberdinka,Кабардинка","latitude":"44.65139","longitude":"37.94278","feature_class":"P","feature_code":"PPL","country_code":"RU","cc2":"","admin1_code":"38","admin2_code":"","admin3_code":"","admin4_code":"","population":"7395","elevation":"","dem":"33","timezone":"Europe/Moscow","modification_date":"2015-10-04"},{"geonameid":"554679","name":"Kabanovo","asciiname":"Kabanovo","alternatenames":"Kabanova,Kabanovo,Кабаново","latitude":"55.74815","longitude":"38.93511","feature_class":"P","feature_code":"PPL","country_code":"RU","cc2":"","admin1_code":"47","admin2_code":"","admin3_code":"","admin4_code":"","population":"23414","elevation":"","dem":"134","timezone":"Europe/Moscow","modification_date":"2015-03-13"},{"geonameid":"554692","name":"Kabakovo","asciiname":"Kabakovo","alternatenames":"Kabakovo,Kabanovo,Кабаково","latitude":"54.5369","longitude":"56.1517","feature_class":"P","feature_code":"PPL","country_code":"RU","cc2":"","admin1_code":"08","admin2_code":"","admin3_code":"","admin4_code":"","population":"3078","elevation":"","dem":"98","timezone":"Asia/Yekaterinburg","modification_date":"2012-01-17"},{"geonameid":"554767","name":"Izoplit","asciiname":"Izoplit","alternatenames":"Izoplit,Изоплит","latitude":"56.62558","longitude":"36.22198","feature_class":"P","feature_code":"PPL","country_code":"RU","cc2":"","admin1_code":"77","admin2_code":"","admin3_code":"","admin4_code":"","population":"4299","elevation":"","dem":"134","timezone":"Europe/Moscow","modification_date":"2012-01-17"},{"geonameid":"554770","name":"Izobil’nyy","asciiname":"Izobil'nyy","alternatenames":"Izobil'no-Tishchenskiy,Izobil'noye,Izobil'nyj,Izobil'nyy,Izobilnyj,Izobil’no-Tishchenskiy,Izobil’noye,Izobil’nyy,Изобильный","latitude":"45.37092","longitude":"41.70839","feature_class":"P","feature_code":"PPL","country_code":"RU","cc2":"","admin1_code":"70","admin2_code":"","admin3_code":"","admin4_code":"","population":"39022","elevation":"","dem":"200","timezone":"Europe/Moscow","modification_date":"2014-07-14"},{"geonameid":"554776","name":"Iznoski","asciiname":"Iznoski","alternatenames":"Izhoski,Iznoski,Износки","latitude":"54.98806","longitude":"35.31083","feature_class":"P","feature_code":"PPL","country_code":"RU","cc2":"","admin1_code":"25","admin2_code":"","admin3_code":"","admin4_code":"","population":"1905","elevation":"","dem":"227","timezone":"Europe/Moscow","modification_date":"2012-01-17"},{"geonameid":"554787","name":"Izmaylovo","asciiname":"Izmaylovo","alternatenames":"Izmajlovo,Izmaylovo,Измайлово","latitude":"55.78677","longitude":"37.80165","feature_class":"P","feature_code":"PPLX","country_code":"RU","cc2":"","admin1_code":"47","admin2_code":"","admin3_code":"","admin4_code":"","population":"104000","elevation":"","dem":"164","timezone":"Europe/Moscow","modification_date":"2013-04-02"},{"geonameid":"554791","name":"Izmaylovo","asciiname":"Izmaylovo","alternatenames":"Izmajlovo,Izmaylovo,Измайлово","latitude":"53.72114","longitude":"47.24581","feature_class":"P","feature_code":"PPL","country_code":"RU","cc2":"","admin1_code":"81","admin2_code":"","admin3_code":"","admin4_code":"","population":"3075","elevation":"","dem":"200","timezone":"Europe/Moscow","modification_date":"2012-01-17"},{"geonameid":"554806","name":"Izmalkovo","asciiname":"Izmalkovo","alternatenames":"Izmalkovo,Измалково","latitude":"52.6887","longitude":"37.96398","feature_class":"P","feature_code":"PPL","country_code":"RU","cc2":"","admin1_code":"43","admin2_code":"","admin3_code":"","admin4_code":"","population":"4072","elevation":"","dem":"245","timezone":"Europe/Moscow","modification_date":"2012-01-17"},{"geonameid":"554830","name":"Izhma","asciiname":"Izhma","alternatenames":"Ishma,Iz'va,Izhma,Izjma,Iz’va,Ижма","latitude":"65.00833","longitude":"53.91128","feature_class":"P","feature_code":"PPL","country_code":"RU","cc2":"","admin1_code":"34","admin2_code":"","admin3_code":"","admin4_code":"","population":"3599","elevation":"","dem":"45","timezone":"Europe/Moscow","modification_date":"2012-01-17"},{"geonameid":"554836","name":"Izhevskoye","asciiname":"Izhevskoye","alternatenames":"Izhevskoe,Izhevskoye,Izjevskoje,Ижевское","latitude":"54.557","longitude":"40.8753","feature_class":"P","feature_code":"PPL","country_code":"RU","cc2":"","admin1_code":"62","admin2_code":"","admin3_code":"","admin4_code":"","population":"3703","elevation":"","dem":"98","timezone":"Europe/Moscow","modification_date":"2012-01-17"},{"geonameid":"554840","name":"Izhevsk","asciiname":"Izhevsk","alternatenames":"Gorad Izhehusk,IJK,Ijevsk,Ischewsk,Ishewsk,Izevsk,Izevska,Izevskas,Izewsk,Izh,Izhau,Izhevs'k,Izhevsk,Izhkar,Izjefsk,Izjevsk,Izsevszk,Iĵevsk,Iżewsk,Iževsk,Iževska,Iževskas,Ustinov,ayjyfsk,ayzhwsk,azwsk,ijebseukeu,ijefusuku,yi re fu si ke,İjevsk,ʼyzbsq,Ιζέβσκ,Іжевськ,Горад Іжэўск,Иж,Ижау,Ижевск,Ижкар,איזבסק,إيجيفسك,ازوسک,ایژوسک,იჟევსკი,イジェフスク,伊熱夫斯克,이젭스크","latitude":"56.84976","longitude":"53.20448","feature_class":"P","feature_code":"PPLA","country_code":"RU","cc2":"","admin1_code":"80","admin2_code":"","admin3_code":"","admin4_code":"","population":"631038","elevation":"","dem":"166","timezone":"Europe/Samara","modification_date":"2012-02-28"},{"geonameid":"554873","name":"Izborsk","asciiname":"Izborsk","alternatenames":"Irboska,Izborsk,Staroizborsk,Vana-Irboska,Изборск","latitude":"57.70757","longitude":"27.86291","feature_class":"P","feature_code":"PPL","country_code":"RU","cc2":"","admin1_code":"60","admin2_code":"","admin3_code":"","admin4_code":"","population":"1003","elevation":"","dem":"82","timezone":"Europe/Moscow","modification_date":"2012-01-17"},{"geonameid":"554894","name":"Izberbash","asciiname":"Izberbash","alternatenames":"Izbarbash,Izberbash,Izberbasj,Izberg,Izerbash,Избербаш,Изберг","latitude":"42.56955","longitude":"47.86447","feature_class":"P","feature_code":"PPL","country_code":"RU","cc2":"","admin1_code":"17","admin2_code":"","admin3_code":"","admin4_code":"","population":"42121","elevation":"","dem":"-5","timezone":"Europe/Moscow","modification_date":"2015-04-12"},{"geonameid":"554950","name":"Ivot","asciiname":"Ivot","alternatenames":"Ivot,Ивот","latitude":"53.67556","longitude":"34.18722","feature_class":"P","feature_code":"PPL","country_code":"RU","cc2":"","admin1_code":"10","admin2_code":"","admin3_code":"","admin4_code":"","population":"6294","elevation":"","dem":"180","timezone":"Europe/Moscow","modification_date":"2012-01-17"},{"geonameid":"554973","name":"Ivnya","asciiname":"Ivnya","alternatenames":"Ivnja,Ivnya,Ивня","latitude":"51.06294","longitude":"36.13426","feature_class":"P","feature_code":"PPL","country_code":"RU","cc2":"","admin1_code":"09","admin2_code":"","admin3_code":"","admin4_code":"","population":"7824","elevation":"","dem":"221","timezone":"Europe/Moscow","modification_date":"2012-01-17"},{"geonameid":"555111","name":"Ivanteyevka","asciiname":"Ivanteyevka","alternatenames":"Ivanteevka,Ivantejevka,Ivanteyevka,Ivanteyevskiy,Ивантеевка","latitude":"55.97111","longitude":"37.92083","feature_class":"P","feature_code":"PPL","country_code":"RU","cc2":"","admin1_code":"47","admin2_code":"","admin3_code":"","admin4_code":"","population":"51085","elevation":"","dem":"140","timezone":"Europe/Moscow","modification_date":"2012-01-17"},{"geonameid":"555112","name":"Ivanteyevka","asciiname":"Ivanteyevka","alternatenames":"Ivanteevka,Ivantejevka,Ivanteyevka,Ивантеевка","latitude":"52.2667","longitude":"49.1055","feature_class":"P","feature_code":"PPL","country_code":"RU","cc2":"","admin1_code":"67","admin2_code":"","admin3_code":"","admin4_code":"","population":"6127","elevation":"","dem":"50","timezone":"Europe/Volgograd","modification_date":"2012-01-17"},{"geonameid":"555129","name":"Ivanovskoye","asciiname":"Ivanovskoye","alternatenames":"Ivanovskoe,Ivanovskoye,Ивановское","latitude":"55.76667","longitude":"37.83333","feature_class":"P","feature_code":"PPLX","country_code":"RU","cc2":"","admin1_code":"48","admin2_code":"","admin3_code":"","admin4_code":"","population":"128000","elevation":"","dem":"156","timezone":"Europe/Moscow","modification_date":"2013-04-02"},{"geonameid":"555206","name":"Ivanovskoye","asciiname":"Ivanovskoye","alternatenames":"Ivanovskoe,Ivanovskoje,Ivanovskoye,Ивановское","latitude":"44.5795","longitude":"41.8764","feature_class":"P","feature_code":"PPL","country_code":"RU","cc2":"","admin1_code":"70","admin2_code":"","admin3_code":"","admin4_code":"","population":"7003","elevation":"","dem":"359","timezone":"Europe/Moscow","modification_date":"2012-01-17"},{"geonameid":"555312","name":"Ivanovo","asciiname":"Ivanovo","alternatenames":"Gorad Ivanava,IWA,Ivanova,Ivanovas,Ivanovo,Ivanovo shaary,Ivanovo-Voznesensk,Ivànovo,Ivánovo,Iwanowo,ayfanwfw,aywanwfw,aywanww,ibanobo,ivu~anovu~o,xi wa no wo,yi wan nuo wo,İvanovo,ʼywwʼnwbw,Іваново,Горад Іванава,Иваново,Иваново шаары,Իվանովո,איוואנובו,إيفانوفو,ایوانوفو,ایوانوو,อีวาโนโว,イヴァノヴォ,伊万诺沃,이바노보","latitude":"56.99719","longitude":"40.97139","feature_class":"P","feature_code":"PPLA","country_code":"RU","cc2":"","admin1_code":"21","admin2_code":"825094","admin3_code":"","admin4_code":"","population":"420839","elevation":"","dem":"126","timezone":"Europe/Moscow","modification_date":"2012-12-18"},{"geonameid":"555610","name":"Ivanishchi","asciiname":"Ivanishchi","alternatenames":"Ivanishchevskiy,Ivanishchi,Ivanishhi,Ivanisjtsji,Rabochiy Poselok Ivanishchvskiy,Rabochiy Posëlok Ivanishchvskiy,Иванищи","latitude":"55.77417","longitude":"40.42731","feature_class":"P","feature_code":"PPL","country_code":"RU","cc2":"","admin1_code":"83","admin2_code":"","admin3_code":"","admin4_code":"","population":"2149","elevation":"","dem":"130","timezone":"Europe/Moscow","modification_date":"2012-01-17"},{"geonameid":"555617","name":"Ivanino","asciiname":"Ivanino","alternatenames":"Ivanino,Иванино","latitude":"51.6434","longitude":"35.5769","feature_class":"P","feature_code":"PPL","country_code":"RU","cc2":"","admin1_code":"41","admin2_code":"","admin3_code":"","admin4_code":"","population":"2333","elevation":"","dem":"153","timezone":"Europe/Moscow","modification_date":"2012-01-17"},{"geonameid":"555624","name":"Ivangorod","asciiname":"Ivangorod","alternatenames":"Gorad Ivangarad,Iban'nkoront,Iivananlinna,Ivangorod,Ivangoroda,Ivangorodas,Ivángorod,Iwangorod,Jaanilinn,ayangwrwd,ayfanghwrwd,ibangolodeu,ibangoloteu,ivangorodi,ivu~angorodo,yi wan ge luo de,Ιβάνγκοροντ,Івангород,Горад Івангарад,Ивангород,آيفانغورود,ایانگورود,ივანგოროდი,イヴァンゴロド,伊万哥罗德,이반고로드,이반고로트","latitude":"59.37155","longitude":"28.21625","feature_class":"P","feature_code":"PPL","country_code":"RU","cc2":"","admin1_code":"42","admin2_code":"","admin3_code":"","admin4_code":"","population":"11074","elevation":"","dem":"34","timezone":"Europe/Moscow","modification_date":"2013-10-04"},{"geonameid":"555681","name":"Itum-Kali","asciiname":"Itum-Kali","alternatenames":"Akhalkhevi,Axalhevi,Iton-Kkha'lla,Iton-Kkhelli,Iton-Qalla,Iton-Qelli,Iton-Qälla,Itum-Kale,Itum-Kali,Itumkale,Ахалхеви,Итон-Кхаьлла,Итон-Кхелли,Итум-Кале,Итум-Кали","latitude":"42.73557","longitude":"45.57576","feature_class":"P","feature_code":"PPL","country_code":"RU","cc2":"","admin1_code":"12","admin2_code":"","admin3_code":"","admin4_code":"","population":"2922","elevation":"","dem":"773","timezone":"Europe/Moscow","modification_date":"2012-01-17"},{"geonameid":"555717","name":"Isyangulovo","asciiname":"Isyangulovo","alternatenames":"Isiangulovo,Isjangulovo,Isyangulovo,Исянгулово","latitude":"52.18584","longitude":"56.58043","feature_class":"P","feature_code":"PPL","country_code":"RU","cc2":"","admin1_code":"08","admin2_code":"","admin3_code":"","admin4_code":"","population":"7455","elevation":"","dem":"184","timezone":"Asia/Yekaterinburg","modification_date":"2012-12-05"},{"geonameid":"555746","name":"Istra","asciiname":"Istra","alternatenames":"Istra,Voskresensk,iseuteula,yi si te la,Истра,伊斯特拉,이스트라","latitude":"55.91997","longitude":"36.86867","feature_class":"P","feature_code":"PPL","country_code":"RU","cc2":"","admin1_code":"47","admin2_code":"","admin3_code":"","admin4_code":"","population":"33390","elevation":"","dem":"175","timezone":"Europe/Moscow","modification_date":"2012-01-17"},{"geonameid":"555794","name":"Issad","asciiname":"Issad","alternatenames":"Isad-Sel'tso,Isad-Sel’tso,Issad,Izsad,Иссад","latitude":"60.06743","longitude":"32.34331","feature_class":"P","feature_code":"PPL","country_code":"RU","cc2":"","admin1_code":"42","admin2_code":"","admin3_code":"","admin4_code":"","population":"1100","elevation":"","dem":"15","timezone":"Europe/Moscow","modification_date":"2013-03-29"},{"geonameid":"555798","name":"Issa","asciiname":"Issa","alternatenames":"Issa,Исса","latitude":"53.87049","longitude":"44.85781","feature_class":"P","feature_code":"PPL","country_code":"RU","cc2":"","admin1_code":"57","admin2_code":"","admin3_code":"","admin4_code":"","population":"5532","elevation":"","dem":"174","timezone":"Europe/Moscow","modification_date":"2012-01-17"},{"geonameid":"555801","name":"Ispravnaya","asciiname":"Ispravnaya","alternatenames":"Ispravnaja,Ispravnaya,Исправная","latitude":"44.0682","longitude":"41.6102","feature_class":"P","feature_code":"PPL","country_code":"RU","cc2":"","admin1_code":"27","admin2_code":"","admin3_code":"","admin4_code":"","population":"4606","elevation":"","dem":"721","timezone":"Europe/Moscow","modification_date":"2012-01-17"},{"geonameid":"555933","name":"Ishnya","asciiname":"Ishnya","alternatenames":"Ishnja,Ishnya,Isjnja,Ишня","latitude":"57.1907","longitude":"39.36004","feature_class":"P","feature_code":"PPL","country_code":"RU","cc2":"","admin1_code":"88","admin2_code":"","admin3_code":"","admin4_code":"","population":"3297","elevation":"","dem":"98","timezone":"Europe/Moscow","modification_date":"2012-01-17"},{"geonameid":"555950","name":"Ishley","asciiname":"Ishley","alternatenames":"Ishlei,Ishlej,Ishley,Ishley-Pokrovskoye,Isjlej,Ишлей","latitude":"56.02317","longitude":"47.05054","feature_class":"P","feature_code":"PPL","country_code":"RU","cc2":"","admin1_code":"16","admin2_code":"","admin3_code":"","admin4_code":"","population":"3160","elevation":"","dem":"164","timezone":"Europe/Moscow","modification_date":"2012-01-17"},{"geonameid":"555962","name":"Ishkhoy-Yurt","asciiname":"Ishkhoy-Yurt","alternatenames":"Balc-Evl,Balch-Ehvl,Balç-Evl,Ishkhoj-Jurt,Ishkhojn-Ehvla,Ishkhojn-Jurt,Ishkhoy-Yurt,Ishoj-Jurt,Isjkhoj-Jurt,Isxoyn-Avla,Isxoyn-Evla,Isxoyn-Yurt,Işxoyn-Evla,Işxoyn-Yurt,Işxoyn-Əvla,Išhoj-Jurt,Tanty,Балч-Эвл,Ишхой-Юрт,Ишхойн-Эвла,Ишхойн-Юрт,Танты","latitude":"43.21278","longitude":"46.38936","feature_class":"P","feature_code":"PPL","country_code":"RU","cc2":"","admin1_code":"12","admin2_code":"","admin3_code":"","admin4_code":"","population":"3051","elevation":"","dem":"243","timezone":"Europe/Moscow","modification_date":"2012-08-04"},{"geonameid":"555980","name":"Ishimbay","asciiname":"Ishimbay","alternatenames":"Isembai,Ishimbaj,Ishimbay,Isimbai,Isimbaj,Iszymbaj,Iŝimbaj,Išembai,Išimbai,Išimbaj,isimbai,Ишимбай,Ишимбај,이심바이","latitude":"53.45446","longitude":"56.04149","feature_class":"P","feature_code":"PPL","country_code":"RU","cc2":"","admin1_code":"08","admin2_code":"","admin3_code":"","admin4_code":"","population":"70421","elevation":"","dem":"160","timezone":"Asia/Yekaterinburg","modification_date":"2012-01-17"},{"geonameid":"555984","name":"Isheyevka","asciiname":"Isheyevka","alternatenames":"Isheevka,Isheyevka,Laisjevka,Ишеевка","latitude":"54.42789","longitude":"48.26675","feature_class":"P","feature_code":"PPL","country_code":"RU","cc2":"","admin1_code":"81","admin2_code":"","admin3_code":"","admin4_code":"","population":"9944","elevation":"","dem":"123","timezone":"Europe/Moscow","modification_date":"2014-03-13"},{"geonameid":"555994","name":"Ishcherskaya","asciiname":"Ishcherskaya","alternatenames":"Ishcherskaya,Isherskaya,Ishherskaja,Isjtsjerskaja,Ищерская","latitude":"43.71359","longitude":"45.13371","feature_class":"P","feature_code":"PPL","country_code":"RU","cc2":"","admin1_code":"12","admin2_code":"","admin3_code":"","admin4_code":"","population":"4941","elevation":"","dem":"102","timezone":"Europe/Moscow","modification_date":"2012-08-04"},{"geonameid":"556111","name":"Isakly","asciiname":"Isakly","alternatenames":"Isakly,Исаклы","latitude":"54.13333","longitude":"51.53333","feature_class":"P","feature_code":"PPL","country_code":"RU","cc2":"","admin1_code":"65","admin2_code":"","admin3_code":"","admin4_code":"","population":"4417","elevation":"","dem":"77","timezone":"Europe/Samara","modification_date":"2012-01-17"},{"geonameid":"556131","name":"Is","asciiname":"Is","alternatenames":"Fedino,Is,Is Poselok,Sverdlovskiy Priisk,Ис","latitude":"58.7909","longitude":"59.7179","feature_class":"P","feature_code":"PPL","country_code":"RU","cc2":"","admin1_code":"71","admin2_code":"","admin3_code":"","admin4_code":"","population":"4729","elevation":"","dem":"193","timezone":"Asia/Yekaterinburg","modification_date":"2012-04-05"},{"geonameid":"556170","name":"Irkliyevskaya","asciiname":"Irkliyevskaya","alternatenames":"Irklievskaja,Irklievskaya,Irklijevskaja,Irkliyevskaya,Ирклиевская","latitude":"45.85635","longitude":"39.65381","feature_class":"P","feature_code":"PPL","country_code":"RU","cc2":"","admin1_code":"38","admin2_code":"","admin3_code":"","admin4_code":"","population":"3068","elevation":"","dem":"36","timezone":"Europe/Moscow","modification_date":"2012-01-17"},{"geonameid":"556198","name":"Irganay","asciiname":"Irganay","alternatenames":"Irganaj,Irganay,Ирганай","latitude":"42.6465","longitude":"46.91154","feature_class":"P","feature_code":"PPL","country_code":"RU","cc2":"","admin1_code":"17","admin2_code":"Untsukul'skiy Rayon","admin3_code":"","admin4_code":"","population":"2336","elevation":"","dem":"547","timezone":"Europe/Moscow","modification_date":"2015-06-07"},{"geonameid":"556199","name":"Irgakly","asciiname":"Irgakly","alternatenames":"Irgakli,Irgakly,Иргаклы","latitude":"44.36111","longitude":"44.75556","feature_class":"P","feature_code":"PPL","country_code":"RU","cc2":"","admin1_code":"70","admin2_code":"","admin3_code":"","admin4_code":"","population":"3997","elevation":"","dem":"100","timezone":"Europe/Moscow","modification_date":"2012-01-17"},{"geonameid":"556230","name":"Ipatovo","asciiname":"Ipatovo","alternatenames":"Gorad Ipatava,Ipatovo,Ipatowo,Spatowo,Vinodel'noye,Vinodel’noye,aybatwfw,aypatwfw,yi pa tuo wo,İpatovo,Іпатово,Горад Іпатава,Ипатово,Ипатово балһсн,إيباتوفو,ایپاتوفو,伊帕托沃","latitude":"45.71806","longitude":"42.90361","feature_class":"P","feature_code":"PPL","country_code":"RU","cc2":"","admin1_code":"70","admin2_code":"","admin3_code":"","admin4_code":"","population":"29073","elevation":"","dem":"101","timezone":"Europe/Moscow","modification_date":"2013-08-13"},{"geonameid":"556268","name":"Ostrovnoy","asciiname":"Ostrovnoy","alternatenames":"Ekonga,Gorad Astraunoj,Iokanga,Iokanka,Murmansk-140,Ostrovnij,Ostrovnoi,Ostrovnoj,Ostrovnojus,Ostrovnoy,Ostrownoj,Osztrovnoj,Yokan'ga,Yokan’ga,awstrfwnwy,awstrwnwfnwy  awblast mwrmansk,Горад Астраўной,Иоканга,Островний,Островной,Островној,أوسترفونوي,اوسترونوفنوی، اوبلاست مورمانسک","latitude":"68.05306","longitude":"39.51306","feature_class":"P","feature_code":"PPL","country_code":"RU","cc2":"","admin1_code":"49","admin2_code":"","admin3_code":"","admin4_code":"","population":"4746","elevation":"","dem":"2","timezone":"Europe/Moscow","modification_date":"2012-01-17"},{"geonameid":"556275","name":"Inzhavino","asciiname":"Inzhavino","alternatenames":"Inshawino,Inzhavino,Inzjavino,Инжавино","latitude":"52.31847","longitude":"42.49369","feature_class":"P","feature_code":"PPL","country_code":"RU","cc2":"","admin1_code":"72","admin2_code":"","admin3_code":"","admin4_code":"","population":"10278","elevation":"","dem":"130","timezone":"Europe/Moscow","modification_date":"2012-01-17"},{"geonameid":"556279","name":"Inzer","asciiname":"Inzer","alternatenames":"Inzer,Inzerskiy Zavod,Инзер","latitude":"54.2167","longitude":"57.5556","feature_class":"P","feature_code":"PPL","country_code":"RU","cc2":"","admin1_code":"08","admin2_code":"","admin3_code":"","admin4_code":"","population":"4388","elevation":"","dem":"282","timezone":"Asia/Yekaterinburg","modification_date":"2012-01-17"},{"geonameid":"556283","name":"Inza","asciiname":"Inza","alternatenames":"Gorad Inza,Insa,Inza,Inzej osh,anza,aynza,yin zha,İnza,Горад Інза,Инза,Инзей ош,إنزا,اینزا,因扎","latitude":"53.85672","longitude":"46.35622","feature_class":"P","feature_code":"PPL","country_code":"RU","cc2":"","admin1_code":"81","admin2_code":"","admin3_code":"","admin4_code":"","population":"19737","elevation":"","dem":"170","timezone":"Europe/Moscow","modification_date":"2012-01-17"},