{"nextFile":"cities.80.json","rows":[{"geonameid":"2524745","name":"Fiumedinisi","asciiname":"Fiumedinisi","alternatenames":"Ciumidinisi,Fiumedinisi","latitude":"38.02596","longitude":"15.38099","feature_class":"P","feature_code":"PPLA3","country_code":"IT","cc2":"","admin1_code":"15","admin2_code":"ME","admin3_code":"083021","admin4_code":"","population":"1198","elevation":"200","dem":"224","timezone":"Europe/Rome","modification_date":"2014-01-16"},{"geonameid":"2524749","name":"Firmo","asciiname":"Firmo","alternatenames":"Ferma,Firmo","latitude":"39.72208","longitude":"16.16344","feature_class":"P","feature_code":"PPLA3","country_code":"IT","cc2":"","admin1_code":"03","admin2_code":"CS","admin3_code":"078054","admin4_code":"","population":"1982","elevation":"370","dem":"375","timezone":"Europe/Rome","modification_date":"2014-04-13"},{"geonameid":"2524750","name":"Finale","asciiname":"Finale","alternatenames":"Finale","latitude":"38.01891","longitude":"14.16151","feature_class":"P","feature_code":"PPL","country_code":"IT","cc2":"","admin1_code":"15","admin2_code":"PA","admin3_code":"082059","admin4_code":"","population":"1792","elevation":"35","dem":"50","timezone":"Europe/Rome","modification_date":"2014-04-13"},{"geonameid":"2524751","name":"Filogaso","asciiname":"Filogaso","alternatenames":"Filogaso","latitude":"38.68287","longitude":"16.22584","feature_class":"P","feature_code":"PPLA3","country_code":"IT","cc2":"","admin1_code":"03","admin2_code":"VV","admin3_code":"102013","admin4_code":"","population":"1353","elevation":"283","dem":"282","timezone":"Europe/Rome","modification_date":"2014-04-13"},{"geonameid":"2524758","name":"Filadelfia","asciiname":"Filadelfia","alternatenames":"Filadelfia,firaderufia,フィラデルフィア","latitude":"38.78468","longitude":"16.292","feature_class":"P","feature_code":"PPLA3","country_code":"IT","cc2":"","admin1_code":"03","admin2_code":"VV","admin3_code":"102011","admin4_code":"","population":"2644","elevation":"570","dem":"583","timezone":"Europe/Rome","modification_date":"2014-01-11"},{"geonameid":"2524764","name":"Ficarra","asciiname":"Ficarra","alternatenames":"Ficarra","latitude":"38.10849","longitude":"14.8299","feature_class":"P","feature_code":"PPLA3","country_code":"IT","cc2":"","admin1_code":"15","admin2_code":"ME","admin3_code":"083020","admin4_code":"","population":"793","elevation":"450","dem":"451","timezone":"Europe/Rome","modification_date":"2014-04-13"},{"geonameid":"2524765","name":"Ficarazzi","asciiname":"Ficarazzi","alternatenames":"Ficarazzi","latitude":"38.09229","longitude":"13.4639","feature_class":"P","feature_code":"PPLA3","country_code":"IT","cc2":"","admin1_code":"15","admin2_code":"PA","admin3_code":"082035","admin4_code":"","population":"11356","elevation":"23","dem":"17","timezone":"Europe/Rome","modification_date":"2014-04-13"},{"geonameid":"2524769","name":"Ferruzzano","asciiname":"Ferruzzano","alternatenames":"Ferruccano,Ferrutianum,Ferruzzano,Ferruzzano vald,Ferruzzanu,Ferucano,fei lu zha nuo,ferruttsu~ano,fyrwzanw,Ферруццано,Феруцано,Ֆերուցանո,فيروزانو,フェッルッツァーノ,费鲁扎诺","latitude":"38.03699","longitude":"16.08918","feature_class":"P","feature_code":"PPLA3","country_code":"IT","cc2":"","admin1_code":"03","admin2_code":"RC","admin3_code":"080033","admin4_code":"","population":"302","elevation":"470","dem":"398","timezone":"Europe/Rome","modification_date":"2014-04-13"},{"geonameid":"2524774","name":"Feroleto della Chiesa","asciiname":"Feroleto della Chiesa","alternatenames":"Feroleto,Feroleto della Chiesa","latitude":"38.46609","longitude":"16.07012","feature_class":"P","feature_code":"PPLA3","country_code":"IT","cc2":"","admin1_code":"03","admin2_code":"RC","admin3_code":"080032","admin4_code":"","population":"1709","elevation":"159","dem":"165","timezone":"Europe/Rome","modification_date":"2014-04-13"},{"geonameid":"2524775","name":"Ferla","asciiname":"Ferla","alternatenames":"Ferla,ferura,フェルラ","latitude":"37.11978","longitude":"14.93881","feature_class":"P","feature_code":"PPLA3","country_code":"IT","cc2":"","admin1_code":"15","admin2_code":"SR","admin3_code":"089008","admin4_code":"","population":"2488","elevation":"556","dem":"555","timezone":"Europe/Rome","modification_date":"2014-04-13"},{"geonameid":"2524777","name":"Felline","asciiname":"Felline","alternatenames":"Felline,Fellini","latitude":"39.93651","longitude":"18.11822","feature_class":"P","feature_code":"PPL","country_code":"IT","cc2":"IT","admin1_code":"13","admin2_code":"LE","admin3_code":"075004","admin4_code":"","population":"1466","elevation":"45","dem":"43","timezone":"Europe/Rome","modification_date":"2014-01-19"},{"geonameid":"2524780","name":"Favignana","asciiname":"Favignana","alternatenames":"Aegusa,Favignana,Favin'jana,Favinana,Favinjana,Favinyana,Isla Favignana,Porto de Favignana,fa wei ni ya na,fafynyana,favu~inyana,fawynyana,paviniana,Фавиньяна,Фавиняна,Фавињана,Фавіньяна,Ֆավինյանա,فافينيانا,فاوینیانا,ფავინიანა,ファヴィニャーナ,法维尼亚纳","latitude":"37.92951","longitude":"12.32958","feature_class":"P","feature_code":"PPLA3","country_code":"IT","cc2":"","admin1_code":"15","admin2_code":"TP","admin3_code":"081009","admin4_code":"","population":"2438","elevation":"6","dem":"17","timezone":"Europe/Rome","modification_date":"2014-04-13"},{"geonameid":"2524786","name":"Favara","asciiname":"Favara","alternatenames":"Favara","latitude":"37.31754","longitude":"13.66226","feature_class":"P","feature_code":"PPLA3","country_code":"IT","cc2":"","admin1_code":"15","admin2_code":"AG","admin3_code":"084017","admin4_code":"","population":"32110","elevation":"338","dem":"317","timezone":"Europe/Rome","modification_date":"2014-01-11"},{"geonameid":"2524792","name":"Faro Superiore","asciiname":"Faro Superiore","alternatenames":"Faro,Faro Superiore","latitude":"38.26794","longitude":"15.58268","feature_class":"P","feature_code":"PPL","country_code":"IT","cc2":"IT","admin1_code":"15","admin2_code":"ME","admin3_code":"083048","admin4_code":"","population":"2586","elevation":"388","dem":"167","timezone":"Europe/Rome","modification_date":"2014-04-13"},{"geonameid":"2524800","name":"Falerna","asciiname":"Falerna","alternatenames":"Falerna","latitude":"39.00298","longitude":"16.17151","feature_class":"P","feature_code":"PPLA3","country_code":"IT","cc2":"","admin1_code":"03","admin2_code":"CZ","admin3_code":"079047","admin4_code":"","population":"988","elevation":"550","dem":"588","timezone":"Europe/Rome","modification_date":"2014-04-13"},{"geonameid":"2524801","name":"Falcone","asciiname":"Falcone","alternatenames":"Falcone,Falcuni","latitude":"38.11698","longitude":"15.07965","feature_class":"P","feature_code":"PPLA3","country_code":"IT","cc2":"","admin1_code":"15","admin2_code":"ME","admin3_code":"083019","admin4_code":"","population":"2506","elevation":"3","dem":"6","timezone":"Europe/Rome","modification_date":"2014-04-13"},{"geonameid":"2524802","name":"Falconara Albanese","asciiname":"Falconara Albanese","alternatenames":"Falconara,Falconara Albanese,Fallkunara","latitude":"39.27524","longitude":"16.08819","feature_class":"P","feature_code":"PPLA3","country_code":"IT","cc2":"","admin1_code":"03","admin2_code":"CS","admin3_code":"078052","admin4_code":"","population":"495","elevation":"602","dem":"603","timezone":"Europe/Rome","modification_date":"2014-04-13"},{"geonameid":"2524805","name":"Fagnano Castello","asciiname":"Fagnano Castello","alternatenames":"Fagnano Castello","latitude":"39.5716","longitude":"16.06253","feature_class":"P","feature_code":"PPLA3","country_code":"IT","cc2":"","admin1_code":"03","admin2_code":"CS","admin3_code":"078051","admin4_code":"","population":"3439","elevation":"516","dem":"478","timezone":"Europe/Rome","modification_date":"2014-04-13"},{"geonameid":"2524808","name":"Fabrizia","asciiname":"Fabrizia","alternatenames":"Fabrizia","latitude":"38.48989","longitude":"16.29832","feature_class":"P","feature_code":"PPLA3","country_code":"IT","cc2":"","admin1_code":"03","admin2_code":"VV","admin3_code":"102010","admin4_code":"","population":"2251","elevation":"947","dem":"940","timezone":"Europe/Rome","modification_date":"2014-04-13"},{"geonameid":"2524811","name":"Esterzili","asciiname":"Esterzili","alternatenames":"Esterzili","latitude":"39.78041","longitude":"9.28357","feature_class":"P","feature_code":"PPLA3","country_code":"IT","cc2":"","admin1_code":"14","admin2_code":"CA","admin3_code":"092112","admin4_code":"","population":"716","elevation":"731","dem":"710","timezone":"Europe/Rome","modification_date":"2014-04-13"},{"geonameid":"2524813","name":"Escolca","asciiname":"Escolca","alternatenames":"Escolca","latitude":"39.69861","longitude":"9.12139","feature_class":"P","feature_code":"PPLA3","country_code":"IT","cc2":"","admin1_code":"14","admin2_code":"CA","admin3_code":"092111","admin4_code":"","population":"624","elevation":"416","dem":"407","timezone":"Europe/Rome","modification_date":"2014-01-11"},{"geonameid":"2524814","name":"Escalaplano","asciiname":"Escalaplano","alternatenames":"Escalaplano","latitude":"39.62574","longitude":"9.3535","feature_class":"P","feature_code":"PPLA3","country_code":"IT","cc2":"","admin1_code":"14","admin2_code":"CA","admin3_code":"092110","admin4_code":"","population":"2220","elevation":"338","dem":"346","timezone":"Europe/Rome","modification_date":"2014-04-13"},{"geonameid":"2524815","name":"Erice","asciiname":"Erice","alternatenames":"Ehriche,Erice,Erici,Mont Eryx,Mont Éryx,Monte San Giuliano,Èrici,Эриче","latitude":"38.03785","longitude":"12.58778","feature_class":"P","feature_code":"PPLA3","country_code":"IT","cc2":"","admin1_code":"15","admin2_code":"TP","admin3_code":"081008","admin4_code":"","population":"565","elevation":"751","dem":"762","timezone":"Europe/Rome","modification_date":"2014-04-13"},{"geonameid":"2524819","name":"Enna","asciiname":"Enna","alternatenames":"Castrugiuvanni,Ehnna,Ena,Enna,Haenna,en'na,Ена,Энна,אנה,エンナ","latitude":"37.5655","longitude":"14.27433","feature_class":"P","feature_code":"PPLA2","country_code":"IT","cc2":"","admin1_code":"15","admin2_code":"EN","admin3_code":"086009","admin4_code":"","population":"22998","elevation":"931","dem":"935","timezone":"Europe/Rome","modification_date":"2015-07-09"},{"geonameid":"2524820","name":"Elmas","asciiname":"Elmas","alternatenames":"Elmas","latitude":"39.26878","longitude":"9.05021","feature_class":"P","feature_code":"PPLA3","country_code":"IT","cc2":"","admin1_code":"14","admin2_code":"CA","admin3_code":"092108","admin4_code":"","population":"8025","elevation":"7","dem":"8","timezone":"Europe/Rome","modification_date":"2014-04-13"},{"geonameid":"2524821","name":"Elini","asciiname":"Elini","alternatenames":"Elini","latitude":"39.89952","longitude":"9.53198","feature_class":"P","feature_code":"PPLA3","country_code":"IT","cc2":"","admin1_code":"14","admin2_code":"OG","admin3_code":"105005","admin4_code":"","population":"384","elevation":"472","dem":"476","timezone":"Europe/Rome","modification_date":"2014-04-13"},{"geonameid":"2524829","name":"Drapia","asciiname":"Drapia","alternatenames":"Drapia","latitude":"38.66612","longitude":"15.91122","feature_class":"P","feature_code":"PPLA3","country_code":"IT","cc2":"","admin1_code":"03","admin2_code":"VV","admin3_code":"102009","admin4_code":"","population":"203","elevation":"262","dem":"257","timezone":"Europe/Rome","modification_date":"2014-04-13"},{"geonameid":"2524830","name":"Doria","asciiname":"Doria","alternatenames":"","latitude":"39.73042","longitude":"16.35597","feature_class":"P","feature_code":"PPL","country_code":"IT","cc2":"","admin1_code":"03","admin2_code":"CS","admin3_code":"078029","admin4_code":"","population":"1173","elevation":"54","dem":"53","timezone":"Europe/Rome","modification_date":"2014-01-11"},{"geonameid":"2524831","name":"Donorì","asciiname":"Donori","alternatenames":"Donori,Donorì,Donoti","latitude":"39.43182","longitude":"9.12674","feature_class":"P","feature_code":"PPLA3","country_code":"IT","cc2":"","admin1_code":"14","admin2_code":"CA","admin3_code":"092020","admin4_code":"","population":"1736","elevation":"142","dem":"153","timezone":"Europe/Rome","modification_date":"2014-04-13"},{"geonameid":"2524833","name":"Donnici Inferiore","asciiname":"Donnici Inferiore","alternatenames":"","latitude":"39.2502","longitude":"16.29307","feature_class":"P","feature_code":"PPL","country_code":"IT","cc2":"","admin1_code":"03","admin2_code":"CS","admin3_code":"078045","admin4_code":"","population":"1178","elevation":"492","dem":"490","timezone":"Europe/Rome","modification_date":"2014-01-11"},{"geonameid":"2524835","name":"Donnalucata","asciiname":"Donnalucata","alternatenames":"","latitude":"36.76117","longitude":"14.64022","feature_class":"P","feature_code":"PPL","country_code":"IT","cc2":"","admin1_code":"15","admin2_code":"RG","admin3_code":"088011","admin4_code":"","population":"3172","elevation":"10","dem":"7","timezone":"Europe/Rome","modification_date":"2014-01-19"},{"geonameid":"2524839","name":"Donigala Fenugheddu","asciiname":"Donigala Fenugheddu","alternatenames":"Donigala","latitude":"39.93501","longitude":"8.57311","feature_class":"P","feature_code":"PPL","country_code":"IT","cc2":"IT","admin1_code":"14","admin2_code":"OR","admin3_code":"095038","admin4_code":"","population":"1275","elevation":"","dem":"10","timezone":"Europe/Rome","modification_date":"2014-05-04"},{"geonameid":"2524841","name":"Domusnovas","asciiname":"Domusnovas","alternatenames":"Domusnovas","latitude":"39.32404","longitude":"8.64921","feature_class":"P","feature_code":"PPLA3","country_code":"IT","cc2":"","admin1_code":"14","admin2_code":"CI","admin3_code":"107005","admin4_code":"","population":"6178","elevation":"152","dem":"148","timezone":"Europe/Rome","modification_date":"2014-04-13"},{"geonameid":"2524842","name":"Domus de Maria","asciiname":"Domus de Maria","alternatenames":"Domus de Maria","latitude":"38.94451","longitude":"8.8625","feature_class":"P","feature_code":"PPLA3","country_code":"IT","cc2":"","admin1_code":"14","admin2_code":"CA","admin3_code":"092018","admin4_code":"","population":"1015","elevation":"66","dem":"73","timezone":"Europe/Rome","modification_date":"2014-04-13"},{"geonameid":"2524843","name":"Domanico","asciiname":"Domanico","alternatenames":"Domanico","latitude":"39.21693","longitude":"16.20721","feature_class":"P","feature_code":"PPLA3","country_code":"IT","cc2":"","admin1_code":"03","admin2_code":"CS","admin3_code":"078050","admin4_code":"","population":"590","elevation":"730","dem":"749","timezone":"Europe/Rome","modification_date":"2014-04-13"},{"geonameid":"2524844","name":"Dolianova","asciiname":"Dolianova","alternatenames":"Dolianova","latitude":"39.37791","longitude":"9.17697","feature_class":"P","feature_code":"PPLA3","country_code":"IT","cc2":"","admin1_code":"14","admin2_code":"CA","admin3_code":"092017","admin4_code":"","population":"8778","elevation":"212","dem":"225","timezone":"Europe/Rome","modification_date":"2014-04-13"},{"geonameid":"2524849","name":"Diso","asciiname":"Diso","alternatenames":"Diso","latitude":"40.00915","longitude":"18.39144","feature_class":"P","feature_code":"PPLA3","country_code":"IT","cc2":"","admin1_code":"13","admin2_code":"LE","admin3_code":"075027","admin4_code":"","population":"1143","elevation":"99","dem":"98","timezone":"Europe/Rome","modification_date":"2014-04-13"},{"geonameid":"2524852","name":"Dinami","asciiname":"Dinami","alternatenames":"Dinami","latitude":"38.53136","longitude":"16.14461","feature_class":"P","feature_code":"PPLA3","country_code":"IT","cc2":"","admin1_code":"03","admin2_code":"VV","admin3_code":"102008","admin4_code":"","population":"800","elevation":"260","dem":"289","timezone":"Europe/Rome","modification_date":"2014-04-13"},{"geonameid":"2524856","name":"Diamante","asciiname":"Diamante","alternatenames":"","latitude":"39.6807","longitude":"15.82168","feature_class":"P","feature_code":"PPLA3","country_code":"IT","cc2":"","admin1_code":"03","admin2_code":"CS","admin3_code":"078048","admin4_code":"","population":"3101","elevation":"25","dem":"43","timezone":"Europe/Rome","modification_date":"2014-04-13"},{"geonameid":"2524859","name":"Depressa","asciiname":"Depressa","alternatenames":"Depressa","latitude":"39.95908","longitude":"18.36174","feature_class":"P","feature_code":"PPL","country_code":"IT","cc2":"","admin1_code":"13","admin2_code":"LE","admin3_code":"075088","admin4_code":"","population":"1503","elevation":"108","dem":"105","timezone":"Europe/Rome","modification_date":"2014-02-01"},{"geonameid":"2524861","name":"Delianuova","asciiname":"Delianuova","alternatenames":"Delianova,Delianuova","latitude":"38.23587","longitude":"15.91714","feature_class":"P","feature_code":"PPLA3","country_code":"IT","cc2":"","admin1_code":"03","admin2_code":"RC","admin3_code":"080031","admin4_code":"","population":"3436","elevation":"600","dem":"617","timezone":"Europe/Rome","modification_date":"2014-04-13"},{"geonameid":"2524862","name":"Delia","asciiname":"Delia","alternatenames":"Delia","latitude":"37.35796","longitude":"13.92867","feature_class":"P","feature_code":"PPLA3","country_code":"IT","cc2":"","admin1_code":"15","admin2_code":"CL","admin3_code":"085006","admin4_code":"","population":"4191","elevation":"420","dem":"438","timezone":"Europe/Rome","modification_date":"2014-04-13"},{"geonameid":"2524863","name":"Decollatura","asciiname":"Decollatura","alternatenames":"Decollatura","latitude":"39.04645","longitude":"16.35753","feature_class":"P","feature_code":"PPLA3","country_code":"IT","cc2":"","admin1_code":"03","admin2_code":"CZ","admin3_code":"079043","admin4_code":"","population":"2452","elevation":"765","dem":"778","timezone":"Europe/Rome","modification_date":"2014-05-04"},{"geonameid":"2524864","name":"Decimoputzu","asciiname":"Decimoputzu","alternatenames":"Decimoputzu","latitude":"39.33522","longitude":"8.9144","feature_class":"P","feature_code":"PPLA3","country_code":"IT","cc2":"","admin1_code":"14","admin2_code":"CA","admin3_code":"092016","admin4_code":"","population":"3840","elevation":"17","dem":"16","timezone":"Europe/Rome","modification_date":"2014-04-13"},{"geonameid":"2524865","name":"Decimomannu","asciiname":"Decimomannu","alternatenames":"DCI,Decimomannu,Decimontanne,Decimontanno","latitude":"39.31033","longitude":"8.96964","feature_class":"P","feature_code":"PPLA3","country_code":"IT","cc2":"","admin1_code":"14","admin2_code":"CA","admin3_code":"092015","admin4_code":"","population":"7168","elevation":"10","dem":"11","timezone":"Europe/Rome","modification_date":"2014-04-13"},{"geonameid":"2524866","name":"Davoli","asciiname":"Davoli","alternatenames":"Davoli","latitude":"38.64904","longitude":"16.48764","feature_class":"P","feature_code":"PPLA3","country_code":"IT","cc2":"","admin1_code":"03","admin2_code":"CZ","admin3_code":"079042","admin4_code":"","population":"1016","elevation":"401","dem":"406","timezone":"Europe/Rome","modification_date":"2014-04-13"},{"geonameid":"2524868","name":"Dasà","asciiname":"Dasa","alternatenames":"Dasa,Dasà,Daza,da sa,dasa,Даза,Դազա,ダサ,達薩","latitude":"38.56514","longitude":"16.19521","feature_class":"P","feature_code":"PPLA3","country_code":"IT","cc2":"","admin1_code":"03","admin2_code":"VV","admin3_code":"102007","admin4_code":"","population":"1272","elevation":"258","dem":"253","timezone":"Europe/Rome","modification_date":"2014-04-13"},{"geonameid":"2524869","name":"Cutro","asciiname":"Cutro","alternatenames":"Cutro","latitude":"39.03484","longitude":"16.98658","feature_class":"P","feature_code":"PPLA3","country_code":"IT","cc2":"","admin1_code":"03","admin2_code":"KR","admin3_code":"101012","admin4_code":"","population":"7977","elevation":"220","dem":"222","timezone":"Europe/Rome","modification_date":"2014-04-13"},{"geonameid":"2524870","name":"Custonaci","asciiname":"Custonaci","alternatenames":"Castonaci,Custonaci,Custunaci","latitude":"38.07931","longitude":"12.68571","feature_class":"P","feature_code":"PPLA3","country_code":"IT","cc2":"","admin1_code":"15","admin2_code":"TP","admin3_code":"081007","admin4_code":"","population":"3910","elevation":"186","dem":"203","timezone":"Europe/Rome","modification_date":"2014-04-13"},{"geonameid":"2524872","name":"Curinga","asciiname":"Curinga","alternatenames":"Curinga,Curinga a Maida,Curinga a Máida","latitude":"38.82811","longitude":"16.31344","feature_class":"P","feature_code":"PPL","country_code":"IT","cc2":"","admin1_code":"03","admin2_code":"CZ","admin3_code":"079039","admin4_code":"","population":"2590","elevation":"380","dem":"433","timezone":"Europe/Rome","modification_date":"2014-05-20"},{"geonameid":"2524873","name":"Curcuris","asciiname":"Curcuris","alternatenames":"Curcuris","latitude":"39.74625","longitude":"8.83154","feature_class":"P","feature_code":"PPLA3","country_code":"IT","cc2":"","admin1_code":"14","admin2_code":"OR","admin3_code":"095077","admin4_code":"","population":"313","elevation":"130","dem":"136","timezone":"Europe/Rome","modification_date":"2014-04-13"},{"geonameid":"2524880","name":"Crucoli","asciiname":"Crucoli","alternatenames":"","latitude":"39.42713","longitude":"17.00281","feature_class":"P","feature_code":"PPLA3","country_code":"IT","cc2":"","admin1_code":"03","admin2_code":"KR","admin3_code":"101011","admin4_code":"","population":"774","elevation":"380","dem":"318","timezone":"Europe/Rome","modification_date":"2014-04-13"},{"geonameid":"2524881","name":"Crotone","asciiname":"Crotone","alternatenames":"CRV,Cotrone,Croto,Croton,Crotona,Cutroni,Kroton,Krotona,Krotonas,Krotone,Krotono,Krotonė,ke luo tuo nei,keulotone,kor tone,krwtwn,krwtwny,kurotone,qrwtwnh,Κρότωνας,Кротон,Кротоне,קרוטונה,كروتوني,کروتون,โกรโตเน,クロトーネ,克羅托內,크로토네","latitude":"39.08077","longitude":"17.12764","feature_class":"P","feature_code":"PPLA2","country_code":"IT","cc2":"","admin1_code":"03","admin2_code":"KR","admin3_code":"101010","admin4_code":"","population":"48704","elevation":"8","dem":"12","timezone":"Europe/Rome","modification_date":"2015-08-19"},{"geonameid":"2524882","name":"Crosia","asciiname":"Crosia","alternatenames":"Crosia,Crosta","latitude":"39.56822","longitude":"16.77126","feature_class":"P","feature_code":"PPLA3","country_code":"IT","cc2":"","admin1_code":"03","admin2_code":"CS","admin3_code":"078047","admin4_code":"","population":"505","elevation":"230","dem":"193","timezone":"Europe/Rome","modification_date":"2014-04-13"},{"geonameid":"2524883","name":"Cropani","asciiname":"Cropani","alternatenames":"Cropani","latitude":"38.9669","longitude":"16.78022","feature_class":"P","feature_code":"PPLA3","country_code":"IT","cc2":"","admin1_code":"03","admin2_code":"CZ","admin3_code":"079036","admin4_code":"","population":"1456","elevation":"347","dem":"327","timezone":"Europe/Rome","modification_date":"2014-04-13"},{"geonameid":"2524884","name":"Cropalati","asciiname":"Cropalati","alternatenames":"Cropalati","latitude":"39.51673","longitude":"16.72674","feature_class":"P","feature_code":"PPLA3","country_code":"IT","cc2":"","admin1_code":"03","admin2_code":"CS","admin3_code":"078046","admin4_code":"","population":"1097","elevation":"384","dem":"355","timezone":"Europe/Rome","modification_date":"2014-04-13"},{"geonameid":"2524894","name":"Crichi","asciiname":"Crichi","alternatenames":"","latitude":"38.95296","longitude":"16.64178","feature_class":"P","feature_code":"PPLA3","country_code":"IT","cc2":"","admin1_code":"03","admin2_code":"CZ","admin3_code":"079133","admin4_code":"","population":"2176","elevation":"465","dem":"423","timezone":"Europe/Rome","modification_date":"2014-04-13"},{"geonameid":"2524901","name":"Cotronei","asciiname":"Cotronei","alternatenames":"Cotronei","latitude":"39.15935","longitude":"16.77688","feature_class":"P","feature_code":"PPLA3","country_code":"IT","cc2":"","admin1_code":"03","admin2_code":"KR","admin3_code":"101009","admin4_code":"","population":"5121","elevation":"502","dem":"558","timezone":"Europe/Rome","modification_date":"2014-04-13"},{"geonameid":"2524904","name":"Cosoleto","asciiname":"Cosoleto","alternatenames":"Cosoleto","latitude":"38.27483","longitude":"15.92814","feature_class":"P","feature_code":"PPLA3","country_code":"IT","cc2":"","admin1_code":"03","admin2_code":"RC","admin3_code":"080030","admin4_code":"","population":"399","elevation":"440","dem":"440","timezone":"Europe/Rome","modification_date":"2014-04-13"},{"geonameid":"2524907","name":"Cosenza","asciiname":"Cosenza","alternatenames":"Cosenza,Cusenza,Kozenca,QCS,kozentsu~a,Козенца,コゼンツァ","latitude":"39.2989","longitude":"16.25307","feature_class":"P","feature_code":"PPLA2","country_code":"IT","cc2":"","admin1_code":"03","admin2_code":"CS","admin3_code":"078045","admin4_code":"","population":"63852","elevation":"238","dem":"245","timezone":"Europe/Rome","modification_date":"2015-08-25"},{"geonameid":"2524915","name":"Cortale","asciiname":"Cortale","alternatenames":"Cortale","latitude":"38.84009","longitude":"16.4096","feature_class":"P","feature_code":"PPLA3","country_code":"IT","cc2":"","admin1_code":"03","admin2_code":"CZ","admin3_code":"079034","admin4_code":"","population":"2002","elevation":"410","dem":"428","timezone":"Europe/Rome","modification_date":"2014-01-11"},{"geonameid":"2524918","name":"Corsano","asciiname":"Corsano","alternatenames":"Corsano","latitude":"39.88911","longitude":"18.36747","feature_class":"P","feature_code":"PPLA3","country_code":"IT","cc2":"","admin1_code":"13","admin2_code":"LE","admin3_code":"075024","admin4_code":"","population":"5526","elevation":"121","dem":"126","timezone":"Europe/Rome","modification_date":"2014-04-13"},{"geonameid":"2524928","name":"Corleone","asciiname":"Corleone","alternatenames":"Corleone,Curliuni,Korleone,Korleonė,korureone,Κορλεόνε,Корлеоне,קורלאונה,コルレオーネ","latitude":"37.81338","longitude":"13.3017","feature_class":"P","feature_code":"PPLA3","country_code":"IT","cc2":"","admin1_code":"15","admin2_code":"PA","admin3_code":"082034","admin4_code":"","population":"10290","elevation":"550","dem":"558","timezone":"Europe/Rome","modification_date":"2014-03-22"},{"geonameid":"2524929","name":"Corigliano Calabro","asciiname":"Corigliano Calabro","alternatenames":"Corigliano Calabro,コリリアーノ・カーラブロ","latitude":"39.59553","longitude":"16.51907","feature_class":"P","feature_code":"PPLA3","country_code":"IT","cc2":"","admin1_code":"03","admin2_code":"CS","admin3_code":"078044","admin4_code":"","population":"5402","elevation":"210","dem":"179","timezone":"Europe/Rome","modification_date":"2014-04-13"},{"geonameid":"2524940","name":"Contessa Entellina","asciiname":"Contessa Entellina","alternatenames":"Contessa Entellina,Cuntissa","latitude":"37.73005","longitude":"13.18425","feature_class":"P","feature_code":"PPLA3","country_code":"IT","cc2":"","admin1_code":"15","admin2_code":"PA","admin3_code":"082033","admin4_code":"","population":"1754","elevation":"571","dem":"530","timezone":"Europe/Rome","modification_date":"2014-04-13"},{"geonameid":"2524946","name":"Condrò","asciiname":"Condro","alternatenames":"Condro,Condrò,Cundro,Cundrò","latitude":"38.17375","longitude":"15.3266","feature_class":"P","feature_code":"PPLA3","country_code":"IT","cc2":"","admin1_code":"15","admin2_code":"ME","admin3_code":"083018","admin4_code":"","population":"402","elevation":"58","dem":"83","timezone":"Europe/Rome","modification_date":"2014-04-13"},{"geonameid":"2524949","name":"Condofuri","asciiname":"Condofuri","alternatenames":"Condofuri,Kontocori","latitude":"38.00447","longitude":"15.8577","feature_class":"P","feature_code":"PPLA3","country_code":"IT","cc2":"","admin1_code":"03","admin2_code":"RC","admin3_code":"080029","admin4_code":"","population":"237","elevation":"339","dem":"335","timezone":"Europe/Rome","modification_date":"2014-01-19"},{"geonameid":"2524954","name":"Comitini","asciiname":"Comitini","alternatenames":"Comitini,Cumitini","latitude":"37.40735","longitude":"13.6453","feature_class":"P","feature_code":"PPLA3","country_code":"IT","cc2":"","admin1_code":"15","admin2_code":"AG","admin3_code":"084016","admin4_code":"","population":"897","elevation":"350","dem":"342","timezone":"Europe/Rome","modification_date":"2014-04-13"},{"geonameid":"2524955","name":"Comiso","asciiname":"Comiso","alternatenames":"CIY,Comiso,Comisu,Commisu,Còmisu,Còmmisu,Komizo,komizo,Комизо,コーミゾ","latitude":"36.94893","longitude":"14.60731","feature_class":"P","feature_code":"PPLA3","country_code":"IT","cc2":"","admin1_code":"15","admin2_code":"RG","admin3_code":"088003","admin4_code":"","population":"26298","elevation":"209","dem":"204","timezone":"Europe/Rome","modification_date":"2015-07-12"},{"geonameid":"2524957","name":"Colosimi","asciiname":"Colosimi","alternatenames":"Colosimi","latitude":"39.11911","longitude":"16.39909","feature_class":"P","feature_code":"PPLA3","country_code":"IT","cc2":"","admin1_code":"03","admin2_code":"CS","admin3_code":"078043","admin4_code":"","population":"438","elevation":"850","dem":"869","timezone":"Europe/Rome","modification_date":"2014-04-13"},{"geonameid":"2524963","name":"Collinas","asciiname":"Collinas","alternatenames":"Collinas","latitude":"39.64059","longitude":"8.83955","feature_class":"P","feature_code":"PPLA3","country_code":"IT","cc2":"","admin1_code":"14","admin2_code":"VS","admin3_code":"106003","admin4_code":"","population":"884","elevation":"249","dem":"258","timezone":"Europe/Rome","modification_date":"2014-04-13"},{"geonameid":"2524964","name":"Collesano","asciiname":"Collesano","alternatenames":"Collesano,Gulisanu","latitude":"37.91809","longitude":"13.93702","feature_class":"P","feature_code":"PPLA3","country_code":"IT","cc2":"","admin1_code":"15","admin2_code":"PA","admin3_code":"082032","admin4_code":"","population":"3409","elevation":"468","dem":"488","timezone":"Europe/Rome","modification_date":"2014-04-13"},{"geonameid":"2524973","name":"Cleto","asciiname":"Cleto","alternatenames":"Cleto","latitude":"39.09019","longitude":"16.15839","feature_class":"P","feature_code":"PPLA3","country_code":"IT","cc2":"","admin1_code":"03","admin2_code":"CS","admin3_code":"078042","admin4_code":"","population":"255","elevation":"250","dem":"266","timezone":"Europe/Rome","modification_date":"2014-01-11"},{"geonameid":"2524975","name":"Civita","asciiname":"Civita","alternatenames":"Cifti,Civita","latitude":"39.82804","longitude":"16.31337","feature_class":"P","feature_code":"PPLA3","country_code":"IT","cc2":"","admin1_code":"03","admin2_code":"CS","admin3_code":"078041","admin4_code":"","population":"903","elevation":"450","dem":"426","timezone":"Europe/Rome","modification_date":"2014-04-13"},{"geonameid":"2524976","name":"Cittanova","asciiname":"Cittanova","alternatenames":"Casale Novum,Chitanova,Chittanova,Cittanova,chittanovu~a,qi ta nuo wa,tshtanwfa,Читанова,Читтанова,Չիտանովա,تشتانوفا,チッタノーヴァ,奇塔诺瓦","latitude":"38.35431","longitude":"16.07898","feature_class":"P","feature_code":"PPLA3","country_code":"IT","cc2":"","admin1_code":"03","admin2_code":"RC","admin3_code":"080028","admin4_code":"","population":"9368","elevation":"400","dem":"409","timezone":"Europe/Rome","modification_date":"2014-04-13"},{"geonameid":"2524977","name":"Cittadella del Capo","asciiname":"Cittadella del Capo","alternatenames":"Cittadella di Capo Bonifati","latitude":"39.55932","longitude":"15.87602","feature_class":"P","feature_code":"PPL","country_code":"IT","cc2":"IT","admin1_code":"03","admin2_code":"CS","admin3_code":"078019","admin4_code":"","population":"1163","elevation":"23","dem":"32","timezone":"Europe/Rome","modification_date":"2014-01-11"},{"geonameid":"2524979","name":"Cirò Marina","asciiname":"Ciro Marina","alternatenames":"Ciro Marina,Cirò Marina,Marina di Ciro","latitude":"39.36876","longitude":"17.12477","feature_class":"P","feature_code":"PPLA3","country_code":"IT","cc2":"","admin1_code":"03","admin2_code":"KR","admin3_code":"101008","admin4_code":"","population":"14840","elevation":"5","dem":"8","timezone":"Europe/Rome","modification_date":"2014-04-13"},{"geonameid":"2524980","name":"Cirò","asciiname":"Ciro","alternatenames":"Ciro,Cirò","latitude":"39.38297","longitude":"17.06377","feature_class":"P","feature_code":"PPLA3","country_code":"IT","cc2":"","admin1_code":"03","admin2_code":"KR","admin3_code":"101007","admin4_code":"","population":"2936","elevation":"351","dem":"260","timezone":"Europe/Rome","modification_date":"2014-04-13"},{"geonameid":"2524985","name":"Cinque Frondi","asciiname":"Cinque Frondi","alternatenames":"Cinquefrondi","latitude":"38.41618","longitude":"16.0842","feature_class":"P","feature_code":"PPLA3","country_code":"IT","cc2":"","admin1_code":"03","admin2_code":"RC","admin3_code":"080027","admin4_code":"","population":"5988","elevation":"","dem":"235","timezone":"Europe/Rome","modification_date":"2014-05-01"},{"geonameid":"2524987","name":"Cinisi","asciiname":"Cinisi","alternatenames":"Cinisi","latitude":"38.16082","longitude":"13.10099","feature_class":"P","feature_code":"PPLA3","country_code":"IT","cc2":"","admin1_code":"15","admin2_code":"PA","admin3_code":"082031","admin4_code":"","population":"11704","elevation":"75","dem":"50","timezone":"Europe/Rome","modification_date":"2014-04-13"},{"geonameid":"2524989","name":"Ciminna","asciiname":"Ciminna","alternatenames":"Ciminna","latitude":"37.89765","longitude":"13.55966","feature_class":"P","feature_code":"PPLA3","country_code":"IT","cc2":"","admin1_code":"15","admin2_code":"PA","admin3_code":"082030","admin4_code":"","population":"3340","elevation":"530","dem":"473","timezone":"Europe/Rome","modification_date":"2014-04-13"},{"geonameid":"2524990","name":"Ciminà","asciiname":"Cimina","alternatenames":"Cimina,Ciminà","latitude":"38.24618","longitude":"16.14023","feature_class":"P","feature_code":"PPLA3","country_code":"IT","cc2":"","admin1_code":"03","admin2_code":"RC","admin3_code":"080026","admin4_code":"","population":"507","elevation":"312","dem":"304","timezone":"Europe/Rome","modification_date":"2014-04-13"},{"geonameid":"2524992","name":"Cicala","asciiname":"Cicala","alternatenames":"Cicala","latitude":"39.02219","longitude":"16.4861","feature_class":"P","feature_code":"PPLA3","country_code":"IT","cc2":"","admin1_code":"03","admin2_code":"CZ","admin3_code":"079030","admin4_code":"","population":"990","elevation":"829","dem":"858","timezone":"Europe/Rome","modification_date":"2014-01-11"},{"geonameid":"2524994","name":"Ciavolo","asciiname":"Ciavolo","alternatenames":"","latitude":"37.77943","longitude":"12.53774","feature_class":"P","feature_code":"PPL","country_code":"IT","cc2":"","admin1_code":"15","admin2_code":"TP","admin3_code":"081011","admin4_code":"","population":"1682","elevation":"127","dem":"126","timezone":"Europe/Rome","modification_date":"2014-01-11"},{"geonameid":"2524999","name":"Cianciana","asciiname":"Cianciana","alternatenames":"Cianciana","latitude":"37.51896","longitude":"13.43349","feature_class":"P","feature_code":"PPLA3","country_code":"IT","cc2":"","admin1_code":"15","admin2_code":"AG","admin3_code":"084015","admin4_code":"","population":"3375","elevation":"390","dem":"379","timezone":"Europe/Rome","modification_date":"2014-04-13"},{"geonameid":"2525003","name":"Chiusa Sclafani","asciiname":"Chiusa Sclafani","alternatenames":"Chiusa,Chiusa Sclafani,Sclafani","latitude":"37.67692","longitude":"13.27074","feature_class":"P","feature_code":"PPLA3","country_code":"IT","cc2":"","admin1_code":"15","admin2_code":"PA","admin3_code":"082029","admin4_code":"","population":"2656","elevation":"658","dem":"625","timezone":"Europe/Rome","modification_date":"2014-04-13"},{"geonameid":"2525009","name":"Chiaravalle Centrale","asciiname":"Chiaravalle Centrale","alternatenames":"Chiaravalle Centrale","latitude":"38.67936","longitude":"16.40864","feature_class":"P","feature_code":"PPLA3","country_code":"IT","cc2":"","admin1_code":"03","admin2_code":"CZ","admin3_code":"079029","admin4_code":"","population":"3795","elevation":"545","dem":"537","timezone":"Europe/Rome","modification_date":"2014-04-13"},{"geonameid":"2525010","name":"Chiaramonte Gulfi","asciiname":"Chiaramonte Gulfi","alternatenames":"Chiaramonte Gulfi,Ciaramunti,キアラモンテ・グルフィ","latitude":"37.0305","longitude":"14.70302","feature_class":"P","feature_code":"PPLA3","country_code":"IT","cc2":"","admin1_code":"15","admin2_code":"RG","admin3_code":"088002","admin4_code":"","population":"4676","elevation":"668","dem":"677","timezone":"Europe/Rome","modification_date":"2014-04-13"},{"geonameid":"2525012","name":"Cetraro","asciiname":"Cetraro","alternatenames":"Cetraro","latitude":"39.5166","longitude":"15.94158","feature_class":"P","feature_code":"PPLA3","country_code":"IT","cc2":"","admin1_code":"03","admin2_code":"CS","admin3_code":"078040","admin4_code":"","population":"1555","elevation":"120","dem":"138","timezone":"Europe/Rome","modification_date":"2014-01-11"},{"geonameid":"2525014","name":"Cessaniti","asciiname":"Cessaniti","alternatenames":"Cessaniti,Cessanti","latitude":"38.66395","longitude":"16.02959","feature_class":"P","feature_code":"PPLA3","country_code":"IT","cc2":"","admin1_code":"03","admin2_code":"VV","admin3_code":"102006","admin4_code":"","population":"687","elevation":"428","dem":"421","timezone":"Europe/Rome","modification_date":"2014-04-13"},{"geonameid":"2525015","name":"Cesarò","asciiname":"Cesaro","alternatenames":"Cesaro,Cesarò,Chezaro,Чезаро","latitude":"37.84476","longitude":"14.71308","feature_class":"P","feature_code":"PPLA3","country_code":"IT","cc2":"","admin1_code":"15","admin2_code":"ME","admin3_code":"083017","admin4_code":"","population":"2345","elevation":"1150","dem":"1145","timezone":"Europe/Rome","modification_date":"2014-01-16"},{"geonameid":"2525016","name":"Cerzeto","asciiname":"Cerzeto","alternatenames":"Cerzeto,Qana","latitude":"39.50789","longitude":"16.11603","feature_class":"P","feature_code":"PPLA3","country_code":"IT","cc2":"","admin1_code":"03","admin2_code":"CS","admin3_code":"078039","admin4_code":"","population":"655","elevation":"450","dem":"450","timezone":"Europe/Rome","modification_date":"2014-04-13"},{"geonameid":"2525017","name":"Cervicati","asciiname":"Cervicati","alternatenames":"Cervicati,Cervikati","latitude":"39.54237","longitude":"16.12682","feature_class":"P","feature_code":"PPLA3","country_code":"IT","cc2":"","admin1_code":"03","admin2_code":"CS","admin3_code":"078038","admin4_code":"","population":"436","elevation":"485","dem":"475","timezone":"Europe/Rome","modification_date":"2014-04-13"},{"geonameid":"2525019","name":"Cerva","asciiname":"Cerva","alternatenames":"Cerva","latitude":"39.02397","longitude":"16.74538","feature_class":"P","feature_code":"PPLA3","country_code":"IT","cc2":"","admin1_code":"03","admin2_code":"CZ","admin3_code":"079027","admin4_code":"","population":"1258","elevation":"800","dem":"842","timezone":"Europe/Rome","modification_date":"2014-04-13"},{"geonameid":"2525023","name":"Cerisano","asciiname":"Cerisano","alternatenames":"Cerisano","latitude":"39.27715","longitude":"16.17654","feature_class":"P","feature_code":"PPLA3","country_code":"IT","cc2":"","admin1_code":"03","admin2_code":"CS","admin3_code":"078037","admin4_code":"","population":"2493","elevation":"610","dem":"588","timezone":"Europe/Rome","modification_date":"2014-04-13"},{"geonameid":"2525025","name":"Cerenzia","asciiname":"Cerenzia","alternatenames":"Cerenzia","latitude":"39.24554","longitude":"16.78758","feature_class":"P","feature_code":"PPLA3","country_code":"IT","cc2":"","admin1_code":"03","admin2_code":"KR","admin3_code":"101006","admin4_code":"","population":"1188","elevation":"664","dem":"625","timezone":"Europe/Rome","modification_date":"2014-04-13"},{"geonameid":"2525026","name":"Cerda","asciiname":"Cerda","alternatenames":"Cerda","latitude":"37.90578","longitude":"13.81496","feature_class":"P","feature_code":"PPLA3","country_code":"IT","cc2":"","admin1_code":"15","admin2_code":"PA","admin3_code":"082028","admin4_code":"","population":"5129","elevation":"274","dem":"291","timezone":"Europe/Rome","modification_date":"2014-04-13"},{"geonameid":"2525027","name":"Cerchiara di Calabria","asciiname":"Cerchiara di Calabria","alternatenames":"Cerchiara di Calabria","latitude":"39.85978","longitude":"16.38368","feature_class":"P","feature_code":"PPLA3","country_code":"IT","cc2":"","admin1_code":"03","admin2_code":"CS","admin3_code":"078036","admin4_code":"","population":"1084","elevation":"650","dem":"685","timezone":"Europe/Rome","modification_date":"2014-04-13"},{"geonameid":"2525030","name":"Ceramida-Pellegrina","asciiname":"Ceramida-Pellegrina","alternatenames":"","latitude":"38.29667","longitude":"15.82572","feature_class":"P","feature_code":"PPL","country_code":"IT","cc2":"","admin1_code":"03","admin2_code":"RC","admin3_code":"080086","admin4_code":"","population":"1418","elevation":"","dem":"373","timezone":"Europe/Rome","modification_date":"2014-05-17"},{"geonameid":"2525031","name":"Cerami","asciiname":"Cerami","alternatenames":"Cerami,Cirami","latitude":"37.80953","longitude":"14.5066","feature_class":"P","feature_code":"PPLA3","country_code":"IT","cc2":"","admin1_code":"15","admin2_code":"EN","admin3_code":"086008","admin4_code":"","population":"1995","elevation":"970","dem":"951","timezone":"Europe/Rome","modification_date":"2014-04-13"},{"geonameid":"2525032","name":"Centuripe","asciiname":"Centuripe","alternatenames":"Centorvu,Centuripe","latitude":"37.62336","longitude":"14.74049","feature_class":"P","feature_code":"PPLA3","country_code":"IT","cc2":"","admin1_code":"15","admin2_code":"EN","admin3_code":"086007","admin4_code":"","population":"4910","elevation":"730","dem":"683","timezone":"Europe/Rome","modification_date":"2014-04-13"},{"geonameid":"2525034","name":"Centrache","asciiname":"Centrache","alternatenames":"Centrache","latitude":"38.72872","longitude":"16.43101","feature_class":"P","feature_code":"PPLA3","country_code":"IT","cc2":"","admin1_code":"03","admin2_code":"CZ","admin3_code":"079025","admin4_code":"","population":"358","elevation":"458","dem":"461","timezone":"Europe/Rome","modification_date":"2014-04-13"},{"geonameid":"2525036","name":"Cenadi","asciiname":"Cenadi","alternatenames":"Cenadi","latitude":"38.71934","longitude":"16.41582","feature_class":"P","feature_code":"PPLA3","country_code":"IT","cc2":"","admin1_code":"03","admin2_code":"CZ","admin3_code":"079024","admin4_code":"","population":"504","elevation":"539","dem":"524","timezone":"Europe/Rome","modification_date":"2014-04-13"},{"geonameid":"2525037","name":"Cellara","asciiname":"Cellara","alternatenames":"Cellara","latitude":"39.21849","longitude":"16.3348","feature_class":"P","feature_code":"PPLA3","country_code":"IT","cc2":"","admin1_code":"03","admin2_code":"CS","admin3_code":"078035","admin4_code":"","population":"371","elevation":"750","dem":"762","timezone":"Europe/Rome","modification_date":"2014-01-11"},{"geonameid":"2525038","name":"Celico","asciiname":"Celico","alternatenames":"Celico","latitude":"39.31009","longitude":"16.33989","feature_class":"P","feature_code":"PPLA3","country_code":"IT","cc2":"","admin1_code":"03","admin2_code":"CS","admin3_code":"078034","admin4_code":"","population":"2218","elevation":"750","dem":"757","timezone":"Europe/Rome","modification_date":"2014-01-11"},{"geonameid":"2525041","name":"Cefalù","asciiname":"Cefalu","alternatenames":"Cefalas,Cefalu,Cefalù,Cefalú,Cifalu,Cifalù,z'plw,צ'פלו","latitude":"38.03856","longitude":"14.02285","feature_class":"P","feature_code":"PPLA3","country_code":"IT","cc2":"","admin1_code":"15","admin2_code":"PA","admin3_code":"082027","admin4_code":"","population":"11613","elevation":"16","dem":"42","timezone":"Europe/Rome","modification_date":"2014-01-16"},{"geonameid":"2525043","name":"Cefalà Diana","asciiname":"Cefala Diana","alternatenames":"Cefala,Cefala Diana,Cefalà Diana,Cifala Diana,Cifalà Diana","latitude":"37.91565","longitude":"13.46325","feature_class":"P","feature_code":"PPLA3","country_code":"IT","cc2":"","admin1_code":"15","admin2_code":"PA","admin3_code":"082026","admin4_code":"","population":"641","elevation":"563","dem":"575","timezone":"Europe/Rome","modification_date":"2014-01-16"},{"geonameid":"2525051","name":"Cava d'Aliga","asciiname":"Cava d'Aliga","alternatenames":"","latitude":"36.72964","longitude":"14.69031","feature_class":"P","feature_code":"PPL","country_code":"IT","cc2":"","admin1_code":"15","admin2_code":"RG","admin3_code":"088011","admin4_code":"","population":"1663","elevation":"","dem":"34","timezone":"Europe/Rome","modification_date":"2014-05-01"},{"geonameid":"2525053","name":"Caulonia","asciiname":"Caulonia","alternatenames":"Caulonia","latitude":"38.38171","longitude":"16.40951","feature_class":"P","feature_code":"PPLA3","country_code":"IT","cc2":"","admin1_code":"03","admin2_code":"RC","admin3_code":"080025","admin4_code":"","population":"1337","elevation":"300","dem":"260","timezone":"Europe/Rome","modification_date":"2014-04-13"},{"geonameid":"2525054","name":"Cattolica Eraclea","asciiname":"Cattolica Eraclea","alternatenames":"Catolica Eraclia,Cattolica,Cattolica Eraclea,Cattolica Eraclia,Catòlica Eraclìa","latitude":"37.44069","longitude":"13.39265","feature_class":"P","feature_code":"PPLA3","country_code":"IT","cc2":"","admin1_code":"15","admin2_code":"AG","admin3_code":"084014","admin4_code":"","population":"3909","elevation":"180","dem":"168","timezone":"Europe/Rome","modification_date":"2014-04-13"},{"geonameid":"2525057","name":"Catenanuova","asciiname":"Catenanuova","alternatenames":"Cantagnenuova","latitude":"37.56876","longitude":"14.69076","feature_class":"P","feature_code":"PPLA3","country_code":"IT","cc2":"","admin1_code":"15","admin2_code":"EN","admin3_code":"086006","admin4_code":"","population":"4447","elevation":"170","dem":"179","timezone":"Europe/Rome","modification_date":"2014-04-13"},{"geonameid":"2525059","name":"Catanzaro","asciiname":"Catanzaro","alternatenames":"Catanzara,Catanzaro,Catanzaru,Katandzaro,QCZ,katantsu~aro,Катандзаро,カタンツァーロ","latitude":"38.88247","longitude":"16.60086","feature_class":"P","feature_code":"PPLA","country_code":"IT","cc2":"","admin1_code":"03","admin2_code":"CZ","admin3_code":"079023","admin4_code":"","population":"78970","elevation":"320","dem":"103","timezone":"Europe/Rome","modification_date":"2014-04-13"},{"geonameid":"2525068","name":"Catania","asciiname":"Catania","alternatenames":"CTA,Catane,Catania,Catina,Catània,Catânia,Katane,Katania,Katanija,Katānija,katania,katanya,qtnyh,Κατάνη,Катания,Катанија,קטניה,كاتانيا,კატანია,カターニア","latitude":"37.49223","longitude":"15.07041","feature_class":"P","feature_code":"PPLA2","country_code":"IT","cc2":"","admin1_code":"15","admin2_code":"CT","admin3_code":"087015","admin4_code":"","population":"290927","elevation":"7","dem":"40","timezone":"Europe/Rome","modification_date":"2014-04-13"},{"geonameid":"2525070","name":"Castrovillari","asciiname":"Castrovillari","alternatenames":"Castrovillari,Kastrovillari,Кастровиллари","latitude":"39.81632","longitude":"16.20183","feature_class":"P","feature_code":"PPLA3","country_code":"IT","cc2":"","admin1_code":"03","admin2_code":"CS","admin3_code":"078033","admin4_code":"","population":"20334","elevation":"362","dem":"382","timezone":"Europe/Rome","modification_date":"2015-08-01"},{"geonameid":"2525071","name":"Castroregio","asciiname":"Castroregio","alternatenames":"Castroregio,Kasternexhi","latitude":"39.9922","longitude":"16.47846","feature_class":"P","feature_code":"PPLA3","country_code":"IT","cc2":"","admin1_code":"03","admin2_code":"CS","admin3_code":"078032","admin4_code":"","population":"244","elevation":"819","dem":"807","timezone":"Europe/Rome","modification_date":"2014-04-13"},{"geonameid":"2525073","name":"Castroreale","asciiname":"Castroreale","alternatenames":"Castroreale,Castruriali","latitude":"38.09857","longitude":"15.21012","feature_class":"P","feature_code":"PPLA3","country_code":"IT","cc2":"","admin1_code":"15","admin2_code":"ME","admin3_code":"083016","admin4_code":"","population":"663","elevation":"394","dem":"368","timezone":"Europe/Rome","modification_date":"2014-04-13"},{"geonameid":"2525074","name":"Castronuovo di Sicilia","asciiname":"Castronuovo di Sicilia","alternatenames":"Castronovo di Sicilia,Castronuovo,Castrunovu","latitude":"37.67894","longitude":"13.60346","feature_class":"P","feature_code":"PPLA3","country_code":"IT","cc2":"","admin1_code":"15","admin2_code":"PA","admin3_code":"082025","admin4_code":"","population":"2808","elevation":"","dem":"677","timezone":"Europe/Rome","modification_date":"2014-05-01"},{"geonameid":"2525075","name":"Castrolibero","asciiname":"Castrolibero","alternatenames":"Castrolibero","latitude":"39.31002","longitude":"16.19453","feature_class":"P","feature_code":"PPLA3","country_code":"IT","cc2":"","admin1_code":"03","admin2_code":"CS","admin3_code":"078031","admin4_code":"","population":"369","elevation":"559","dem":"513","timezone":"Europe/Rome","modification_date":"2014-04-13"},{"geonameid":"2525076","name":"Castrofilippo","asciiname":"Castrofilippo","alternatenames":"Castrofilippo,Castrufilippu","latitude":"37.35046","longitude":"13.75001","feature_class":"P","feature_code":"PPLA3","country_code":"IT","cc2":"","admin1_code":"15","admin2_code":"AG","admin3_code":"084013","admin4_code":"","population":"2895","elevation":"470","dem":"488","timezone":"Europe/Rome","modification_date":"2014-01-11"},{"geonameid":"2525077","name":"Castrignano del Capo","asciiname":"Castrignano del Capo","alternatenames":"Castignano del Capo,Castrignano del Capo","latitude":"39.8328","longitude":"18.35087","feature_class":"P","feature_code":"PPLA3","country_code":"IT","cc2":"IT","admin1_code":"13","admin2_code":"LE","admin3_code":"075019","admin4_code":"","population":"3350","elevation":"121","dem":"123","timezone":"Europe/Rome","modification_date":"2014-04-13"},{"geonameid":"2525078","name":"Castiglione","asciiname":"Castiglione","alternatenames":"Castiglione,Castiglione d'Otranto","latitude":"39.98333","longitude":"18.35","feature_class":"P","feature_code":"PPL","country_code":"IT","cc2":"","admin1_code":"13","admin2_code":"LE","admin3_code":"075005","admin4_code":"","population":"1228","elevation":"109","dem":"116","timezone":"Europe/Rome","modification_date":"2014-05-01"},{"geonameid":"2525079","name":"Castiglione di Sicilia","asciiname":"Castiglione di Sicilia","alternatenames":"Castigghiuni di Sicilia,Castiglione di Sicilia","latitude":"37.8815","longitude":"15.12156","feature_class":"P","feature_code":"PPLA3","country_code":"IT","cc2":"","admin1_code":"15","admin2_code":"CT","admin3_code":"087014","admin4_code":"","population":"1817","elevation":"621","dem":"561","timezone":"Europe/Rome","modification_date":"2014-04-13"},{"geonameid":"2525080","name":"Castiglione Cosentino","asciiname":"Castiglione Cosentino","alternatenames":"Castiglione,Castiglione Cosentino","latitude":"39.35271","longitude":"16.28821","feature_class":"P","feature_code":"PPLA3","country_code":"IT","cc2":"","admin1_code":"03","admin2_code":"CS","admin3_code":"078030","admin4_code":"","population":"1014","elevation":"400","dem":"384","timezone":"Europe/Rome","modification_date":"2014-04-13"},{"geonameid":"2525082","name":"Castiadas","asciiname":"Castiadas","alternatenames":"Casa di Pena,Castiadas","latitude":"39.23704","longitude":"9.49975","feature_class":"P","feature_code":"PPLA3","country_code":"IT","cc2":"","admin1_code":"14","admin2_code":"CA","admin3_code":"092106","admin4_code":"","population":"55","elevation":"168","dem":"167","timezone":"Europe/Rome","modification_date":"2014-04-13"},{"geonameid":"2525083","name":"Castelvetrano","asciiname":"Castelvetrano","alternatenames":"Castedduvitranu,Castelvetrano,Castelvetranu,Castrum Veteranum,Kastel'vetrano,Kastelvetranas,Kastelvetrano,ka si tai er wei te la nuo,kastl wtranw,kastlftranw,kasuteruvu~etorano,Кастелветрано,Кастельветрано,Կաստելվետրանո,كاستلفترانو,کاستل وترانو,კასტელვეტრანო,カステルヴェトラーノ,卡斯泰尔韦特拉诺","latitude":"37.68081","longitude":"12.79194","feature_class":"P","feature_code":"PPLA3","country_code":"IT","cc2":"","admin1_code":"15","admin2_code":"TP","admin3_code":"081006","admin4_code":"","population":"28072","elevation":"187","dem":"196","timezone":"Europe/Rome","modification_date":"2014-04-13"},{"geonameid":"2525084","name":"Casteltermini","asciiname":"Casteltermini","alternatenames":"Casteltermini","latitude":"37.53874","longitude":"13.64601","feature_class":"P","feature_code":"PPLA3","country_code":"IT","cc2":"","admin1_code":"15","admin2_code":"AG","admin3_code":"084012","admin4_code":"","population":"7350","elevation":"554","dem":"499","timezone":"Europe/Rome","modification_date":"2014-04-13"},{"geonameid":"2525085","name":"Castelmola","asciiname":"Castelmola","alternatenames":"","latitude":"37.85829","longitude":"15.27713","feature_class":"P","feature_code":"PPLA3","country_code":"IT","cc2":"","admin1_code":"15","admin2_code":"ME","admin3_code":"083015","admin4_code":"","population":"475","elevation":"529","dem":"496","timezone":"Europe/Rome","modification_date":"2014-01-16"},{"geonameid":"2525086","name":"Castelluzzo","asciiname":"Castelluzzo","alternatenames":"","latitude":"38.10096","longitude":"12.73599","feature_class":"P","feature_code":"PPL","country_code":"IT","cc2":"","admin1_code":"15","admin2_code":"TP","admin3_code":"081020","admin4_code":"","population":"1047","elevation":"75","dem":"70","timezone":"Europe/Rome","modification_date":"2014-01-11"},{"geonameid":"2525088","name":"Castell'Umberto","asciiname":"Castell'Umberto","alternatenames":"Castania,Castell'Umberto,Castello Umberto","latitude":"38.08626","longitude":"14.80686","feature_class":"P","feature_code":"PPLA3","country_code":"IT","cc2":"IT","admin1_code":"15","admin2_code":"ME","admin3_code":"083014","admin4_code":"","population":"1288","elevation":"660","dem":"646","timezone":"Europe/Rome","modification_date":"2014-04-13"},{"geonameid":"2525089","name":"Castelluccio Inferiore","asciiname":"Castelluccio Inferiore","alternatenames":"Castelluccio,Castelluccio Inferiore","latitude":"40.00151","longitude":"15.98149","feature_class":"P","feature_code":"PPLA3","country_code":"IT","cc2":"","admin1_code":"02","admin2_code":"PZ","admin3_code":"076022","admin4_code":"","population":"1896","elevation":"495","dem":"460","timezone":"Europe/Rome","modification_date":"2014-04-13"},{"geonameid":"2525093","name":"Castellana Sicula","asciiname":"Castellana Sicula","alternatenames":"Castellana,Castellana Sicula,Castiddana","latitude":"37.78686","longitude":"14.03906","feature_class":"P","feature_code":"PPLA3","country_code":"IT","cc2":"","admin1_code":"15","admin2_code":"PA","admin3_code":"082024","admin4_code":"","population":"3178","elevation":"765","dem":"775","timezone":"Europe/Rome","modification_date":"2014-04-13"},{"geonameid":"2525095","name":"Castellammare del Golfo","asciiname":"Castellammare del Golfo","alternatenames":"Casteddammari,Castellammare del Golfo","latitude":"38.02653","longitude":"12.88183","feature_class":"P","feature_code":"PPLA3","country_code":"IT","cc2":"","admin1_code":"15","admin2_code":"TP","admin3_code":"081005","admin4_code":"","population":"13085","elevation":"26","dem":"42","timezone":"Europe/Rome","modification_date":"2015-07-12"},{"geonameid":"2525100","name":"Castel di Lucio","asciiname":"Castel di Lucio","alternatenames":"Castel di Lucio,Castel di Luciu","latitude":"37.88698","longitude":"14.31116","feature_class":"P","feature_code":"PPLA3","country_code":"IT","cc2":"","admin1_code":"15","admin2_code":"ME","admin3_code":"083013","admin4_code":"","population":"1291","elevation":"753","dem":"751","timezone":"Europe/Rome","modification_date":"2014-04-13"},{"geonameid":"2525101","name":"Castel di Judica","asciiname":"Castel di Judica","alternatenames":"Carrulo,Castel di Iudica,Castel di Judica,Giardinelli,Giumarra","latitude":"37.49475","longitude":"14.64744","feature_class":"P","feature_code":"PPLA3","country_code":"IT","cc2":"","admin1_code":"15","admin2_code":"CT","admin3_code":"087013","admin4_code":"","population":"1754","elevation":"475","dem":"461","timezone":"Europe/Rome","modification_date":"2014-05-01"},{"geonameid":"2525102","name":"Casteldaccia","asciiname":"Casteldaccia","alternatenames":"Casteldaccia,Castellatium,Castiddaccia,Kastel'dachcha,Kastel'dachchia,Kasteldacha,ka si tai er da qia,kastldatsha,kasuterudatcha,Кастелдача,Кастельдачча,Кастельдаччиа,Կաստելդաչա,كاستلداتشا,カステルダッチャ,卡斯泰尔达恰","latitude":"38.05121","longitude":"13.53041","feature_class":"P","feature_code":"PPLA3","country_code":"IT","cc2":"","admin1_code":"15","admin2_code":"PA","admin3_code":"082023","admin4_code":"","population":"10091","elevation":"79","dem":"95","timezone":"Europe/Rome","modification_date":"2014-04-13"},{"geonameid":"2525103","name":"Castelbuono","asciiname":"Castelbuono","alternatenames":"Castelbuono,Castiddubbuonu","latitude":"37.9253","longitude":"14.08665","feature_class":"P","feature_code":"PPLA3","country_code":"IT","cc2":"","admin1_code":"15","admin2_code":"PA","admin3_code":"082022","admin4_code":"","population":"7458","elevation":"423","dem":"467","timezone":"Europe/Rome","modification_date":"2014-04-13"},{"geonameid":"2525104","name":"Castanea delle Furie","asciiname":"Castanea delle Furie","alternatenames":"Castanea,Castanea delle Furie","latitude":"38.26165","longitude":"15.52178","feature_class":"P","feature_code":"PPL","country_code":"IT","cc2":"IT","admin1_code":"15","admin2_code":"ME","admin3_code":"083048","admin4_code":"","population":"1888","elevation":"382","dem":"395","timezone":"Europe/Rome","modification_date":"2014-01-19"},{"geonameid":"2525108","name":"Cassibile","asciiname":"Cassibile","alternatenames":"Cassibbili,Cassibile,Cassìbbili,Kasibile,Касибиле","latitude":"36.97862","longitude":"15.20061","feature_class":"P","feature_code":"PPL","country_code":"IT","cc2":"","admin1_code":"15","admin2_code":"SR","admin3_code":"089017","admin4_code":"","population":"4573","elevation":"53","dem":"56","timezone":"Europe/Rome","modification_date":"2014-01-19"},{"geonameid":"2525109","name":"Cassaro","asciiname":"Cassaro","alternatenames":"Cassaro,Cassaru,kassaro,カッサロ","latitude":"37.10571","longitude":"14.94697","feature_class":"P","feature_code":"PPLA3","country_code":"IT","cc2":"","admin1_code":"15","admin2_code":"SR","admin3_code":"089007","admin4_code":"","population":"782","elevation":"550","dem":"552","timezone":"Europe/Rome","modification_date":"2014-04-13"},{"geonameid":"2525110","name":"Cassano Allo Ionio","asciiname":"Cassano Allo Ionio","alternatenames":"Cassano Jonio,Cassano al Jonio,Cassano all'Ionio,Cassano all'Iónio","latitude":"39.78142","longitude":"16.32738","feature_class":"P","feature_code":"PPLA3","country_code":"IT","cc2":"IT","admin1_code":"03","admin2_code":"CS","admin3_code":"078029","admin4_code":"","population":"11560","elevation":"","dem":"164","timezone":"Europe/Rome","modification_date":"2014-04-13"},{"geonameid":"2525113","name":"Casole Bruzio","asciiname":"Casole Bruzio","alternatenames":"Casole Bruzio","latitude":"39.28384","longitude":"16.33193","feature_class":"P","feature_code":"PPLA3","country_code":"IT","cc2":"","admin1_code":"03","admin2_code":"CS","admin3_code":"078028","admin4_code":"","population":"2404","elevation":"647","dem":"696","timezone":"Europe/Rome","modification_date":"2014-04-13"},{"geonameid":"2525120","name":"Casignana","asciiname":"Casignana","alternatenames":"Casignana","latitude":"38.10187","longitude":"16.0899","feature_class":"P","feature_code":"PPLA3","country_code":"IT","cc2":"","admin1_code":"03","admin2_code":"RC","admin3_code":"080024","admin4_code":"","population":"518","elevation":"342","dem":"344","timezone":"Europe/Rome","modification_date":"2014-01-11"},{"geonameid":"2525207","name":"Casarano","asciiname":"Casarano","alternatenames":"Casarano,Casaranu","latitude":"40.01131","longitude":"18.16237","feature_class":"P","feature_code":"PPLA3","country_code":"IT","cc2":"","admin1_code":"13","admin2_code":"LE","admin3_code":"075016","admin4_code":"","population":"19359","elevation":"109","dem":"110","timezone":"Europe/Rome","modification_date":"2015-07-23"},{"geonameid":"2525251","name":"Casalvecchio Siculo","asciiname":"Casalvecchio Siculo","alternatenames":"Casalvecchio,Casalvecchio Siculo,Casalvecchiu Siculu","latitude":"37.9585","longitude":"15.32371","feature_class":"P","feature_code":"PPLA3","country_code":"IT","cc2":"","admin1_code":"15","admin2_code":"ME","admin3_code":"083012","admin4_code":"","population":"423","elevation":"420","dem":"421","timezone":"Europe/Rome","modification_date":"2014-04-13"},{"geonameid":"2525328","name":"Casabona","asciiname":"Casabona","alternatenames":"Casabona","latitude":"39.24951","longitude":"16.95446","feature_class":"P","feature_code":"PPLA3","country_code":"IT","cc2":"","admin1_code":"03","admin2_code":"KR","admin3_code":"101004","admin4_code":"","population":"2469","elevation":"287","dem":"273","timezone":"Europe/Rome","modification_date":"2014-04-13"},{"geonameid":"2525341","name":"Carpanzano","asciiname":"Carpanzano","alternatenames":"Carpanzano","latitude":"39.14817","longitude":"16.30451","feature_class":"P","feature_code":"PPLA3","country_code":"IT","cc2":"","admin1_code":"03","admin2_code":"CS","admin3_code":"078027","admin4_code":"","population":"300","elevation":"600","dem":"590","timezone":"Europe/Rome","modification_date":"2014-04-13"},{"geonameid":"2525342","name":"Marina di Caronia","asciiname":"Marina di Caronia","alternatenames":"Caronia Marina,Marina,Marina di Caronia","latitude":"38.03545","longitude":"14.44182","feature_class":"P","feature_code":"PPL","country_code":"IT","cc2":"IT","admin1_code":"15","admin2_code":"ME","admin3_code":"083011","admin4_code":"","population":"1015","elevation":"20","dem":"17","timezone":"Europe/Rome","modification_date":"2014-04-13"},{"geonameid":"2525344","name":"Caronia","asciiname":"Caronia","alternatenames":"Caronia,Carunia,Carunìa,Karonia,Karonija,ka luo ni ya,karonia,karwnya,Карония,Каронија,Каронія,Կարոնիա,كارونيا,კარონია,カロニーア,卡罗尼亚","latitude":"38.02381","longitude":"14.44142","feature_class":"P","feature_code":"PPLA3","country_code":"IT","cc2":"","admin1_code":"15","admin2_code":"ME","admin3_code":"083011","admin4_code":"","population":"1825","elevation":"304","dem":"266","timezone":"Europe/Rome","modification_date":"2014-04-13"},{"geonameid":"2525346","name":"Carolei","asciiname":"Carolei","alternatenames":"Carolei","latitude":"39.25472","longitude":"16.21979","feature_class":"P","feature_code":"PPLA3","country_code":"IT","cc2":"","admin1_code":"03","admin2_code":"CS","admin3_code":"078026","admin4_code":"","population":"1320","elevation":"624","dem":"622","timezone":"Europe/Rome","modification_date":"2014-04-13"},{"geonameid":"2525347","name":"Carlopoli","asciiname":"Carlopoli","alternatenames":"Carlopoli","latitude":"39.05406","longitude":"16.45455","feature_class":"P","feature_code":"PPLA3","country_code":"IT","cc2":"","admin1_code":"03","admin2_code":"CZ","admin3_code":"079020","admin4_code":"","population":"1003","elevation":"924","dem":"955","timezone":"Europe/Rome","modification_date":"2014-04-13"},{"geonameid":"2525348","name":"Carloforte","asciiname":"Carloforte","alternatenames":"Carloforte","latitude":"39.13469","longitude":"8.29814","feature_class":"P","feature_code":"PPLA3","country_code":"IT","cc2":"","admin1_code":"14","admin2_code":"CI","admin3_code":"107004","admin4_code":"","population":"5560","elevation":"10","dem":"4","timezone":"Europe/Rome","modification_date":"2014-04-13"},{"geonameid":"2525349","name":"Carlentini","asciiname":"Carlentini","alternatenames":"Carlentini,Carlintini,Carruntini,karurentini,カルレンティーニ","latitude":"37.28071","longitude":"15.0102","feature_class":"P","feature_code":"PPLA3","country_code":"IT","cc2":"","admin1_code":"15","admin2_code":"SR","admin3_code":"089006","admin4_code":"","population":"14900","elevation":"200","dem":"134","timezone":"Europe/Rome","modification_date":"2014-04-13"},{"geonameid":"2525350","name":"Carini","asciiname":"Carini","alternatenames":"Carini,Karina,Карина","latitude":"38.1324","longitude":"13.18274","feature_class":"P","feature_code":"PPLA3","country_code":"IT","cc2":"","admin1_code":"15","admin2_code":"PA","admin3_code":"082021","admin4_code":"","population":"35082","elevation":"170","dem":"173","timezone":"Europe/Rome","modification_date":"2015-08-10"},{"geonameid":"2525352","name":"Cariati","asciiname":"Cariati","alternatenames":"Cariati","latitude":"39.49627","longitude":"16.95495","feature_class":"P","feature_code":"PPLA3","country_code":"IT","cc2":"","admin1_code":"03","admin2_code":"CS","admin3_code":"078025","admin4_code":"","population":"8255","elevation":"50","dem":"9","timezone":"Europe/Rome","modification_date":"2014-04-13"},{"geonameid":"2525354","name":"Carfizzi","asciiname":"Carfizzi","alternatenames":"Carfizzi,Karfici","latitude":"39.30771","longitude":"16.97447","feature_class":"P","feature_code":"PPLA3","country_code":"IT","cc2":"","admin1_code":"03","admin2_code":"KR","admin3_code":"101003","admin4_code":"","population":"745","elevation":"512","dem":"501","timezone":"Europe/Rome","modification_date":"2014-04-13"},{"geonameid":"2525357","name":"Careri","asciiname":"Careri","alternatenames":"Careri","latitude":"38.17741","longitude":"16.11614","feature_class":"P","feature_code":"PPLA3","country_code":"IT","cc2":"","admin1_code":"03","admin2_code":"RC","admin3_code":"080023","admin4_code":"","population":"684","elevation":"320","dem":"333","timezone":"Europe/Rome","modification_date":"2014-04-13"},{"geonameid":"2525358","name":"Cardinale","asciiname":"Cardinale","alternatenames":"Cardinale","latitude":"38.65379","longitude":"16.38715","feature_class":"P","feature_code":"PPLA3","country_code":"IT","cc2":"","admin1_code":"03","admin2_code":"CZ","admin3_code":"079018","admin4_code":"","population":"1877","elevation":"562","dem":"562","timezone":"Europe/Rome","modification_date":"2014-04-13"},{"geonameid":"2525360","name":"Cardeto","asciiname":"Cardeto","alternatenames":"Cardeto","latitude":"38.0844","longitude":"15.76577","feature_class":"P","feature_code":"PPLA3","country_code":"IT","cc2":"","admin1_code":"03","admin2_code":"RC","admin3_code":"080022","admin4_code":"","population":"472","elevation":"700","dem":"668","timezone":"Europe/Rome","modification_date":"2014-04-13"},{"geonameid":"2525362","name":"Carbonia","asciiname":"Carbonia","alternatenames":"Carbonia,Carbònia,Karbonija,ka er bo ni ya,karubonia,Карбония,Карбонија,Карбонія,カルボーニア,卡尔博尼亚","latitude":"39.16465","longitude":"8.5213","feature_class":"P","feature_code":"PPLA2","country_code":"IT","cc2":"","admin1_code":"14","admin2_code":"CI","admin3_code":"107003","admin4_code":"","population":"21664","elevation":"111","dem":"94","timezone":"Europe/Rome","modification_date":"2014-04-13"},{"geonameid":"2525369","name":"Caraffa di Catanzaro","asciiname":"Caraffa di Catanzaro","alternatenames":"Caraffa,Caraffa di Catanzaro","latitude":"38.88194","longitude":"16.48675","feature_class":"P","feature_code":"PPLA3","country_code":"IT","cc2":"","admin1_code":"03","admin2_code":"CZ","admin3_code":"079017","admin4_code":"","population":"1452","elevation":"358","dem":"360","timezone":"Europe/Rome","modification_date":"2014-04-13"},{"geonameid":"2525370","name":"Caraffa del Bianco","asciiname":"Caraffa del Bianco","alternatenames":"Caraffa del Bianco,Caraffa del Bianco vald,Carapha,Karafa del Bianko,Karaffa-del'-B'janko,Karaffa-del'-Bjanko,ka la fa de er bi ya en ke,karfa dyl bykanw,Карафа дел Бианко,Караффа-дель-Бьянко,Караффа-дель-Бянко,Կարաֆա դել Բիանկո,كارفا ديل بيكانو,カラッファ・デル・ビアンコ,卡拉法德尔比亚恩科","latitude":"38.09259","longitude":"16.08766","feature_class":"P","feature_code":"PPLA3","country_code":"IT","cc2":"","admin1_code":"03","admin2_code":"RC","admin3_code":"080021","admin4_code":"","population":"515","elevation":"355","dem":"377","timezone":"Europe/Rome","modification_date":"2014-04-13"},{"geonameid":"2525373","name":"Capri Leone","asciiname":"Capri Leone","alternatenames":"Capri Leone,Capri Liuni","latitude":"38.08682","longitude":"14.72959","feature_class":"P","feature_code":"PPLA3","country_code":"IT","cc2":"","admin1_code":"15","admin2_code":"ME","admin3_code":"083010","admin4_code":"","population":"268","elevation":"400","dem":"413","timezone":"Europe/Rome","modification_date":"2014-01-19"},{"geonameid":"2525379","name":"Capoterra","asciiname":"Capoterra","alternatenames":"Cabuderra,Capoterra,Kapoterra,Капотерра","latitude":"39.1752","longitude":"8.97199","feature_class":"P","feature_code":"PPLA3","country_code":"IT","cc2":"","admin1_code":"14","admin2_code":"CA","admin3_code":"092011","admin4_code":"","population":"11255","elevation":"54","dem":"50","timezone":"Europe/Rome","modification_date":"2014-04-13"},{"geonameid":"2525380","name":"Capo Rizzuto","asciiname":"Capo Rizzuto","alternatenames":"Capo Rizzuto,Madonna Greca","latitude":"38.90412","longitude":"17.09872","feature_class":"P","feature_code":"PPL","country_code":"IT","cc2":"IT","admin1_code":"03","admin2_code":"KR","admin3_code":"101013","admin4_code":"","population":"1045","elevation":"","dem":"20","timezone":"Europe/Rome","modification_date":"2014-04-26"},{"geonameid":"2525384","name":"Capo d'Orlando","asciiname":"Capo d'Orlando","alternatenames":"Capo d'Orlando,Capu d'Orlannu","latitude":"38.14262","longitude":"14.73292","feature_class":"P","feature_code":"PPLA3","country_code":"IT","cc2":"","admin1_code":"15","admin2_code":"ME","admin3_code":"083009","admin4_code":"","population":"12038","elevation":"8","dem":"23","timezone":"Europe/Rome","modification_date":"2014-04-13"},{"geonameid":"2525385","name":"Dipignano","asciiname":"Dipignano","alternatenames":"Dipignano","latitude":"39.23869","longitude":"16.25184","feature_class":"P","feature_code":"PPLA3","country_code":"IT","cc2":"","admin1_code":"03","admin2_code":"CS","admin3_code":"078049","admin4_code":"","population":"1252","elevation":"720","dem":"724","timezone":"Europe/Rome","modification_date":"2014-04-13"},{"geonameid":"2525387","name":"Capizzi","asciiname":"Capizzi","alternatenames":"Capizzi","latitude":"37.84788","longitude":"14.47976","feature_class":"P","feature_code":"PPLA3","country_code":"IT","cc2":"","admin1_code":"15","admin2_code":"ME","admin3_code":"083008","admin4_code":"","population":"3182","elevation":"1100","dem":"1117","timezone":"Europe/Rome","modification_date":"2014-04-13"},{"geonameid":"2525388","name":"Capistrano","asciiname":"Capistrano","alternatenames":"Capistrano,Capistranu,Capistronum,Kapistrano,ka pi si te la nuo,kapisutorano,Капистрано,Капістрано,Կապիստրանո,カピストラーノ,卡皮斯特拉诺","latitude":"38.69131","longitude":"16.28935","feature_class":"P","feature_code":"PPLA3","country_code":"IT","cc2":"","admin1_code":"03","admin2_code":"VV","admin3_code":"102005","admin4_code":"","population":"1092","elevation":"352","dem":"354","timezone":"Europe/Rome","modification_date":"2014-04-13"},{"geonameid":"2525392","name":"Capaci","asciiname":"Capaci","alternatenames":"Capaci","latitude":"38.17107","longitude":"13.2393","feature_class":"P","feature_code":"PPLA3","country_code":"IT","cc2":"","admin1_code":"15","admin2_code":"PA","admin3_code":"082020","admin4_code":"","population":"9779","elevation":"51","dem":"52","timezone":"Europe/Rome","modification_date":"2014-01-11"},{"geonameid":"2525395","name":"Canolo","asciiname":"Canolo","alternatenames":"Canolo","latitude":"38.31497","longitude":"16.1999","feature_class":"P","feature_code":"PPLA3","country_code":"IT","cc2":"","admin1_code":"03","admin2_code":"RC","admin3_code":"080020","admin4_code":"","population":"221","elevation":"432","dem":"395","timezone":"Europe/Rome","modification_date":"2014-01-11"},{"geonameid":"2525397","name":"Canneto","asciiname":"Canneto","alternatenames":"","latitude":"38.49505","longitude":"14.96037","feature_class":"P","feature_code":"PPL","country_code":"IT","cc2":"","admin1_code":"15","admin2_code":"ME","admin3_code":"083041","admin4_code":"","population":"2065","elevation":"5","dem":"41","timezone":"Europe/Rome","modification_date":"2014-01-16"},{"geonameid":"2525404","name":"Canicattini Bagni","asciiname":"Canicattini Bagni","alternatenames":"Canicattini,Canicattini Bagni,カニカッティーニ・バーニ","latitude":"37.03171","longitude":"15.06388","feature_class":"P","feature_code":"PPLA3","country_code":"IT","cc2":"","admin1_code":"15","admin2_code":"SR","admin3_code":"089005","admin4_code":"","population":"6893","elevation":"362","dem":"376","timezone":"Europe/Rome","modification_date":"2014-04-13"},{"geonameid":"2525405","name":"Canicattì","asciiname":"Canicatti","alternatenames":"Canicatti,Canicattì","latitude":"37.35842","longitude":"13.84786","feature_class":"P","feature_code":"PPLA3","country_code":"IT","cc2":"","admin1_code":"15","admin2_code":"AG","admin3_code":"084011","admin4_code":"","population":"32918","elevation":"465","dem":"458","timezone":"Europe/Rome","modification_date":"2014-04-13"},{"geonameid":"2525408","name":"Candidoni","asciiname":"Candidoni","alternatenames":"Candidoni,Candidoni vald,Candidonum,Candioni,Kandidoni,kan di duo ni,kandidoni,kandydwny,Кандидони,Кандідоні,Կանդիդոնի,كانديدوني,カンディードニ,坎迪多尼","latitude":"38.50548","longitude":"16.0863","feature_class":"P","feature_code":"PPLA3","country_code":"IT","cc2":"","admin1_code":"03","admin2_code":"RC","admin3_code":"080019","admin4_code":"","population":"268","elevation":"239","dem":"244","timezone":"Europe/Rome","modification_date":"2014-01-11"},{"geonameid":"2525415","name":"Camporeale","asciiname":"Camporeale","alternatenames":"Camporeale,Campuriali","latitude":"37.88612","longitude":"13.10107","feature_class":"P","feature_code":"PPLA3","country_code":"IT","cc2":"","admin1_code":"15","admin2_code":"PA","admin3_code":"082019","admin4_code":"","population":"3382","elevation":"425","dem":"341","timezone":"Europe/Rome","modification_date":"2014-04-13"},{"geonameid":"2525421","name":"Campofranco","asciiname":"Campofranco","alternatenames":"Campofranco,Campufrancu","latitude":"37.51208","longitude":"13.71213","feature_class":"P","feature_code":"PPLA3","country_code":"IT","cc2":"","admin1_code":"15","admin2_code":"CL","admin3_code":"085005","admin4_code":"","population":"2755","elevation":"350","dem":"282","timezone":"Europe/Rome","modification_date":"2014-04-13"},{"geonameid":"2525422","name":"Campofiorito","asciiname":"Campofiorito","alternatenames":"Campofiorito,Campuciurutu","latitude":"37.75374","longitude":"13.26875","feature_class":"P","feature_code":"PPLA3","country_code":"IT","cc2":"","admin1_code":"15","admin2_code":"PA","admin3_code":"082018","admin4_code":"","population":"1232","elevation":"666","dem":"662","timezone":"Europe/Rome","modification_date":"2014-01-11"},{"geonameid":"2525423","name":"Campofelice di Roccella","asciiname":"Campofelice di Roccella","alternatenames":"Campofelice,Campofelice Roccella,Campofelice di Roccella,La Ruccedda","latitude":"37.9927","longitude":"13.87648","feature_class":"P","feature_code":"PPLA3","country_code":"IT","cc2":"","admin1_code":"15","admin2_code":"PA","admin3_code":"082017","admin4_code":"","population":"5914","elevation":"2","dem":"8","timezone":"Europe/Rome","modification_date":"2014-04-13"},{"geonameid":"2525424","name":"Campofelice di Fitalia","asciiname":"Campofelice di Fitalia","alternatenames":"Campo Felice,Campofelice di Fitalia,Campufilici di Fitalia","latitude":"37.82686","longitude":"13.48572","feature_class":"P","feature_code":"PPLA3","country_code":"IT","cc2":"","admin1_code":"15","admin2_code":"PA","admin3_code":"082016","admin4_code":"","population":"544","elevation":"734","dem":"740","timezone":"Europe/Rome","modification_date":"2014-04-13"},{"geonameid":"2525425","name":"Campobello di Mazara","asciiname":"Campobello di Mazara","alternatenames":"Campobello di Mazara,Campobello di Mazzara,Campubbeddu","latitude":"37.63464","longitude":"12.74946","feature_class":"P","feature_code":"PPLA3","country_code":"IT","cc2":"","admin1_code":"15","admin2_code":"TP","admin3_code":"081004","admin4_code":"","population":"9883","elevation":"110","dem":"109","timezone":"Europe/Rome","modification_date":"2014-04-13"},{"geonameid":"2525426","name":"Campobello di Licata","asciiname":"Campobello di Licata","alternatenames":"Campobello di Licata,Campubbeddu,Campubeddu","latitude":"37.25759","longitude":"13.91811","feature_class":"P","feature_code":"PPLA3","country_code":"IT","cc2":"","admin1_code":"15","admin2_code":"AG","admin3_code":"084010","admin4_code":"","population":"10047","elevation":"316","dem":"323","timezone":"Europe/Rome","modification_date":"2014-04-13"},{"geonameid":"2525430","name":"Campana","asciiname":"Campana","alternatenames":"","latitude":"39.4136","longitude":"16.8222","feature_class":"P","feature_code":"PPLA3","country_code":"IT","cc2":"","admin1_code":"03","admin2_code":"CS","admin3_code":"078023","admin4_code":"","population":"1953","elevation":"612","dem":"620","timezone":"Europe/Rome","modification_date":"2014-01-11"},{"geonameid":"2525433","name":"Cammarata","asciiname":"Cammarata","alternatenames":"Cammarata","latitude":"37.63361","longitude":"13.62722","feature_class":"P","feature_code":"PPLA3","country_code":"IT","cc2":"","admin1_code":"15","admin2_code":"AG","admin3_code":"084009","admin4_code":"","population":"5646","elevation":"682","dem":"867","timezone":"Europe/Rome","modification_date":"2014-04-13"},{"geonameid":"2525434","name":"Camini","asciiname":"Camini","alternatenames":"Camini,Caminium,Kamini,ka mi ni,kamini,kamyny,Камини,Каміні,Կամինի,كاميني,カミーニ,卡米尼","latitude":"38.43179","longitude":"16.48321","feature_class":"P","feature_code":"PPLA3","country_code":"IT","cc2":"","admin1_code":"03","admin2_code":"RC","admin3_code":"080017","admin4_code":"","population":"458","elevation":"300","dem":"295","timezone":"Europe/Rome","modification_date":"2014-04-13"},{"geonameid":"2525441","name":"Camastra","asciiname":"Camastra","alternatenames":"Camastra,Camastra ex Solfara","latitude":"37.2538","longitude":"13.79211","feature_class":"P","feature_code":"PPLA3","country_code":"IT","cc2":"","admin1_code":"15","admin2_code":"AG","admin3_code":"084008","admin4_code":"","population":"2090","elevation":"340","dem":"349","timezone":"Europe/Rome","modification_date":"2014-04-13"},{"geonameid":"2525445","name":"Caltavuturo","asciiname":"Caltavuturo","alternatenames":"Caltavuturo,Caltavuturu","latitude":"37.8204","longitude":"13.89158","feature_class":"P","feature_code":"PPLA3","country_code":"IT","cc2":"","admin1_code":"15","admin2_code":"PA","admin3_code":"082015","admin4_code":"","population":"4033","elevation":"635","dem":"641","timezone":"Europe/Rome","modification_date":"2014-04-13"},{"geonameid":"2525448","name":"Caltanissetta","asciiname":"Caltanissetta","alternatenames":"Caltanisetta,Caltanissetta,Kal'tanissetta,Nissa,QCL,karutanissetta,qltnysth,Кальтаниссетта,קלטניסטה,カルタニッセッタ","latitude":"37.49025","longitude":"14.06216","feature_class":"P","feature_code":"PPLA2","country_code":"IT","cc2":"","admin1_code":"15","admin2_code":"CL","admin3_code":"085004","admin4_code":"","population":"56715","elevation":"568","dem":"579","timezone":"Europe/Rome","modification_date":"2015-08-21"},{"geonameid":"2525450","name":"Caltagirone","asciiname":"Caltagirone","alternatenames":"Caltaggiruni,Caltagirone,Kal'tadzhirone,karutajirone,Кальтаджироне,カルタジローネ","latitude":"37.23785","longitude":"14.51551","feature_class":"P","feature_code":"PPLA3","country_code":"IT","cc2":"","admin1_code":"15","admin2_code":"CT","admin3_code":"087011","admin4_code":"","population":"35371","elevation":"608","dem":"509","timezone":"Europe/Rome","modification_date":"2015-08-10"},{"geonameid":"2525451","name":"Caltabellotta","asciiname":"Caltabellotta","alternatenames":"Caltabellotta,Cataviddotta","latitude":"37.57543","longitude":"13.21632","feature_class":"P","feature_code":"PPLA3","country_code":"IT","cc2":"","admin1_code":"15","admin2_code":"AG","admin3_code":"084007","admin4_code":"","population":"3267","elevation":"949","dem":"782","timezone":"Europe/Rome","modification_date":"2014-04-13"},{"geonameid":"2525452","name":"Caloveto","asciiname":"Caloveto","alternatenames":"Caloveto","latitude":"39.50656","longitude":"16.76065","feature_class":"P","feature_code":"PPLA3","country_code":"IT","cc2":"","admin1_code":"03","admin2_code":"CS","admin3_code":"078022","admin4_code":"","population":"1283","elevation":"385","dem":"368","timezone":"Europe/Rome","modification_date":"2014-04-13"},{"geonameid":"2525453","name":"Caloppezzati","asciiname":"Caloppezzati","alternatenames":"Calopezzati","latitude":"39.5612","longitude":"16.8018","feature_class":"P","feature_code":"PPLA3","country_code":"IT","cc2":"","admin1_code":"03","admin2_code":"CS","admin3_code":"078021","admin4_code":"","population":"598","elevation":"","dem":"209","timezone":"Europe/Rome","modification_date":"2014-05-04"},{"geonameid":"2525458","name":"Calatafimi","asciiname":"Calatafimi","alternatenames":"","latitude":"37.9144","longitude":"12.86364","feature_class":"P","feature_code":"PPLA3","country_code":"IT","cc2":"","admin1_code":"15","admin2_code":"TP","admin3_code":"081003","admin4_code":"","population":"4572","elevation":"338","dem":"349","timezone":"Europe/Rome","modification_date":"2014-04-13"},{"geonameid":"2525459","name":"Calatabiano","asciiname":"Calatabiano","alternatenames":"Calatabiano,Calatabianu","latitude":"37.82049","longitude":"15.23069","feature_class":"P","feature_code":"PPLA3","country_code":"IT","cc2":"","admin1_code":"15","admin2_code":"CT","admin3_code":"087010","admin4_code":"","population":"4102","elevation":"60","dem":"55","timezone":"Europe/Rome","modification_date":"2014-04-13"},{"geonameid":"2525460","name":"Calasetta","asciiname":"Calasetta","alternatenames":"Calasetta","latitude":"39.10697","longitude":"8.36803","feature_class":"P","feature_code":"PPLA3","country_code":"IT","cc2":"","admin1_code":"14","admin2_code":"CI","admin3_code":"107002","admin4_code":"","population":"2331","elevation":"9","dem":"28","timezone":"Europe/Rome","modification_date":"2014-04-13"},{"geonameid":"2525461","name":"Calascibetta","asciiname":"Calascibetta","alternatenames":"Calascibetta,karashibetta,カラシベッタ","latitude":"37.59024","longitude":"14.2718","feature_class":"P","feature_code":"PPLA3","country_code":"IT","cc2":"","admin1_code":"15","admin2_code":"EN","admin3_code":"086005","admin4_code":"","population":"3167","elevation":"691","dem":"825","timezone":"Europe/Rome","modification_date":"2014-04-13"},{"geonameid":"2525464","name":"Calanna","asciiname":"Calanna","alternatenames":"Calanna,Kalana,Kalanna,ka lan na,kalana,karan'na,Калана,Каланна,Կալաննա,كالانا,カランナ,卡兰纳","latitude":"38.18457","longitude":"15.72293","feature_class":"P","feature_code":"PPLA3","country_code":"IT","cc2":"","admin1_code":"03","admin2_code":"RC","admin3_code":"080016","admin4_code":"","population":"214","elevation":"511","dem":"543","timezone":"Europe/Rome","modification_date":"2014-04-13"},{"geonameid":"2525465","name":"Calamonaci","asciiname":"Calamonaci","alternatenames":"Calamonaci","latitude":"37.52566","longitude":"13.29053","feature_class":"P","feature_code":"PPLA3","country_code":"IT","cc2":"","admin1_code":"15","admin2_code":"AG","admin3_code":"084006","admin4_code":"","population":"1375","elevation":"307","dem":"312","timezone":"Europe/Rome","modification_date":"2014-04-13"},{"geonameid":"2525473","name":"Cagliari","asciiname":"Cagliari","alternatenames":"CAG,Cagliari,Cajari,Caliari,Caller,Caralis,Casteddu,Castel,Castèl,Càgliari,Càliari,Càller,Cáller,Gorad Kal'jary,Kagliari,Kal'jari,Kalari,Kaliari,Kaljari,Kaljaris,Kaljaro,Kaljāri,Kalyari,Lungsod ng Cagliari,ka li ya li,kagali'ari,kagliyari,kaglyary,kal ya ri,kaliyari,kalliali,kalyary,karyari,Κάλιαρι,Горад Кальяры,Кальяри,Кальярі,Каляри,Каљари,Կալիարի,קליארי,كالياري,کالیاری,کاگلیاری,कगलिआरी,काग्लियारी,கலியாரி,กาลยารี,კალიარი,カリャリ,卡利亚里,卡利亞里,칼리아리","latitude":"39.23054","longitude":"9.11917","feature_class":"P","feature_code":"PPLA","country_code":"IT","cc2":"","admin1_code":"14","admin2_code":"CA","admin3_code":"092009","admin4_code":"","population":"149257","elevation":"6","dem":"41","timezone":"Europe/Rome","modification_date":"2014-05-01"},{"geonameid":"2525475","name":"Caccuri","asciiname":"Caccuri","alternatenames":"Caccuri","latitude":"39.22562","longitude":"16.77767","feature_class":"P","feature_code":"PPLA3","country_code":"IT","cc2":"","admin1_code":"03","admin2_code":"KR","admin3_code":"101002","admin4_code":"","population":"1211","elevation":"646","dem":"632","timezone":"Europe/Rome","modification_date":"2014-04-13"},{"geonameid":"2525476","name":"Caccamo","asciiname":"Caccamo","alternatenames":"","latitude":"37.93357","longitude":"13.66808","feature_class":"P","feature_code":"PPLA3","country_code":"IT","cc2":"","admin1_code":"15","admin2_code":"PA","admin3_code":"082014","admin4_code":"","population":"7241","elevation":"521","dem":"542","timezone":"Europe/Rome","modification_date":"2014-04-13"},{"geonameid":"2525478","name":"Cabras","asciiname":"Cabras","alternatenames":"Cabras","latitude":"39.92871","longitude":"8.53242","feature_class":"P","feature_code":"PPLA3","country_code":"IT","cc2":"","admin1_code":"14","admin2_code":"OR","admin3_code":"095018","admin4_code":"","population":"7695","elevation":"6","dem":"7","timezone":"Europe/Rome","modification_date":"2014-04-13"},{"geonameid":"2525480","name":"Butera","asciiname":"Butera","alternatenames":"Butera,Vutera","latitude":"37.191","longitude":"14.18232","feature_class":"P","feature_code":"PPLA3","country_code":"IT","cc2":"","admin1_code":"15","admin2_code":"CL","admin3_code":"085003","admin4_code":"","population":"4683","elevation":"402","dem":"328","timezone":"Europe/Rome","modification_date":"2014-04-13"},{"geonameid":"2525483","name":"Buscemi","asciiname":"Buscemi","alternatenames":"Bascemi,Buscemi,bushemi,ブシェーミ","latitude":"37.08604","longitude":"14.88499","feature_class":"P","feature_code":"PPLA3","country_code":"IT","cc2":"","admin1_code":"15","admin2_code":"SR","admin3_code":"089004","admin4_code":"","population":"1063","elevation":"761","dem":"757","timezone":"Europe/Rome","modification_date":"2014-04-13"},{"geonameid":"2525485","name":"Burgio","asciiname":"Burgio","alternatenames":"Burgio,Burgiu","latitude":"37.60094","longitude":"13.28826","feature_class":"P","feature_code":"PPLA3","country_code":"IT","cc2":"","admin1_code":"15","admin2_code":"AG","admin3_code":"084005","admin4_code":"","population":"2697","elevation":"317","dem":"310","timezone":"Europe/Rome","modification_date":"2014-04-13"},{"geonameid":"2525487","name":"Burcei","asciiname":"Burcei","alternatenames":"Burcei","latitude":"39.34379","longitude":"9.36027","feature_class":"P","feature_code":"PPLA3","country_code":"IT","cc2":"","admin1_code":"14","admin2_code":"CA","admin3_code":"092008","admin4_code":"","population":"2882","elevation":"648","dem":"647","timezone":"Europe/Rome","modification_date":"2014-04-13"},{"geonameid":"2525488","name":"Buonvicino","asciiname":"Buonvicino","alternatenames":"Buonvicino","latitude":"39.68877","longitude":"15.884","feature_class":"P","feature_code":"PPLA3","country_code":"IT","cc2":"","admin1_code":"03","admin2_code":"CS","admin3_code":"078020","admin4_code":"","population":"266","elevation":"400","dem":"443","timezone":"Europe/Rome","modification_date":"2014-04-13"},{"geonameid":"2525491","name":"Buggerru","asciiname":"Buggerru","alternatenames":"Budzhehru,Budzherru,Budzheru,Bugerru,Buggerru,Buggerrus,Bujeru,bu jie lu,bujjerru,Буджерру,Буджеру,Буджэру,Буђеру,Բուջերու,ブッジェッル,布杰鲁","latitude":"39.39831","longitude":"8.40186","feature_class":"P","feature_code":"PPLA3","country_code":"IT","cc2":"","admin1_code":"14","admin2_code":"CI","admin3_code":"107001","admin4_code":"","population":"1037","elevation":"51","dem":"35","timezone":"Europe/Rome","modification_date":"2014-04-13"},{"geonameid":"2525492","name":"Buccheri","asciiname":"Buccheri","alternatenames":"Buccheri,bukkeri,ブッケリ","latitude":"37.12494","longitude":"14.85222","feature_class":"P","feature_code":"PPLA3","country_code":"IT","cc2":"","admin1_code":"15","admin2_code":"SR","admin3_code":"089003","admin4_code":"","population":"1860","elevation":"820","dem":"815","timezone":"Europe/Rome","modification_date":"2014-04-13"},{"geonameid":"2525493","name":"Bruzzano Zeffirio","asciiname":"Bruzzano Zeffirio","alternatenames":"Bruzzano Zeffirio","latitude":"38.01327","longitude":"16.0826","feature_class":"P","feature_code":"PPLA3","country_code":"IT","cc2":"","admin1_code":"03","admin2_code":"RC","admin3_code":"080015","admin4_code":"","population":"894","elevation":"82","dem":"80","timezone":"Europe/Rome","modification_date":"2014-01-11"},{"geonameid":"2525496","name":"Brucoli","asciiname":"Brucoli","alternatenames":"Brucoli,Brugoli","latitude":"37.27689","longitude":"15.19117","feature_class":"P","feature_code":"PPL","country_code":"IT","cc2":"IT","admin1_code":"15","admin2_code":"SR","admin3_code":"089001","admin4_code":"","population":"1098","elevation":"4","dem":"26","timezone":"Europe/Rome","modification_date":"2014-01-19"},{"geonameid":"2525498","name":"Bronte","asciiname":"Bronte","alternatenames":"Branteh,Bronte,Brontes,Bronti,brwnth,brwnty,bu long tai,buronte,Брантэ,Бронте,Բրոնտե,برونته,برونتي,ブロンテ,布龙泰","latitude":"37.78863","longitude":"14.83377","feature_class":"P","feature_code":"PPLA3","country_code":"IT","cc2":"","admin1_code":"15","admin2_code":"CT","admin3_code":"087009","admin4_code":"","population":"18397","elevation":"760","dem":"780","timezone":"Europe/Rome","modification_date":"2014-04-13"},{"geonameid":"2525499","name":"Brolo","asciiname":"Brolo","alternatenames":"Brolo,Brolu,buroro,ブローロ","latitude":"38.15623","longitude":"14.82799","feature_class":"P","feature_code":"PPLA3","country_code":"IT","cc2":"","admin1_code":"15","admin2_code":"ME","admin3_code":"083007","admin4_code":"","population":"4949","elevation":"8","dem":"17","timezone":"Europe/Rome","modification_date":"2014-04-13"},{"geonameid":"2525501","name":"Briatico","asciiname":"Briatico","alternatenames":"Briatico","latitude":"38.72254","longitude":"16.02737","feature_class":"P","feature_code":"PPLA3","country_code":"IT","cc2":"","admin1_code":"03","admin2_code":"VV","admin3_code":"102003","admin4_code":"","population":"1878","elevation":"51","dem":"75","timezone":"Europe/Rome","modification_date":"2014-04-13"},{"geonameid":"2525505","name":"Brancaleone","asciiname":"Brancaleone","alternatenames":"Brancaleone","latitude":"37.96297","longitude":"16.1004","feature_class":"P","feature_code":"PPLA3","country_code":"IT","cc2":"","admin1_code":"03","admin2_code":"RC","admin3_code":"080014","admin4_code":"","population":"3882","elevation":"","dem":"37","timezone":"Europe/Rome","modification_date":"2012-03-09"},{"geonameid":"2525506","name":"Brancaleone-Marina","asciiname":"Brancaleone-Marina","alternatenames":"Brancaleone Marina,Marina di Brancaleone","latitude":"37.96667","longitude":"16.1","feature_class":"P","feature_code":"PPLA3","country_code":"IT","cc2":"","admin1_code":"03","admin2_code":"RC","admin3_code":"080014","admin4_code":"","population":"3053","elevation":"","dem":"36","timezone":"Europe/Rome","modification_date":"2014-05-20"},{"geonameid":"2525511","name":"Bova Marina","asciiname":"Bova Marina","alternatenames":"Bova Marina","latitude":"37.93503","longitude":"15.91736","feature_class":"P","feature_code":"PPLA3","country_code":"IT","cc2":"","admin1_code":"03","admin2_code":"RC","admin3_code":"080013","admin4_code":"","population":"3901","elevation":"20","dem":"29","timezone":"Europe/Rome","modification_date":"2014-04-13"},{"geonameid":"2525512","name":"Bovalino Superiore","asciiname":"Bovalino Superiore","alternatenames":"","latitude":"38.16905","longitude":"16.15849","feature_class":"P","feature_code":"PPL","country_code":"IT","cc2":"","admin1_code":"03","admin2_code":"RC","admin3_code":"080005","admin4_code":"","population":"8418","elevation":"","dem":"199","timezone":"Europe/Rome","modification_date":"2012-03-09"},{"geonameid":"2525513","name":"Bovalino","asciiname":"Bovalino","alternatenames":"Bovalino,Marina di Bovalino","latitude":"38.15376","longitude":"16.17232","feature_class":"P","feature_code":"PPLA3","country_code":"IT","cc2":"IT","admin1_code":"03","admin2_code":"RC","admin3_code":"080012","admin4_code":"","population":"7514","elevation":"11","dem":"37","timezone":"Europe/Rome","modification_date":"2014-04-13"},{"geonameid":"2525517","name":"Botricello","asciiname":"Botricello","alternatenames":"Botricello,Bottricello","latitude":"38.92997","longitude":"16.85801","feature_class":"P","feature_code":"PPLA3","country_code":"IT","cc2":"","admin1_code":"03","admin2_code":"CZ","admin3_code":"079012","admin4_code":"","population":"4846","elevation":"19","dem":"10","timezone":"Europe/Rome","modification_date":"2014-04-13"},{"geonameid":"2525525","name":"Borgia","asciiname":"Borgia","alternatenames":"Bordzha,Borgia,boruja,bwrjya,Борджа,بورجیا,ボルジャ","latitude":"38.82627","longitude":"16.5077","feature_class":"P","feature_code":"PPLA3","country_code":"IT","cc2":"","admin1_code":"03","admin2_code":"CZ","admin3_code":"079011","admin4_code":"","population":"4118","elevation":"341","dem":"338","timezone":"Europe/Rome","modification_date":"2014-04-13"},{"geonameid":"2525526","name":"Borgetto","asciiname":"Borgetto","alternatenames":"Borgetto,Lu Burgettu","latitude":"38.04664","longitude":"13.14071","feature_class":"P","feature_code":"PPLA3","country_code":"IT","cc2":"","admin1_code":"15","admin2_code":"PA","admin3_code":"082013","admin4_code":"","population":"6272","elevation":"290","dem":"279","timezone":"Europe/Rome","modification_date":"2014-04-13"},{"geonameid":"2525532","name":"Bonifati","asciiname":"Bonifati","alternatenames":"Bonifati","latitude":"39.58595","longitude":"15.90163","feature_class":"P","feature_code":"PPLA3","country_code":"IT","cc2":"","admin1_code":"03","admin2_code":"CS","admin3_code":"078019","admin4_code":"","population":"707","elevation":"425","dem":"427","timezone":"Europe/Rome","modification_date":"2014-04-13"},{"geonameid":"2525534","name":"Bompietro","asciiname":"Bompietro","alternatenames":"Bompietro,Bompietru,Buompietro","latitude":"37.74394","longitude":"14.0947","feature_class":"P","feature_code":"PPLA3","country_code":"IT","cc2":"","admin1_code":"15","admin2_code":"PA","admin3_code":"082012","admin4_code":"","population":"1370","elevation":"685","dem":"725","timezone":"Europe/Rome","modification_date":"2014-04-13"},{"geonameid":"2525535","name":"Bompensiere","asciiname":"Bompensiere","alternatenames":"Bampensiere,Bompensiere,Naduri","latitude":"37.4724","longitude":"13.7814","feature_class":"P","feature_code":"PPLA3","country_code":"IT","cc2":"","admin1_code":"15","admin2_code":"CL","admin3_code":"085002","admin4_code":"","population":"610","elevation":"283","dem":"287","timezone":"Europe/Rome","modification_date":"2014-04-13"},{"geonameid":"2525537","name":"Bolognetta","asciiname":"Bolognetta","alternatenames":"Bolognetta,Bulugnetta","latitude":"37.9712","longitude":"13.45627","feature_class":"P","feature_code":"PPLA3","country_code":"IT","cc2":"","admin1_code":"15","admin2_code":"PA","admin3_code":"082011","admin4_code":"","population":"2769","elevation":"350","dem":"300","timezone":"Europe/Rome","modification_date":"2014-04-13"},{"geonameid":"2525540","name":"Bocchigliero","asciiname":"Bocchigliero","alternatenames":"Bocchiglicro,Bocchigliero","latitude":"39.4193","longitude":"16.75057","feature_class":"P","feature_code":"PPLA3","country_code":"IT","cc2":"","admin1_code":"03","admin2_code":"CS","admin3_code":"078018","admin4_code":"","population":"1474","elevation":"870","dem":"879","timezone":"Europe/Rome","modification_date":"2014-04-13"},{"geonameid":"2525543","name":"Bivongi","asciiname":"Bivongi","alternatenames":"Bivongi","latitude":"38.48328","longitude":"16.45251","feature_class":"P","feature_code":"PPLA3","country_code":"IT","cc2":"","admin1_code":"03","admin2_code":"RC","admin3_code":"080010","admin4_code":"","population":"1388","elevation":"270","dem":"275","timezone":"Europe/Rome","modification_date":"2014-01-11"},{"geonameid":"2525545","name":"Bivona","asciiname":"Bivona","alternatenames":"Bivona","latitude":"37.61797","longitude":"13.43895","feature_class":"P","feature_code":"PPLA3","country_code":"IT","cc2":"","admin1_code":"15","admin2_code":"AG","admin3_code":"084004","admin4_code":"","population":"3661","elevation":"503","dem":"515","timezone":"Europe/Rome","modification_date":"2014-04-13"},{"geonameid":"2525550","name":"Bisignano","asciiname":"Bisignano","alternatenames":"Bisignano","latitude":"39.50727","longitude":"16.28106","feature_class":"P","feature_code":"PPLA3","country_code":"IT","cc2":"","admin1_code":"03","admin2_code":"CS","admin3_code":"078017","admin4_code":"","population":"5055","elevation":"350","dem":"246","timezone":"Europe/Rome","modification_date":"2014-04-13"},{"geonameid":"2525552","name":"Bisacquino","asciiname":"Bisacquino","alternatenames":"Bisacquino,Busacchinu","latitude":"37.70352","longitude":"13.26051","feature_class":"P","feature_code":"PPLA3","country_code":"IT","cc2":"","admin1_code":"15","admin2_code":"PA","admin3_code":"082010","admin4_code":"","population":"4557","elevation":"744","dem":"707","timezone":"Europe/Rome","modification_date":"2014-04-13"},{"geonameid":"2525558","name":"Bianco","asciiname":"Bianco","alternatenames":"Bianco","latitude":"38.0917","longitude":"16.15159","feature_class":"P","feature_code":"PPLA3","country_code":"IT","cc2":"","admin1_code":"03","admin2_code":"RC","admin3_code":"080009","admin4_code":"","population":"3543","elevation":"12","dem":"10","timezone":"Europe/Rome","modification_date":"2014-04-13"},{"geonameid":"2525559","name":"Bianchi","asciiname":"Bianchi","alternatenames":"Bianchi,bianki,ビアンキ","latitude":"39.10058","longitude":"16.41018","feature_class":"P","feature_code":"PPLA3","country_code":"IT","cc2":"","admin1_code":"03","admin2_code":"CS","admin3_code":"078016","admin4_code":"","population":"367","elevation":"825","dem":"828","timezone":"Europe/Rome","modification_date":"2014-04-17"},{"geonameid":"2525560","name":"Biancavilla","asciiname":"Biancavilla","alternatenames":"Biancavilla","latitude":"37.64442","longitude":"14.86685","feature_class":"P","feature_code":"PPLA3","country_code":"IT","cc2":"","admin1_code":"15","admin2_code":"CT","admin3_code":"087008","admin4_code":"","population":"23188","elevation":"515","dem":"519","timezone":"Europe/Rome","modification_date":"2014-04-13"},{"geonameid":"2525564","name":"Benestare","asciiname":"Benestare","alternatenames":"Benestare","latitude":"38.18487","longitude":"16.139","feature_class":"P","feature_code":"PPLA3","country_code":"IT","cc2":"","admin1_code":"03","admin2_code":"RC","admin3_code":"080008","admin4_code":"","population":"850","elevation":"250","dem":"293","timezone":"Europe/Rome","modification_date":"2014-04-13"},{"geonameid":"2525565","name":"Belvì","asciiname":"Belvi","alternatenames":"Bel'vi,Belvi,Belvinum,Belvì,Brebi,Brebì,Brevie,Brevìe,bei er fu yi,beruvu~i,blwy,Белви,Бельви,Бельві,Բելվի,بلوی,ベルヴィ,贝尔夫伊","latitude":"39.96181","longitude":"9.18419","feature_class":"P","feature_code":"PPLA3","country_code":"IT","cc2":"","admin1_code":"14","admin2_code":"NU","admin3_code":"091007","admin4_code":"","population":"664","elevation":"660","dem":"651","timezone":"Europe/Rome","modification_date":"2014-04-13"},{"geonameid":"2525566","name":"Belvedere","asciiname":"Belvedere","alternatenames":"Belvedere di Siracusa,Belvedete","latitude":"37.08839","longitude":"15.21314","feature_class":"P","feature_code":"PPL","country_code":"IT","cc2":"IT","admin1_code":"15","admin2_code":"SR","admin3_code":"089012","admin4_code":"","population":"6263","elevation":"","dem":"123","timezone":"Europe/Rome","modification_date":"2014-05-05"},