{"nextFile":"cities.55.json","rows":[{"geonameid":"3012738","name":"Irodouër","asciiname":"Irodouer","alternatenames":"Irodouer,Irodouër","latitude":"48.24932","longitude":"-1.94959","feature_class":"P","feature_code":"PPL","country_code":"FR","cc2":"","admin1_code":"53","admin2_code":"35","admin3_code":"353","admin4_code":"35135","population":"1523","elevation":"","dem":"103","timezone":"Europe/Paris","modification_date":"2016-02-18"},{"geonameid":"3012739","name":"Irmstett","asciiname":"Irmstett","alternatenames":"Irmstett","latitude":"48.58856","longitude":"7.47747","feature_class":"P","feature_code":"PPL","country_code":"FR","cc2":"","admin1_code":"44","admin2_code":"67","admin3_code":"673","admin4_code":"67442","population":"1096","elevation":"","dem":"186","timezone":"Europe/Paris","modification_date":"2016-02-18"},{"geonameid":"3012742","name":"Irigny","asciiname":"Irigny","alternatenames":"Irigny,Irin'i,L'Union-sur-Rhone,L'Union-sur-Rhône,Іриньї","latitude":"45.67362","longitude":"4.81753","feature_class":"P","feature_code":"PPL","country_code":"FR","cc2":"","admin1_code":"84","admin2_code":"69","admin3_code":"691","admin4_code":"69100","population":"8869","elevation":"","dem":"247","timezone":"Europe/Paris","modification_date":"2016-02-18"},{"geonameid":"3012773","name":"Innenheim","asciiname":"Innenheim","alternatenames":"Innenheim","latitude":"48.49659","longitude":"7.57439","feature_class":"P","feature_code":"PPL","country_code":"FR","cc2":"","admin1_code":"44","admin2_code":"67","admin3_code":"675","admin4_code":"67223","population":"1076","elevation":"","dem":"153","timezone":"Europe/Paris","modification_date":"2016-02-18"},{"geonameid":"3012777","name":"Ingwiller","asciiname":"Ingwiller","alternatenames":"Ingeweiler,Ingweiler","latitude":"48.87284","longitude":"7.4798","feature_class":"P","feature_code":"PPL","country_code":"FR","cc2":"","admin1_code":"44","admin2_code":"67","admin3_code":"674","admin4_code":"67222","population":"4098","elevation":"","dem":"191","timezone":"Europe/Paris","modification_date":"2016-02-18"},{"geonameid":"3012778","name":"Inguiniel","asciiname":"Inguiniel","alternatenames":"An Ignel,Engin'el',Inguiniel,an ji nie,Енгиньель,Енгіньєль,安吉涅","latitude":"47.97658","longitude":"-3.28072","feature_class":"P","feature_code":"PPL","country_code":"FR","cc2":"","admin1_code":"53","admin2_code":"56","admin3_code":"561","admin4_code":"56089","population":"2042","elevation":"","dem":"139","timezone":"Europe/Paris","modification_date":"2016-02-18"},{"geonameid":"3012780","name":"Ingré","asciiname":"Ingre","alternatenames":"Engre,Ingre,Ingré,an ge lei,Енгре,安格雷","latitude":"47.91995","longitude":"1.82778","feature_class":"P","feature_code":"PPL","country_code":"FR","cc2":"","admin1_code":"24","admin2_code":"45","admin3_code":"452","admin4_code":"45169","population":"8001","elevation":"","dem":"119","timezone":"Europe/Paris","modification_date":"2016-02-18"},{"geonameid":"3012783","name":"Ingrandes","asciiname":"Ingrandes","alternatenames":"Ingrandes,Ingrandes-sur-Loire","latitude":"47.405","longitude":"-0.92336","feature_class":"P","feature_code":"PPL","country_code":"FR","cc2":"","admin1_code":"52","admin2_code":"49","admin3_code":"491","admin4_code":"49160","population":"1503","elevation":"","dem":"23","timezone":"Europe/Paris","modification_date":"2016-02-18"},{"geonameid":"3012790","name":"Ingersheim","asciiname":"Ingersheim","alternatenames":"","latitude":"48.09803","longitude":"7.30308","feature_class":"P","feature_code":"PPL","country_code":"FR","cc2":"","admin1_code":"44","admin2_code":"68","admin3_code":"685","admin4_code":"68155","population":"4368","elevation":"","dem":"217","timezone":"Europe/Paris","modification_date":"2016-02-18"},{"geonameid":"3012814","name":"Incheville","asciiname":"Incheville","alternatenames":"Incheville","latitude":"50.01239","longitude":"1.49438","feature_class":"P","feature_code":"PPL","country_code":"FR","cc2":"","admin1_code":"28","admin2_code":"76","admin3_code":"761","admin4_code":"76374","population":"1475","elevation":"","dem":"30","timezone":"Europe/Paris","modification_date":"2016-02-18"},{"geonameid":"3012821","name":"Imphy","asciiname":"Imphy","alternatenames":"Imphy","latitude":"46.93619","longitude":"3.26037","feature_class":"P","feature_code":"PPL","country_code":"FR","cc2":"","admin1_code":"27","admin2_code":"58","admin3_code":"583","admin4_code":"58134","population":"3823","elevation":"","dem":"181","timezone":"Europe/Paris","modification_date":"2016-02-18"},{"geonameid":"3012829","name":"Illzach","asciiname":"Illzach","alternatenames":"Il'zak,Illzach,iruzakku,yi er zha ke,Ільзак,Ильзак,イルザック,伊尔扎克","latitude":"47.78088","longitude":"7.34662","feature_class":"P","feature_code":"PPL","country_code":"FR","cc2":"","admin1_code":"44","admin2_code":"68","admin3_code":"684","admin4_code":"68154","population":"15457","elevation":"","dem":"232","timezone":"Europe/Paris","modification_date":"2016-02-18"},{"geonameid":"3012834","name":"Illkirch-Graffenstaden","asciiname":"Illkirch-Graffenstaden","alternatenames":"Il'kirsh-Graffenshtaden,Il'kirsh-Graffenstaden,Ilkirkh Grafenshtaden,Illkirch,Illkirch-Grafenstaden,Illkirch-Graffenshaharen,Illkirch-Graffenstaden,Illkirich-Graffestade,akyrtsh,aylykyr  grfanstdan,ilkileusyugeulapenseutaden,irukirushu=gurafensutaden,yi er ji er ke ge la fang si ta dang,Íllkírich-Gràffestàde,Ількірш-Граффенстаден,Илкирх Графенштаден,Илькирш-Граффенстаден,Илькирш-Граффенштаден,إكيرتش,ایلکیرش-گرافن‌شتادن,ایلیکیر، گرفانستدان,イルキルシュ＝グラフェンスタデン,伊尔基尔克格拉方斯塔当,일키르슈그라펜스타덴","latitude":"48.52894","longitude":"7.71523","feature_class":"P","feature_code":"PPL","country_code":"FR","cc2":"","admin1_code":"44","admin2_code":"67","admin3_code":"676","admin4_code":"67218","population":"27261","elevation":"","dem":"143","timezone":"Europe/Paris","modification_date":"2016-02-18"},{"geonameid":"3012837","name":"Illies","asciiname":"Illies","alternatenames":"Illies","latitude":"50.56144","longitude":"2.83011","feature_class":"P","feature_code":"PPL","country_code":"FR","cc2":"","admin1_code":"32","admin2_code":"59","admin3_code":"595","admin4_code":"59320","population":"1281","elevation":"","dem":"27","timezone":"Europe/Paris","modification_date":"2016-02-18"},{"geonameid":"3012845","name":"Illfurth","asciiname":"Illfurth","alternatenames":"Illfurth","latitude":"47.67291","longitude":"7.26539","feature_class":"P","feature_code":"PPL","country_code":"FR","cc2":"","admin1_code":"44","admin2_code":"68","admin3_code":"681","admin4_code":"68152","population":"2044","elevation":"","dem":"261","timezone":"Europe/Paris","modification_date":"2016-02-18"},{"geonameid":"3012848","name":"Ille-sur-Têt","asciiname":"Ille-sur-Tet","alternatenames":"Il'-sjur-Tet,Illa,Ille,Ille-sur-Tet,Ille-sur-Têt,Ille-sur-la-Tet,tai he pan yi er,Іль-сюр-Тет,Иль-сюр-Тет,泰河畔伊尔","latitude":"42.67069","longitude":"2.62162","feature_class":"P","feature_code":"PPL","country_code":"FR","cc2":"","admin1_code":"76","admin2_code":"66","admin3_code":"663","admin4_code":"66088","population":"5470","elevation":"","dem":"154","timezone":"Europe/Paris","modification_date":"2016-02-18"},{"geonameid":"3012851","name":"Illats","asciiname":"Illats","alternatenames":"Illats","latitude":"44.59714","longitude":"-0.37238","feature_class":"P","feature_code":"PPL","country_code":"FR","cc2":"","admin1_code":"75","admin2_code":"33","admin3_code":"333","admin4_code":"33205","population":"1214","elevation":"","dem":"29","timezone":"Europe/Paris","modification_date":"2016-02-18"},{"geonameid":"3012854","name":"Illange","asciiname":"Illange","alternatenames":"Illange","latitude":"49.33084","longitude":"6.18166","feature_class":"P","feature_code":"PPL","country_code":"FR","cc2":"","admin1_code":"44","admin2_code":"57","admin3_code":"577","admin4_code":"57343","population":"2190","elevation":"","dem":"193","timezone":"Europe/Paris","modification_date":"2016-02-21"},{"geonameid":"3012885","name":"Igoville","asciiname":"Igoville","alternatenames":"Igoville","latitude":"49.3199","longitude":"1.14832","feature_class":"P","feature_code":"PPL","country_code":"FR","cc2":"","admin1_code":"28","admin2_code":"27","admin3_code":"271","admin4_code":"27348","population":"1549","elevation":"","dem":"12","timezone":"Europe/Paris","modification_date":"2016-02-18"},{"geonameid":"3012887","name":"Igon","asciiname":"Igon","alternatenames":"Aigon,Igon,yi gong,Ігон,Игон,伊贡","latitude":"43.16667","longitude":"-0.23333","feature_class":"P","feature_code":"PPL","country_code":"FR","cc2":"","admin1_code":"75","admin2_code":"64","admin3_code":"643","admin4_code":"64270","population":"1026","elevation":"","dem":"271","timezone":"Europe/Paris","modification_date":"2016-02-18"},{"geonameid":"3012889","name":"Igny","asciiname":"Igny","alternatenames":"Igny","latitude":"48.74437","longitude":"2.22428","feature_class":"P","feature_code":"PPL","country_code":"FR","cc2":"","admin1_code":"11","admin2_code":"91","admin3_code":"913","admin4_code":"91312","population":"9968","elevation":"","dem":"93","timezone":"Europe/Paris","modification_date":"2016-02-18"},{"geonameid":"3012894","name":"Igney","asciiname":"Igney","alternatenames":"Igney","latitude":"48.27358","longitude":"6.39664","feature_class":"P","feature_code":"PPL","country_code":"FR","cc2":"","admin1_code":"44","admin2_code":"88","admin3_code":"881","admin4_code":"88247","population":"1107","elevation":"","dem":"308","timezone":"Europe/Paris","modification_date":"2016-02-21"},{"geonameid":"3012903","name":"Ifs","asciiname":"Ifs","alternatenames":"Ifs","latitude":"49.14","longitude":"-0.34899","feature_class":"P","feature_code":"PPL","country_code":"FR","cc2":"","admin1_code":"28","admin2_code":"14","admin3_code":"142","admin4_code":"14341","population":"9617","elevation":"","dem":"32","timezone":"Europe/Paris","modification_date":"2016-02-18"},{"geonameid":"3012905","name":"Iffendic","asciiname":"Iffendic","alternatenames":"Iffandik,Iffendic,Ilfentig,yi fang di ke,Іффандік,Иффандик,伊方迪克","latitude":"48.12981","longitude":"-2.03486","feature_class":"P","feature_code":"PPL","country_code":"FR","cc2":"","admin1_code":"53","admin2_code":"35","admin3_code":"353","admin4_code":"35133","population":"3357","elevation":"","dem":"56","timezone":"Europe/Paris","modification_date":"2016-02-18"},{"geonameid":"3012912","name":"Idron","asciiname":"Idron","alternatenames":"Idron,Idron-Ousse-Sendets,yi de long,Ідрон,Идрон,伊德龙","latitude":"43.28333","longitude":"-0.31667","feature_class":"P","feature_code":"PPL","country_code":"FR","cc2":"","admin1_code":"75","admin2_code":"64","admin3_code":"643","admin4_code":"64269","population":"3439","elevation":"","dem":"241","timezone":"Europe/Paris","modification_date":"2016-02-18"},{"geonameid":"3012921","name":"Ibos","asciiname":"Ibos","alternatenames":"Ibos","latitude":"43.23333","longitude":"0","feature_class":"P","feature_code":"PPL","country_code":"FR","cc2":"","admin1_code":"76","admin2_code":"65","admin3_code":"653","admin4_code":"65226","population":"2643","elevation":"","dem":"321","timezone":"Europe/Paris","modification_date":"2016-02-18"},{"geonameid":"3012937","name":"Hyères","asciiname":"Hyeres","alternatenames":"Er,Hyeres,Hyerès,Hyères,Ier,Ieras,Jer,ayyr,hyyrys,ieru,yeleu,yi ai lei,Єр,Јер,Иер,Йер,ایئر,هييريس,イエール,伊埃雷,예르","latitude":"43.11954","longitude":"6.13897","feature_class":"P","feature_code":"PPL","country_code":"FR","cc2":"","admin1_code":"93","admin2_code":"83","admin3_code":"832","admin4_code":"83069","population":"50487","elevation":"","dem":"25","timezone":"Europe/Paris","modification_date":"2016-02-18"},{"geonameid":"3012949","name":"Huttenheim","asciiname":"Huttenheim","alternatenames":"","latitude":"48.35864","longitude":"7.57833","feature_class":"P","feature_code":"PPL","country_code":"FR","cc2":"","admin1_code":"44","admin2_code":"67","admin3_code":"675","admin4_code":"67216","population":"2250","elevation":"","dem":"160","timezone":"Europe/Paris","modification_date":"2016-02-18"},{"geonameid":"3012953","name":"Hussigny-Godbrange","asciiname":"Hussigny-Godbrange","alternatenames":"Hussigny,Hussigny-Godbrange","latitude":"49.49119","longitude":"5.86683","feature_class":"P","feature_code":"PPL","country_code":"FR","cc2":"","admin1_code":"44","admin2_code":"54","admin3_code":"541","admin4_code":"54270","population":"3160","elevation":"","dem":"411","timezone":"Europe/Paris","modification_date":"2016-02-21"},{"geonameid":"3012954","name":"Husseren-Wesserling","asciiname":"Husseren-Wesserling","alternatenames":"Husseren,Husseren-Wesserling,Hüsseren","latitude":"47.88297","longitude":"6.99388","feature_class":"P","feature_code":"PPL","country_code":"FR","cc2":"","admin1_code":"44","admin2_code":"68","admin3_code":"686","admin4_code":"68151","population":"1017","elevation":"","dem":"433","timezone":"Europe/Paris","modification_date":"2016-02-18"},{"geonameid":"3012961","name":"Hurigny","asciiname":"Hurigny","alternatenames":"Hurigny","latitude":"46.34722","longitude":"4.79676","feature_class":"P","feature_code":"PPL","country_code":"FR","cc2":"","admin1_code":"27","admin2_code":"71","admin3_code":"715","admin4_code":"71235","population":"1533","elevation":"","dem":"305","timezone":"Europe/Paris","modification_date":"2016-02-18"},{"geonameid":"3012962","name":"Huriel","asciiname":"Huriel","alternatenames":"Huriel,Jur'el',Jurel',Uriac,Uriat,yu li ye,Юрьель,Юрєль,于里耶","latitude":"46.37368","longitude":"2.47793","feature_class":"P","feature_code":"PPL","country_code":"FR","cc2":"","admin1_code":"84","admin2_code":"03","admin3_code":"031","admin4_code":"03128","population":"2445","elevation":"","dem":"331","timezone":"Europe/Paris","modification_date":"2016-02-18"},{"geonameid":"3012979","name":"Huningue","asciiname":"Huningue","alternatenames":"Hueningen,Hüningen,Juneng,Uning,yu nan gai,yunangu,Унинг,Унінг,Юненг,ユナング,于南盖","latitude":"47.60477","longitude":"7.57782","feature_class":"P","feature_code":"PPL","country_code":"FR","cc2":"","admin1_code":"44","admin2_code":"68","admin3_code":"684","admin4_code":"68149","population":"6375","elevation":"","dem":"242","timezone":"Europe/Paris","modification_date":"2016-02-18"},{"geonameid":"3012983","name":"Hundling","asciiname":"Hundling","alternatenames":"Hundling","latitude":"49.10815","longitude":"6.97809","feature_class":"P","feature_code":"PPL","country_code":"FR","cc2":"","admin1_code":"44","admin2_code":"57","admin3_code":"576","admin4_code":"57340","population":"1431","elevation":"","dem":"237","timezone":"Europe/Paris","modification_date":"2016-02-21"},{"geonameid":"3013001","name":"Hulluch","asciiname":"Hulluch","alternatenames":"Hulluch,Julljush,hwlwtsh,yu lu shen,Юллюш,هولوتش,于吕什","latitude":"50.48961","longitude":"2.81232","feature_class":"P","feature_code":"PPL","country_code":"FR","cc2":"","admin1_code":"32","admin2_code":"62","admin3_code":"627","admin4_code":"62464","population":"3019","elevation":"","dem":"33","timezone":"Europe/Paris","modification_date":"2016-02-18"},{"geonameid":"3013006","name":"Huisseau-sur-Mauves","asciiname":"Huisseau-sur-Mauves","alternatenames":"Huisseau-sur-Mauve,Huisseau-sur-Mauves,Juisso-sjur-Mov,mo wei he pan yu yi suo,Юїссо-сюр-Мов,莫韦河畔于伊索","latitude":"47.89319","longitude":"1.70274","feature_class":"P","feature_code":"PPL","country_code":"FR","cc2":"","admin1_code":"24","admin2_code":"45","admin3_code":"452","admin4_code":"45167","population":"1744","elevation":"","dem":"105","timezone":"Europe/Paris","modification_date":"2016-02-18"},{"geonameid":"3013007","name":"Huisseau-sur-Cosson","asciiname":"Huisseau-sur-Cosson","alternatenames":"Huisseau,Huisseau-sur-Cosson,Huisseaux-sur-Cosson","latitude":"47.59335","longitude":"1.45333","feature_class":"P","feature_code":"PPL","country_code":"FR","cc2":"","admin1_code":"24","admin2_code":"41","admin3_code":"411","admin4_code":"41104","population":"1990","elevation":"","dem":"78","timezone":"Europe/Paris","modification_date":"2016-02-18"},{"geonameid":"3013011","name":"Huismes","asciiname":"Huismes","alternatenames":"Huismes,Juim,yu yi si mei,Юїм,于伊斯梅","latitude":"47.23319","longitude":"0.25116","feature_class":"P","feature_code":"PPL","country_code":"FR","cc2":"","admin1_code":"24","admin2_code":"37","admin3_code":"371","admin4_code":"37118","population":"1456","elevation":"","dem":"80","timezone":"Europe/Paris","modification_date":"2016-02-18"},{"geonameid":"3013022","name":"Huez","asciiname":"Huez","alternatenames":"Huez,L'Huez,L’Huez","latitude":"45.08252","longitude":"6.05848","feature_class":"P","feature_code":"PPL","country_code":"FR","cc2":"","admin1_code":"84","admin2_code":"38","admin3_code":"381","admin4_code":"38191","population":"1795","elevation":"","dem":"1509","timezone":"Europe/Paris","modification_date":"2016-02-18"},{"geonameid":"3013026","name":"Huelgoat","asciiname":"Huelgoat","alternatenames":"An Uhelgoad,Huelgoat,Juel'goa,yu ai er ge a,Юельгоа,于埃尔戈阿","latitude":"48.36111","longitude":"-3.74578","feature_class":"P","feature_code":"PPL","country_code":"FR","cc2":"","admin1_code":"53","admin2_code":"29","admin3_code":"292","admin4_code":"29081","population":"1759","elevation":"","dem":"194","timezone":"Europe/Paris","modification_date":"2016-02-18"},{"geonameid":"3013044","name":"Hoymille","asciiname":"Hoymille","alternatenames":"Hooimille,Hoymille,Ooimille,Uamil',ao mi ye,Уамиль,Уаміль,奥米耶","latitude":"50.97187","longitude":"2.44738","feature_class":"P","feature_code":"PPL","country_code":"FR","cc2":"","admin1_code":"32","admin2_code":"59","admin3_code":"594","admin4_code":"59319","population":"3275","elevation":"","dem":"4","timezone":"Europe/Paris","modification_date":"2016-02-18"},{"geonameid":"3013058","name":"Houssen","asciiname":"Houssen","alternatenames":"Gasen,Haussen,Houssen,Ussen,wu sang,Гасен,Уссен,乌桑","latitude":"48.12581","longitude":"7.37841","feature_class":"P","feature_code":"PPL","country_code":"FR","cc2":"","admin1_code":"44","admin2_code":"68","admin3_code":"682","admin4_code":"68146","population":"1650","elevation":"","dem":"183","timezone":"Europe/Paris","modification_date":"2016-02-18"},{"geonameid":"3013069","name":"Hourtin","asciiname":"Hourtin","alternatenames":"Hourtin","latitude":"45.1857","longitude":"-1.05719","feature_class":"P","feature_code":"PPL","country_code":"FR","cc2":"","admin1_code":"75","admin2_code":"33","admin3_code":"334","admin4_code":"33203","population":"3485","elevation":"","dem":"17","timezone":"Europe/Paris","modification_date":"2016-02-18"},{"geonameid":"3013080","name":"Houppeville","asciiname":"Houppeville","alternatenames":"Houppeville","latitude":"49.51259","longitude":"1.07962","feature_class":"P","feature_code":"PPL","country_code":"FR","cc2":"","admin1_code":"28","admin2_code":"76","admin3_code":"763","admin4_code":"76367","population":"2472","elevation":"","dem":"152","timezone":"Europe/Paris","modification_date":"2016-02-18"},{"geonameid":"3013082","name":"Houplines","asciiname":"Houplines","alternatenames":"Houplines,Opline,Uplin,wu pu li ne,Уплин,Уплін,乌普利讷","latitude":"50.69499","longitude":"2.91518","feature_class":"P","feature_code":"PPL","country_code":"FR","cc2":"","admin1_code":"32","admin2_code":"59","admin3_code":"595","admin4_code":"59317","population":"8119","elevation":"","dem":"17","timezone":"Europe/Paris","modification_date":"2016-02-18"},{"geonameid":"3013083","name":"Houplin-Ancoisne","asciiname":"Houplin-Ancoisne","alternatenames":"Houplin,Houplin-Ancoisne,Uplen-Ankuan,wu pu lan ang kuan ne,Уплен-Анкуан,乌普兰昂宽讷","latitude":"50.56284","longitude":"3.00251","feature_class":"P","feature_code":"PPL","country_code":"FR","cc2":"","admin1_code":"32","admin2_code":"59","admin3_code":"595","admin4_code":"59316","population":"3703","elevation":"","dem":"26","timezone":"Europe/Paris","modification_date":"2016-02-18"},{"geonameid":"3013091","name":"Houlgate","asciiname":"Houlgate","alternatenames":"Houlgate,Ul'gat,wu er jia te,Ульгат,乌尔加特","latitude":"49.299","longitude":"-0.08153","feature_class":"P","feature_code":"PPL","country_code":"FR","cc2":"","admin1_code":"28","admin2_code":"14","admin3_code":"143","admin4_code":"14338","population":"1927","elevation":"","dem":"7","timezone":"Europe/Paris","modification_date":"2016-02-18"},{"geonameid":"3013096","name":"Houlbec-Cocherel","asciiname":"Houlbec-Cocherel","alternatenames":"Houlbec,Houlbec-Cocherel,Ul'bek-Kosherel',wu er bei ke ke xie lei,Ульбек-Кошерель,乌尔贝克科谢雷","latitude":"49.0735","longitude":"1.36563","feature_class":"P","feature_code":"PPL","country_code":"FR","cc2":"","admin1_code":"28","admin2_code":"27","admin3_code":"273","admin4_code":"27343","population":"1378","elevation":"","dem":"134","timezone":"Europe/Paris","modification_date":"2016-02-18"},{"geonameid":"3013097","name":"Houilles","asciiname":"Houilles","alternatenames":"Houilles,Uj,awy,awy  aywlyn,u-il,uiyu,Уй,Уј,اوی,اوی، ایولین,ウイユ,우일","latitude":"48.92161","longitude":"2.19263","feature_class":"P","feature_code":"PPL","country_code":"FR","cc2":"","admin1_code":"11","admin2_code":"78","admin3_code":"783","admin4_code":"78311","population":"31121","elevation":"","dem":"30","timezone":"Europe/Paris","modification_date":"2016-02-18"},{"geonameid":"3013115","name":"Houdemont","asciiname":"Houdemont","alternatenames":"Hondimont","latitude":"48.65","longitude":"6.18333","feature_class":"P","feature_code":"PPL","country_code":"FR","cc2":"","admin1_code":"44","admin2_code":"54","admin3_code":"543","admin4_code":"54265","population":"2425","elevation":"","dem":"239","timezone":"Europe/Paris","modification_date":"2016-02-21"},{"geonameid":"3013120","name":"Houdan","asciiname":"Houdan","alternatenames":"Houdan,Udan,Удан","latitude":"48.79044","longitude":"1.60007","feature_class":"P","feature_code":"PPL","country_code":"FR","cc2":"","admin1_code":"11","admin2_code":"78","admin3_code":"781","admin4_code":"78310","population":"3150","elevation":"","dem":"108","timezone":"Europe/Paris","modification_date":"2016-02-18"},{"geonameid":"3013122","name":"Houdain","asciiname":"Houdain","alternatenames":"Houdain,Uden,hwdayn,wu dan,Уден,هوداين,乌丹","latitude":"50.4504","longitude":"2.53777","feature_class":"P","feature_code":"PPL","country_code":"FR","cc2":"","admin1_code":"32","admin2_code":"62","admin3_code":"622","admin4_code":"62457","population":"7622","elevation":"","dem":"57","timezone":"Europe/Paris","modification_date":"2016-02-18"},{"geonameid":"3013151","name":"Hornoy-le-Bourg","asciiname":"Hornoy-le-Bourg","alternatenames":"Hornoe-l'Bourq,Hornoè-l’Bourq,Ornua-le-Bur,ao er nu wa bao,Орнуа-ле-Бур,奥尔努瓦堡","latitude":"49.85","longitude":"1.9","feature_class":"P","feature_code":"PPL","country_code":"FR","cc2":"","admin1_code":"32","admin2_code":"80","admin3_code":"802","admin4_code":"80443","population":"1489","elevation":"","dem":"165","timezone":"Europe/Paris","modification_date":"2016-02-18"},{"geonameid":"3013152","name":"Hornaing","asciiname":"Hornaing","alternatenames":"Hornaing,Ornen,ao er nan,Орнен,奥尔南","latitude":"50.36835","longitude":"3.33707","feature_class":"P","feature_code":"PPL","country_code":"FR","cc2":"","admin1_code":"32","admin2_code":"59","admin3_code":"593","admin4_code":"59314","population":"2998","elevation":"","dem":"22","timezone":"Europe/Paris","modification_date":"2016-02-18"},{"geonameid":"3013153","name":"Horgues","asciiname":"Horgues","alternatenames":"Horgues","latitude":"43.18865","longitude":"0.08733","feature_class":"P","feature_code":"PPL","country_code":"FR","cc2":"","admin1_code":"76","admin2_code":"65","admin3_code":"653","admin4_code":"65223","population":"1040","elevation":"","dem":"360","timezone":"Europe/Paris","modification_date":"2016-02-18"},{"geonameid":"3013154","name":"Hordain","asciiname":"Hordain","alternatenames":"Hordain,Orden,ao er dan,Орден,奥尔丹","latitude":"50.26306","longitude":"3.31358","feature_class":"P","feature_code":"PPL","country_code":"FR","cc2":"","admin1_code":"32","admin2_code":"59","admin3_code":"596","admin4_code":"59313","population":"1214","elevation":"","dem":"39","timezone":"Europe/Paris","modification_date":"2016-02-18"},{"geonameid":"3013155","name":"Horbourg-Wihr","asciiname":"Horbourg-Wihr","alternatenames":"","latitude":"48.08106","longitude":"7.3938","feature_class":"P","feature_code":"PPL","country_code":"FR","cc2":"","admin1_code":"44","admin2_code":"68","admin3_code":"682","admin4_code":"68145","population":"5358","elevation":"","dem":"188","timezone":"Europe/Paris","modification_date":"2016-02-18"},{"geonameid":"3013173","name":"Honfleur","asciiname":"Honfleur","alternatenames":"Anfljor,Honfleur,Honnefluctus,Onfler,Onfljor,awnflwr,onfururu,ongpeulloeleu,weng fu lei,Ονφλέρ,Анфлёр,Онфлер,Онфлёр,אונפלר,اونفلور,オンフルール,翁夫勒,옹플뢰르","latitude":"49.41985","longitude":"0.23294","feature_class":"P","feature_code":"PPL","country_code":"FR","cc2":"","admin1_code":"28","admin2_code":"14","admin3_code":"143","admin4_code":"14333","population":"8148","elevation":"","dem":"6","timezone":"Europe/Paris","modification_date":"2016-02-18"},{"geonameid":"3013174","name":"Hondschoote","asciiname":"Hondschoote","alternatenames":"Hondschoote,Hondschote,Ondshoot,Ondskot,Oundschote,weng si ke te,Ондскот,Ондшоот,翁斯科特","latitude":"50.978","longitude":"2.58372","feature_class":"P","feature_code":"PPL","country_code":"FR","cc2":"","admin1_code":"32","admin2_code":"59","admin3_code":"594","admin4_code":"59309","population":"3742","elevation":"","dem":"5","timezone":"Europe/Paris","modification_date":"2016-02-18"},{"geonameid":"3013195","name":"Homécourt","asciiname":"Homecourt","alternatenames":"Homecourt,Homécourt,Omekur,ao mei ku er,Омекур,奥梅库尔","latitude":"49.22111","longitude":"5.98445","feature_class":"P","feature_code":"PPL","country_code":"FR","cc2":"","admin1_code":"44","admin2_code":"54","admin3_code":"541","admin4_code":"54263","population":"6971","elevation":"","dem":"192","timezone":"Europe/Paris","modification_date":"2016-02-21"},{"geonameid":"3013196","name":"Hombourg-Haut","asciiname":"Hombourg-Haut","alternatenames":"Hombourg-Haut,Hombourg-l'Eveque,Hombourg-le-Haut,Hombourg-l’Évéque,Oberhomburg,Ombur-O,Ombur-Ot,weng bu er ao,Омбур-О,Омбур-От,翁布尔奥","latitude":"49.12359","longitude":"6.77397","feature_class":"P","feature_code":"PPL","country_code":"FR","cc2":"","admin1_code":"44","admin2_code":"57","admin3_code":"573","admin4_code":"57332","population":"9702","elevation":"","dem":"231","timezone":"Europe/Paris","modification_date":"2016-02-21"},{"geonameid":"3013200","name":"Homblières","asciiname":"Homblieres","alternatenames":"Homblieres,Homblières","latitude":"49.85031","longitude":"3.36456","feature_class":"P","feature_code":"PPL","country_code":"FR","cc2":"","admin1_code":"32","admin2_code":"02","admin3_code":"023","admin4_code":"02383","population":"1493","elevation":"","dem":"82","timezone":"Europe/Paris","modification_date":"2016-02-18"},{"geonameid":"3013201","name":"Hombleux","asciiname":"Hombleux","alternatenames":"Hombleux","latitude":"49.73942","longitude":"2.98574","feature_class":"P","feature_code":"PPL","country_code":"FR","cc2":"","admin1_code":"32","admin2_code":"80","admin3_code":"804","admin4_code":"80442","population":"1043","elevation":"","dem":"65","timezone":"Europe/Paris","modification_date":"2016-02-18"},{"geonameid":"3013204","name":"Holving","asciiname":"Holving","alternatenames":"Holving,Holvingen","latitude":"49.00965","longitude":"6.96529","feature_class":"P","feature_code":"PPL","country_code":"FR","cc2":"","admin1_code":"44","admin2_code":"57","admin3_code":"576","admin4_code":"57330","population":"1109","elevation":"","dem":"224","timezone":"Europe/Paris","modification_date":"2016-02-21"},{"geonameid":"3013205","name":"Holtzwihr","asciiname":"Holtzwihr","alternatenames":"Holtzwihr,Holzweier,Khol'cvir,Ol'cvir,ao er te ci wei,Ольцвир,Ольцвір,Хольцвир,奥尔特兹维","latitude":"48.11278","longitude":"7.42046","feature_class":"P","feature_code":"PPL","country_code":"FR","cc2":"","admin1_code":"44","admin2_code":"68","admin3_code":"682","admin4_code":"68143","population":"1129","elevation":"","dem":"180","timezone":"Europe/Paris","modification_date":"2016-02-18"},{"geonameid":"3013206","name":"Holtzheim","asciiname":"Holtzheim","alternatenames":"Holtzheim","latitude":"48.5582","longitude":"7.64434","feature_class":"P","feature_code":"PPL","country_code":"FR","cc2":"","admin1_code":"44","admin2_code":"67","admin3_code":"676","admin4_code":"67212","population":"2900","elevation":"","dem":"149","timezone":"Europe/Paris","modification_date":"2016-02-18"},{"geonameid":"3013208","name":"Holnon","asciiname":"Holnon","alternatenames":"Holnon","latitude":"49.86086","longitude":"3.21509","feature_class":"P","feature_code":"PPL","country_code":"FR","cc2":"","admin1_code":"32","admin2_code":"02","admin3_code":"023","admin4_code":"02382","population":"1348","elevation":"","dem":"115","timezone":"Europe/Paris","modification_date":"2016-02-18"},{"geonameid":"3013225","name":"Hœrdt","asciiname":"Hœrdt","alternatenames":"Erdt,Herdt,Hoerdt,Hördt,hwrdt,Ердт,هوردت","latitude":"48.7","longitude":"7.78333","feature_class":"P","feature_code":"PPL","country_code":"FR","cc2":"","admin1_code":"44","admin2_code":"67","admin3_code":"676","admin4_code":"67205","population":"4347","elevation":"","dem":"138","timezone":"Europe/Paris","modification_date":"2016-02-18"},{"geonameid":"3013226","name":"Hœnheim","asciiname":"Hœnheim","alternatenames":"","latitude":"48.62224","longitude":"7.75549","feature_class":"P","feature_code":"PPL","country_code":"FR","cc2":"","admin1_code":"44","admin2_code":"67","admin3_code":"676","admin4_code":"67204","population":"10921","elevation":"","dem":"144","timezone":"Europe/Paris","modification_date":"2016-02-18"},{"geonameid":"3013248","name":"Hochstatt","asciiname":"Hochstatt","alternatenames":"Hochstatt","latitude":"47.70343","longitude":"7.27583","feature_class":"P","feature_code":"PPL","country_code":"FR","cc2":"","admin1_code":"44","admin2_code":"68","admin3_code":"681","admin4_code":"68141","population":"1973","elevation":"","dem":"274","timezone":"Europe/Paris","modification_date":"2016-02-18"},{"geonameid":"3013249","name":"Hochfelden","asciiname":"Hochfelden","alternatenames":"","latitude":"48.75738","longitude":"7.56769","feature_class":"P","feature_code":"PPL","country_code":"FR","cc2":"","admin1_code":"44","admin2_code":"67","admin3_code":"676","admin4_code":"67202","population":"3120","elevation":"","dem":"174","timezone":"Europe/Paris","modification_date":"2016-02-18"},{"geonameid":"3013255","name":"Hirtzfelden","asciiname":"Hirtzfelden","alternatenames":"Hirtzfelden,Hirzfelden","latitude":"47.91079","longitude":"7.44669","feature_class":"P","feature_code":"PPL","country_code":"FR","cc2":"","admin1_code":"44","admin2_code":"68","admin3_code":"683","admin4_code":"68140","population":"1030","elevation":"","dem":"208","timezone":"Europe/Paris","modification_date":"2016-02-18"},{"geonameid":"3013257","name":"Hirtzbach","asciiname":"Hirtzbach","alternatenames":"Hirtzbach","latitude":"47.59618","longitude":"7.22043","feature_class":"P","feature_code":"PPL","country_code":"FR","cc2":"","admin1_code":"44","admin2_code":"68","admin3_code":"681","admin4_code":"68139","population":"1239","elevation":"","dem":"312","timezone":"Europe/Paris","modification_date":"2016-02-18"},{"geonameid":"3013258","name":"Hirson","asciiname":"Hirson","alternatenames":"Hirson,Irson,Urchon,yi er song,Ірсон,Ирсон,伊尔松","latitude":"49.92262","longitude":"4.08259","feature_class":"P","feature_code":"PPL","country_code":"FR","cc2":"","admin1_code":"32","admin2_code":"02","admin3_code":"025","admin4_code":"02381","population":"11133","elevation":"","dem":"173","timezone":"Europe/Paris","modification_date":"2016-02-18"},{"geonameid":"3013259","name":"Hirsingue","asciiname":"Hirsingue","alternatenames":"Hirsingen,Hirsingue,Irseng,yi er sang ge,Ірсенг,Ирсенг,伊尔桑格","latitude":"47.58655","longitude":"7.2513","feature_class":"P","feature_code":"PPL","country_code":"FR","cc2":"","admin1_code":"44","admin2_code":"68","admin3_code":"681","admin4_code":"68138","population":"2156","elevation":"","dem":"318","timezone":"Europe/Paris","modification_date":"2016-02-18"},{"geonameid":"3013263","name":"Hirel","asciiname":"Hirel","alternatenames":"Hirel,Irel',Ірель,Ирель","latitude":"48.60502","longitude":"-1.80224","feature_class":"P","feature_code":"PPL","country_code":"FR","cc2":"","admin1_code":"53","admin2_code":"35","admin3_code":"354","admin4_code":"35132","population":"1288","elevation":"","dem":"7","timezone":"Europe/Paris","modification_date":"2016-02-18"},{"geonameid":"3013268","name":"Hinx","asciiname":"Hinx","alternatenames":"Hinx","latitude":"43.7019","longitude":"-0.92591","feature_class":"P","feature_code":"PPL","country_code":"FR","cc2":"","admin1_code":"75","admin2_code":"40","admin3_code":"401","admin4_code":"40126","population":"1204","elevation":"","dem":"50","timezone":"Europe/Paris","modification_date":"2016-02-18"},{"geonameid":"3013273","name":"Hinges","asciiname":"Hinges","alternatenames":"Hinges","latitude":"50.56674","longitude":"2.6216","feature_class":"P","feature_code":"PPL","country_code":"FR","cc2":"","admin1_code":"32","admin2_code":"62","admin3_code":"622","admin4_code":"62454","population":"2209","elevation":"","dem":"41","timezone":"Europe/Paris","modification_date":"2016-02-18"},{"geonameid":"3013275","name":"Hindisheim","asciiname":"Hindisheim","alternatenames":"Endisajm,Hindisheim,Hindse,Híndse,an di sang,hyndyshaym,hyndyshym,Ендисайм,Ендісайм,هينديشيم,هیندیسهایم,安迪桑","latitude":"48.46837","longitude":"7.63859","feature_class":"P","feature_code":"PPL","country_code":"FR","cc2":"","admin1_code":"44","admin2_code":"67","admin3_code":"675","admin4_code":"67197","population":"1441","elevation":"","dem":"150","timezone":"Europe/Paris","modification_date":"2016-02-18"},{"geonameid":"3013282","name":"Hilsenheim","asciiname":"Hilsenheim","alternatenames":"Hilse,Hilsenheim,Hílse,Il'senajm,hylsynhym,hylznhaym,yi er se nan,Ільсенайм,Ильсенайм,هيلسينهيم,هیلزنهایم,伊尔瑟南","latitude":"48.28756","longitude":"7.56522","feature_class":"P","feature_code":"PPL","country_code":"FR","cc2":"","admin1_code":"44","admin2_code":"67","admin3_code":"675","admin4_code":"67196","population":"2244","elevation":"","dem":"164","timezone":"Europe/Paris","modification_date":"2016-02-18"},{"geonameid":"3013283","name":"Hillion","asciiname":"Hillion","alternatenames":"Hilion,Hillion","latitude":"48.51429","longitude":"-2.66634","feature_class":"P","feature_code":"PPL","country_code":"FR","cc2":"","admin1_code":"53","admin2_code":"22","admin3_code":"224","admin4_code":"22081","population":"3943","elevation":"","dem":"27","timezone":"Europe/Paris","modification_date":"2016-02-18"},{"geonameid":"3013294","name":"Hiersac","asciiname":"Hiersac","alternatenames":"Ersak,Hiersac,Jersak,ye er sa ke,Єрсак,Йерсак,耶尔萨克","latitude":"45.66667","longitude":"0","feature_class":"P","feature_code":"PPL","country_code":"FR","cc2":"","admin1_code":"75","admin2_code":"16","admin3_code":"161","admin4_code":"16163","population":"1037","elevation":"","dem":"74","timezone":"Europe/Paris","modification_date":"2016-02-18"},{"geonameid":"3013297","name":"Hières-sur-Amby","asciiname":"Hieres-sur-Amby","alternatenames":"Hieres,Hieres-sur-Amby,Hières,Hières-sur-Amby,Ier-sjur-Ambi,ang bi he pan ai,Ієр-сюр-Амбі,Иер-сюр-Амби,昂比河畔埃","latitude":"45.79783","longitude":"5.29467","feature_class":"P","feature_code":"PPL","country_code":"FR","cc2":"","admin1_code":"84","admin2_code":"38","admin3_code":"382","admin4_code":"38190","population":"1082","elevation":"","dem":"217","timezone":"Europe/Paris","modification_date":"2016-02-18"},{"geonameid":"3013305","name":"Heyrieux","asciiname":"Heyrieux","alternatenames":"Heyrieux","latitude":"45.62853","longitude":"5.05849","feature_class":"P","feature_code":"PPL","country_code":"FR","cc2":"","admin1_code":"84","admin2_code":"38","admin3_code":"383","admin4_code":"38189","population":"4475","elevation":"","dem":"286","timezone":"Europe/Paris","modification_date":"2016-02-18"},{"geonameid":"3013321","name":"Heuringhem","asciiname":"Heuringhem","alternatenames":"Erengem,Heuringhem,e lan gai mu,hywrynhym,Еренгем,هيورينهيم,厄兰盖姆","latitude":"50.69638","longitude":"2.28333","feature_class":"P","feature_code":"PPL","country_code":"FR","cc2":"","admin1_code":"32","admin2_code":"62","admin3_code":"625","admin4_code":"62452","population":"1327","elevation":"","dem":"43","timezone":"Europe/Paris","modification_date":"2016-02-18"},{"geonameid":"3013334","name":"Heugas","asciiname":"Heugas","alternatenames":"Heugas","latitude":"43.64334","longitude":"-1.08143","feature_class":"P","feature_code":"PPL","country_code":"FR","cc2":"","admin1_code":"75","admin2_code":"40","admin3_code":"401","admin4_code":"40125","population":"1236","elevation":"","dem":"52","timezone":"Europe/Paris","modification_date":"2016-02-18"},{"geonameid":"3013336","name":"Heudreville-sur-Eure","asciiname":"Heudreville-sur-Eure","alternatenames":"Heudreville,Heudreville-sur-Eure","latitude":"49.14089","longitude":"1.18813","feature_class":"P","feature_code":"PPL","country_code":"FR","cc2":"","admin1_code":"28","admin2_code":"27","admin3_code":"271","admin4_code":"27335","population":"1040","elevation":"","dem":"20","timezone":"Europe/Paris","modification_date":"2016-02-18"},{"geonameid":"3013350","name":"Hettange-Grande","asciiname":"Hettange-Grande","alternatenames":"Ettanzh-Grand,Grosshettingen,Grouss-Hetteng,Großhettingen,Hettange-Grande,Hettange-la-Grande,ai tang ge ge lang de,Еттанж-Гранд,埃唐格格朗德","latitude":"49.40639","longitude":"6.15057","feature_class":"P","feature_code":"PPL","country_code":"FR","cc2":"","admin1_code":"44","admin2_code":"57","admin3_code":"577","admin4_code":"57323","population":"6922","elevation":"","dem":"178","timezone":"Europe/Paris","modification_date":"2016-02-21"},{"geonameid":"3013361","name":"Hésingue","asciiname":"Hesingue","alternatenames":"Hesingen,Hesingue,Hésingue","latitude":"47.57621","longitude":"7.52244","feature_class":"P","feature_code":"PPL","country_code":"FR","cc2":"","admin1_code":"44","admin2_code":"68","admin3_code":"684","admin4_code":"68135","population":"2342","elevation":"","dem":"274","timezone":"Europe/Paris","modification_date":"2016-02-18"},{"geonameid":"3013365","name":"Hesdin","asciiname":"Hesdin","alternatenames":"Eden,Ehden,Hesdin,Hesdinum,ai dan,hysdyn,Еден,Эден,هيسدين,埃丹","latitude":"50.37349","longitude":"2.0382","feature_class":"P","feature_code":"PPL","country_code":"FR","cc2":"","admin1_code":"32","admin2_code":"62","admin3_code":"624","admin4_code":"62447","population":"2790","elevation":"","dem":"30","timezone":"Europe/Paris","modification_date":"2016-02-18"},{"geonameid":"3013370","name":"Herzeele","asciiname":"Herzeele","alternatenames":"Herzeele","latitude":"50.88584","longitude":"2.5351","feature_class":"P","feature_code":"PPL","country_code":"FR","cc2":"","admin1_code":"32","admin2_code":"59","admin3_code":"594","admin4_code":"59305","population":"1328","elevation":"","dem":"12","timezone":"Europe/Paris","modification_date":"2016-02-18"},{"geonameid":"3013373","name":"Héry","asciiname":"Hery","alternatenames":"Hery,Héry","latitude":"47.90146","longitude":"3.62868","feature_class":"P","feature_code":"PPL","country_code":"FR","cc2":"","admin1_code":"27","admin2_code":"89","admin3_code":"891","admin4_code":"89201","population":"1813","elevation":"","dem":"111","timezone":"Europe/Paris","modification_date":"2016-02-18"},{"geonameid":"3013380","name":"Hersin-Coupigny","asciiname":"Hersin-Coupigny","alternatenames":"Hersin,Hersin-Coupigny","latitude":"50.44796","longitude":"2.6494","feature_class":"P","feature_code":"PPL","country_code":"FR","cc2":"","admin1_code":"32","admin2_code":"62","admin3_code":"627","admin4_code":"62443","population":"6609","elevation":"","dem":"74","timezone":"Europe/Paris","modification_date":"2016-02-18"},{"geonameid":"3013381","name":"Herserange","asciiname":"Herserange","alternatenames":"Herserange","latitude":"49.51758","longitude":"5.78163","feature_class":"P","feature_code":"PPL","country_code":"FR","cc2":"","admin1_code":"44","admin2_code":"54","admin3_code":"541","admin4_code":"54261","population":"4438","elevation":"","dem":"280","timezone":"Europe/Paris","modification_date":"2016-02-21"},{"geonameid":"3013385","name":"Herry","asciiname":"Herry","alternatenames":"Herry","latitude":"47.21667","longitude":"2.95385","feature_class":"P","feature_code":"PPL","country_code":"FR","cc2":"","admin1_code":"24","admin2_code":"18","admin3_code":"181","admin4_code":"18110","population":"1026","elevation":"","dem":"161","timezone":"Europe/Paris","modification_date":"2016-02-18"},{"geonameid":"3013386","name":"Herrlisheim-près-Colmar","asciiname":"Herrlisheim-pres-Colmar","alternatenames":"Ehrlisajm-pre-Kol'mar,Errlisajm-pre-Kol'mar,Herrlisheim,ai er li sang pu lei ke er ma,Еррлисайм-пре-Кольмар,Еррлісайм-пре-Кольмар,Эрлисайм-пре-Кольмар,埃尔利桑普雷科尔马","latitude":"48.01835","longitude":"7.32668","feature_class":"P","feature_code":"PPL","country_code":"FR","cc2":"","admin1_code":"44","admin2_code":"68","admin3_code":"682","admin4_code":"68134","population":"1624","elevation":"","dem":"193","timezone":"Europe/Paris","modification_date":"2016-02-18"},{"geonameid":"3013387","name":"Herrlisheim","asciiname":"Herrlisheim","alternatenames":"Herrlisheim-pres-Colmar,Herrlisheim-près-Colmar","latitude":"48.73049","longitude":"7.90535","feature_class":"P","feature_code":"PPL","country_code":"FR","cc2":"","admin1_code":"44","admin2_code":"67","admin3_code":"672","admin4_code":"67194","population":"4428","elevation":"","dem":"125","timezone":"Europe/Paris","modification_date":"2016-02-18"},{"geonameid":"3013402","name":"Hérouvillette","asciiname":"Herouvillette","alternatenames":"Herouvillette,Hérouvillette","latitude":"49.2213","longitude":"-0.24348","feature_class":"P","feature_code":"PPL","country_code":"FR","cc2":"","admin1_code":"28","admin2_code":"14","admin3_code":"142","admin4_code":"14328","population":"1168","elevation":"","dem":"15","timezone":"Europe/Paris","modification_date":"2016-02-18"},{"geonameid":"3013403","name":"Hérouville-Saint-Clair","asciiname":"Herouville-Saint-Clair","alternatenames":"Ehruvil'-Sen-Kler,Eruvil Sen Kler,Eruvil'-Sen-Kler,Herouville,Herouville Saint-Clair,Herouville-Saint-Clair,Hérouville,Hérouville Saint-Clair,Hérouville-Saint-Clair,ai lu wei er sheng ke lai,arwwy sn klr,arwwyl-sn-klr,elubilsaengkeulleleu,eruvu~iru=san=kureru,Ерувил Сен Клер,Ерувиль-Сен-Клер,Ерувіль-Сен-Клер,Эрувиль-Сен-Клер,ارووی سن کلر,اروویل-سن-کلر,エルヴィル＝サン＝クレール,埃鲁维尔圣克莱,에루빌생클레르","latitude":"49.21088","longitude":"-0.30653","feature_class":"P","feature_code":"PPL","country_code":"FR","cc2":"","admin1_code":"28","admin2_code":"14","admin3_code":"142","admin4_code":"14327","population":"24258","elevation":"","dem":"5","timezone":"Europe/Paris","modification_date":"2016-02-18"},{"geonameid":"3013410","name":"Hermonville","asciiname":"Hermonville","alternatenames":"Ermonvil',Hermonville,ai er meng wei er,Ермонвіль,埃尔蒙维尔","latitude":"49.33655","longitude":"3.91011","feature_class":"P","feature_code":"PPL","country_code":"FR","cc2":"","admin1_code":"44","admin2_code":"51","admin3_code":"513","admin4_code":"51291","population":"1250","elevation":"","dem":"106","timezone":"Europe/Paris","modification_date":"2016-02-18"},{"geonameid":"3013416","name":"Hermies","asciiname":"Hermies","alternatenames":"Hermies","latitude":"50.11126","longitude":"3.04202","feature_class":"P","feature_code":"PPL","country_code":"FR","cc2":"","admin1_code":"32","admin2_code":"62","admin3_code":"621","admin4_code":"62440","population":"1159","elevation":"","dem":"115","timezone":"Europe/Paris","modification_date":"2016-02-18"},{"geonameid":"3013424","name":"Hermes","asciiname":"Hermes","alternatenames":"Hermes","latitude":"49.36032","longitude":"2.24461","feature_class":"P","feature_code":"PPL","country_code":"FR","cc2":"","admin1_code":"32","admin2_code":"60","admin3_code":"601","admin4_code":"60313","population":"2407","elevation":"","dem":"58","timezone":"Europe/Paris","modification_date":"2016-02-18"},{"geonameid":"3013433","name":"Hermanville-sur-Mer","asciiname":"Hermanville-sur-Mer","alternatenames":"Ehrmanvil'-sjur-Mer,Ermanvil'-sjur-Mer,Hermanville,Hermanville-sur-Mer,bin hai ai er mang wei er,Ерманвиль-сюр-Мер,Ерманвіль-сюр-Мер,Эрманвиль-сюр-Мер,滨海埃尔芒维尔","latitude":"49.28464","longitude":"-0.31544","feature_class":"P","feature_code":"PPL","country_code":"FR","cc2":"","admin1_code":"28","admin2_code":"14","admin3_code":"142","admin4_code":"14325","population":"2785","elevation":"","dem":"9","timezone":"Europe/Paris","modification_date":"2016-02-18"},{"geonameid":"3013442","name":"Herlies","asciiname":"Herlies","alternatenames":"Herlies","latitude":"50.57753","longitude":"2.85285","feature_class":"P","feature_code":"PPL","country_code":"FR","cc2":"","admin1_code":"32","admin2_code":"59","admin3_code":"595","admin4_code":"59303","population":"2052","elevation":"","dem":"40","timezone":"Europe/Paris","modification_date":"2016-02-18"},{"geonameid":"3013447","name":"Hérin","asciiname":"Herin","alternatenames":"Eren,Herin,Hérin,ai lan,Ерен,埃兰","latitude":"50.35557","longitude":"3.45309","feature_class":"P","feature_code":"PPL","country_code":"FR","cc2":"","admin1_code":"32","admin2_code":"59","admin3_code":"596","admin4_code":"59302","population":"4025","elevation":"","dem":"45","timezone":"Europe/Paris","modification_date":"2016-02-18"},{"geonameid":"3013448","name":"Hérimoncourt","asciiname":"Herimoncourt","alternatenames":"Herimoncourt,Hérimoncourt","latitude":"47.44284","longitude":"6.88242","feature_class":"P","feature_code":"PPL","country_code":"FR","cc2":"","admin1_code":"27","admin2_code":"25","admin3_code":"252","admin4_code":"25304","population":"4099","elevation":"","dem":"360","timezone":"Europe/Paris","modification_date":"2016-02-18"},{"geonameid":"3013452","name":"Héricy","asciiname":"Hericy","alternatenames":"Erisi,Hericy,Hericy-sur Seine,Héricy,Héricy-sur Seine,Ериси,Ерисі","latitude":"48.44848","longitude":"2.76445","feature_class":"P","feature_code":"PPL","country_code":"FR","cc2":"","admin1_code":"11","admin2_code":"77","admin3_code":"774","admin4_code":"77226","population":"2842","elevation":"","dem":"51","timezone":"Europe/Paris","modification_date":"2016-02-18"},{"geonameid":"3013456","name":"Héricourt","asciiname":"Hericourt","alternatenames":"Hericourt,Héricourt","latitude":"47.57305","longitude":"6.76139","feature_class":"P","feature_code":"PPL","country_code":"FR","cc2":"","admin1_code":"27","admin2_code":"70","admin3_code":"701","admin4_code":"70285","population":"10985","elevation":"","dem":"329","timezone":"Europe/Paris","modification_date":"2016-02-18"},{"geonameid":"3013457","name":"Héric","asciiname":"Heric","alternatenames":"Erik,Heric,Hierig,Héric,Ерик","latitude":"47.41417","longitude":"-1.65309","feature_class":"P","feature_code":"PPL","country_code":"FR","cc2":"","admin1_code":"52","admin2_code":"44","admin3_code":"441","admin4_code":"44073","population":"4286","elevation":"","dem":"35","timezone":"Europe/Paris","modification_date":"2016-02-18"},{"geonameid":"3013459","name":"Hergnies","asciiname":"Hergnies","alternatenames":"Hergines,Hergnies","latitude":"50.47287","longitude":"3.52612","feature_class":"P","feature_code":"PPL","country_code":"FR","cc2":"","admin1_code":"32","admin2_code":"59","admin3_code":"596","admin4_code":"59301","population":"3930","elevation":"","dem":"23","timezone":"Europe/Paris","modification_date":"2016-02-18"},{"geonameid":"3013462","name":"Hérépian","asciiname":"Herepian","alternatenames":"Herepian,Hérépian","latitude":"43.593","longitude":"3.11595","feature_class":"P","feature_code":"PPL","country_code":"FR","cc2":"","admin1_code":"76","admin2_code":"34","admin3_code":"341","admin4_code":"34119","population":"1550","elevation":"","dem":"191","timezone":"Europe/Paris","modification_date":"2016-02-18"},{"geonameid":"3013477","name":"Herblay","asciiname":"Herblay","alternatenames":"Ehrble,Erble,Herblay,ai er bu lai,arblh,eleubeulle,erubure,Ербле,Эрбле,اربله,エルブレ,埃尔布莱,에르블레","latitude":"48.98994","longitude":"2.1699","feature_class":"P","feature_code":"PPL","country_code":"FR","cc2":"","admin1_code":"11","admin2_code":"95","admin3_code":"951","admin4_code":"95306","population":"25153","elevation":"","dem":"68","timezone":"Europe/Paris","modification_date":"2016-02-18"},{"geonameid":"3013478","name":"Herbitzheim","asciiname":"Herbitzheim","alternatenames":"Erbicajm,Herbitzheim,Herzum,ai er bi te zan,hrbytshaym,hyrbtzhym,Ербицайм,Ербіцайм,هربیتسهایم,هيربتزهيم,埃尔比特赞","latitude":"49.01407","longitude":"7.09022","feature_class":"P","feature_code":"PPL","country_code":"FR","cc2":"","admin1_code":"44","admin2_code":"67","admin3_code":"674","admin4_code":"67191","population":"1949","elevation":"","dem":"227","timezone":"Europe/Paris","modification_date":"2016-02-18"},{"geonameid":"3013484","name":"Herbignac","asciiname":"Herbignac","alternatenames":"Erbigneg,Erbin'jak,Herbignac,ai er bi ni ya ke,erubinyakku,Ербіньяк,エルビニャック,埃尔比尼亚克","latitude":"47.44822","longitude":"-2.3181","feature_class":"P","feature_code":"PPL","country_code":"FR","cc2":"","admin1_code":"52","admin2_code":"44","admin3_code":"443","admin4_code":"44072","population":"4724","elevation":"","dem":"19","timezone":"Europe/Paris","modification_date":"2016-02-18"},{"geonameid":"3013486","name":"Herbeys","asciiname":"Herbeys","alternatenames":"Herbey,Herbeys","latitude":"45.13735","longitude":"5.79592","feature_class":"P","feature_code":"PPL","country_code":"FR","cc2":"","admin1_code":"84","admin2_code":"38","admin3_code":"381","admin4_code":"38188","population":"1239","elevation":"","dem":"515","timezone":"Europe/Paris","modification_date":"2016-02-18"},{"geonameid":"3013496","name":"Herbault","asciiname":"Herbault","alternatenames":"Erbo,Herbault,ai er bo er,Ербо,埃尔博尔","latitude":"47.60501","longitude":"1.13934","feature_class":"P","feature_code":"PPL","country_code":"FR","cc2":"","admin1_code":"24","admin2_code":"41","admin3_code":"411","admin4_code":"41101","population":"1175","elevation":"","dem":"136","timezone":"Europe/Paris","modification_date":"2016-02-18"},{"geonameid":"3013504","name":"Henvic","asciiname":"Henvic","alternatenames":"Anvik,Envik,Henvic,Henvig,ang wei ke,Анвик,Анвік,Енвик,昂维克","latitude":"48.63256","longitude":"-3.92623","feature_class":"P","feature_code":"PPL","country_code":"FR","cc2":"","admin1_code":"53","admin2_code":"29","admin3_code":"293","admin4_code":"29079","population":"1247","elevation":"","dem":"71","timezone":"Europe/Paris","modification_date":"2016-02-18"},{"geonameid":"3013510","name":"Henrichemont","asciiname":"Henrichemont","alternatenames":"Anrishmon,Henrichement,Henrichemont,ang li shang weng,Анришмон,昂里尚翁","latitude":"47.30333","longitude":"2.52458","feature_class":"P","feature_code":"PPL","country_code":"FR","cc2":"","admin1_code":"24","admin2_code":"18","admin3_code":"181","admin4_code":"18109","population":"1847","elevation":"","dem":"286","timezone":"Europe/Paris","modification_date":"2016-02-18"},{"geonameid":"3013512","name":"Hénouville","asciiname":"Henouville","alternatenames":"Enuvil',Henouville,Hénouville,Енувиль,Енувіль","latitude":"49.4789","longitude":"0.96367","feature_class":"P","feature_code":"PPL","country_code":"FR","cc2":"","admin1_code":"28","admin2_code":"76","admin3_code":"763","admin4_code":"76354","population":"1247","elevation":"","dem":"131","timezone":"Europe/Paris","modification_date":"2016-02-18"},{"geonameid":"3013514","name":"Hénon","asciiname":"Henon","alternatenames":"Henon,Hénon","latitude":"48.38433","longitude":"-2.68334","feature_class":"P","feature_code":"PPL","country_code":"FR","cc2":"","admin1_code":"53","admin2_code":"22","admin3_code":"224","admin4_code":"22079","population":"1794","elevation":"","dem":"150","timezone":"Europe/Paris","modification_date":"2016-02-18"},{"geonameid":"3013521","name":"Hennebont","asciiname":"Hennebont","alternatenames":"Anbon,Ehnbon,Ennbon,Hannebotum,Henbont,Hennebont,ai nei bang,en'nubon,Анбон,Еннбон,Энбон,エンヌボン,埃内邦","latitude":"47.80512","longitude":"-3.27337","feature_class":"P","feature_code":"PPL","country_code":"FR","cc2":"","admin1_code":"53","admin2_code":"56","admin3_code":"561","admin4_code":"56083","population":"14288","elevation":"","dem":"22","timezone":"Europe/Paris","modification_date":"2016-02-18"},{"geonameid":"3013525","name":"Hénin-Beaumont","asciiname":"Henin-Beaumont","alternatenames":"Ehnen-Bomon,Enen Bomon,Enen-Bomon,Henin-Beaumont,Henin-Lietard,Hinnin-Biaumont,Hénin-Beaumont,Hénin-Liétard,L'Humanite,L'Humanité,ai nan bo meng,ann bwmwn,ann-bwmwn,enaengbomong,enan=bomon,hynan bwmwnt,Енен Бомон,Енен-Бомон,Энен-Бомон,انن بومون,انن-بومون,هينان بومونت,エナン＝ボーモン,埃南博蒙,에냉보몽","latitude":"50.41359","longitude":"2.96485","feature_class":"P","feature_code":"PPL","country_code":"FR","cc2":"","admin1_code":"32","admin2_code":"62","admin3_code":"627","admin4_code":"62427","population":"25371","elevation":"","dem":"31","timezone":"Europe/Paris","modification_date":"2016-02-18"},{"geonameid":"3013534","name":"Hendaye","asciiname":"Hendaye","alternatenames":"Andaj,Andej,Hendaia,Hendaya,Hendaye,XHY,andaie,ang dai yi,Андай,Андеј,アンダイエ,昂代伊","latitude":"43.37172","longitude":"-1.77382","feature_class":"P","feature_code":"PPL","country_code":"FR","cc2":"","admin1_code":"75","admin2_code":"64","admin3_code":"641","admin4_code":"64260","population":"14415","elevation":"","dem":"8","timezone":"Europe/Paris","modification_date":"2016-02-18"},{"geonameid":"3013536","name":"Hénanbihen","asciiname":"Henanbihen","alternatenames":"Henanbihen,Henant-Bihan,Hénanbihen","latitude":"48.56072","longitude":"-2.37602","feature_class":"P","feature_code":"PPL","country_code":"FR","cc2":"","admin1_code":"53","admin2_code":"22","admin3_code":"221","admin4_code":"22076","population":"1354","elevation":"","dem":"71","timezone":"Europe/Paris","modification_date":"2016-02-18"},{"geonameid":"3013549","name":"Hem","asciiname":"Hem","alternatenames":"","latitude":"50.65256","longitude":"3.18681","feature_class":"P","feature_code":"PPL","country_code":"FR","cc2":"","admin1_code":"32","admin2_code":"59","admin3_code":"595","admin4_code":"59299","population":"19699","elevation":"","dem":"31","timezone":"Europe/Paris","modification_date":"2016-02-18"},{"geonameid":"3013569","name":"Helfaut","asciiname":"Helfaut","alternatenames":"Ehl'fo,El'fo,Elfo,Helfaut,Helfaut-Bliques,ai er fu,hylfawt,Елфо,Ельфо,Эльфо,هيلفاوت,埃尔福","latitude":"50.69783","longitude":"2.24234","feature_class":"P","feature_code":"PPL","country_code":"FR","cc2":"","admin1_code":"32","admin2_code":"62","admin3_code":"625","admin4_code":"62423","population":"1748","elevation":"","dem":"93","timezone":"Europe/Paris","modification_date":"2016-02-18"},{"geonameid":"3013571","name":"Hélesmes","asciiname":"Helesmes","alternatenames":"Helesmes,Hélesmes","latitude":"50.37036","longitude":"3.35918","feature_class":"P","feature_code":"PPL","country_code":"FR","cc2":"","admin1_code":"32","admin2_code":"59","admin3_code":"596","admin4_code":"59297","population":"1856","elevation":"","dem":"21","timezone":"Europe/Paris","modification_date":"2016-02-18"},{"geonameid":"3013578","name":"Heimsbrunn","asciiname":"Heimsbrunn","alternatenames":"Heimsbrunn","latitude":"47.72647","longitude":"7.22638","feature_class":"P","feature_code":"PPL","country_code":"FR","cc2":"","admin1_code":"44","admin2_code":"68","admin3_code":"684","admin4_code":"68129","population":"1284","elevation":"","dem":"280","timezone":"Europe/Paris","modification_date":"2016-02-18"},{"geonameid":"3013585","name":"Heillecourt","asciiname":"Heillecourt","alternatenames":"Heillecourt","latitude":"48.65854","longitude":"6.20711","feature_class":"P","feature_code":"PPL","country_code":"FR","cc2":"","admin1_code":"44","admin2_code":"54","admin3_code":"543","admin4_code":"54257","population":"6327","elevation":"","dem":"228","timezone":"Europe/Paris","modification_date":"2016-02-21"},{"geonameid":"3013592","name":"Hégenheim","asciiname":"Hegenheim","alternatenames":"Egenajm,Ehgenajm,Hegenheim,Hégenheim,ai re nan,Егенайм,Эгенайм,埃热南","latitude":"47.56251","longitude":"7.52684","feature_class":"P","feature_code":"PPL","country_code":"FR","cc2":"","admin1_code":"44","admin2_code":"68","admin3_code":"684","admin4_code":"68126","population":"2894","elevation":"","dem":"279","timezone":"Europe/Paris","modification_date":"2016-02-18"},{"geonameid":"3013596","name":"Hédé-Bazouges","asciiname":"Hede-Bazouges","alternatenames":"Ede,Hazhou,Hazhou-Bazeleg,Hazhoù,Hazhoù-Bazeleg,Hede,Hédé,ai dai,Еде,埃代","latitude":"48.3","longitude":"-1.8","feature_class":"P","feature_code":"PPL","country_code":"FR","cc2":"","admin1_code":"53","admin2_code":"35","admin3_code":"353","admin4_code":"35130","population":"2076","elevation":"","dem":"52","timezone":"Europe/Paris","modification_date":"2016-02-18"},{"geonameid":"3013619","name":"Hazebrouck","asciiname":"Hazebrouck","alternatenames":"Azbruk,Azebruk,HZB,Hazebroek,Hazebrouck,Oazebroeke,a ci bu lu ke,ajeubeulukeu,azbrwk,azuburukku,Азбрук,Азебрук,ازبروک,アーズブルック,阿兹布鲁克,아즈브루크","latitude":"50.72374","longitude":"2.53729","feature_class":"P","feature_code":"PPL","country_code":"FR","cc2":"","admin1_code":"32","admin2_code":"59","admin3_code":"594","admin4_code":"59295","population":"23307","elevation":"","dem":"26","timezone":"Europe/Paris","modification_date":"2016-02-18"},{"geonameid":"3013626","name":"Haybes","asciiname":"Haybes","alternatenames":"Eb,Ehb,Haybes,Haybes-sur-Meuse,ai bu,Еб,Эб,艾布","latitude":"50.00458","longitude":"4.70496","feature_class":"P","feature_code":"PPL","country_code":"FR","cc2":"","admin1_code":"44","admin2_code":"08","admin3_code":"081","admin4_code":"08222","population":"2101","elevation":"","dem":"165","timezone":"Europe/Paris","modification_date":"2016-02-18"},{"geonameid":"3013627","name":"Hayange","asciiname":"Hayange","alternatenames":"Ajanzh,Eanzh,Hayange,Hyange,ai ang ge,hyanzh,Ајанж,Еанж,هیانژ,艾昂格","latitude":"49.33428","longitude":"6.05267","feature_class":"P","feature_code":"PPL","country_code":"FR","cc2":"","admin1_code":"44","admin2_code":"57","admin3_code":"578","admin4_code":"57306","population":"15501","elevation":"","dem":"194","timezone":"Europe/Paris","modification_date":"2016-02-21"},{"geonameid":"3013635","name":"Haverskerque","asciiname":"Haverskerque","alternatenames":"Avekerk,Averskerk,Haverskerke,Haverskerque,Oaverskerke,a wei er kai er ke,Авекерк,Аверскерк,阿韦尔凯尔克","latitude":"50.64089","longitude":"2.54162","feature_class":"P","feature_code":"PPL","country_code":"FR","cc2":"","admin1_code":"32","admin2_code":"59","admin3_code":"594","admin4_code":"59293","population":"1475","elevation":"","dem":"18","timezone":"Europe/Paris","modification_date":"2016-02-18"},{"geonameid":"3013637","name":"Haveluy","asciiname":"Haveluy","alternatenames":"Aveljui,Avlij,Haveluy,a wei lu yi,Авелюи,Авелюї,Авлиј,阿韦吕伊","latitude":"50.35289","longitude":"3.40389","feature_class":"P","feature_code":"PPL","country_code":"FR","cc2":"","admin1_code":"32","admin2_code":"59","admin3_code":"596","admin4_code":"59292","population":"3136","elevation":"","dem":"29","timezone":"Europe/Paris","modification_date":"2016-02-18"},{"geonameid":"3013644","name":"Hauville","asciiname":"Hauville","alternatenames":"Hauville,Ovil,Ovil',Овил,Овиль,Овіль","latitude":"49.39645","longitude":"0.77232","feature_class":"P","feature_code":"PPL","country_code":"FR","cc2":"","admin1_code":"28","admin2_code":"27","admin3_code":"272","admin4_code":"27316","population":"1172","elevation":"","dem":"143","timezone":"Europe/Paris","modification_date":"2016-02-18"},{"geonameid":"3013673","name":"Hautot-sur-Mer","asciiname":"Hautot-sur-Mer","alternatenames":"Hautot,Hautot-sur-Mer","latitude":"49.89789","longitude":"1.02884","feature_class":"P","feature_code":"PPL","country_code":"FR","cc2":"","admin1_code":"28","admin2_code":"76","admin3_code":"761","admin4_code":"76349","population":"2193","elevation":"","dem":"100","timezone":"Europe/Paris","modification_date":"2016-02-18"},{"geonameid":"3013681","name":"Hautmont","asciiname":"Hautmont","alternatenames":"Omon,Otmon,ou meng,Омон,Отмон,欧蒙","latitude":"50.25077","longitude":"3.92143","feature_class":"P","feature_code":"PPL","country_code":"FR","cc2":"","admin1_code":"32","admin2_code":"59","admin3_code":"591","admin4_code":"59291","population":"15540","elevation":"","dem":"141","timezone":"Europe/Paris","modification_date":"2016-02-18"},{"geonameid":"3013701","name":"Yutz","asciiname":"Yutz","alternatenames":"Jeutz,Jjus,Juc,Yutz Haute,yi yu te,ywts,Йюс,Юц,یوتس,یوٹز,伊于特","latitude":"49.35571","longitude":"6.1926","feature_class":"P","feature_code":"PPL","country_code":"FR","cc2":"","admin1_code":"44","admin2_code":"57","admin3_code":"577","admin4_code":"57757","population":"15659","elevation":"","dem":"156","timezone":"Europe/Paris","modification_date":"2016-02-21"},{"geonameid":"3013705","name":"Hauteville-Lompnes","asciiname":"Hauteville-Lompnes","alternatenames":"Hauteville,Hauteville-Lompnes,Hauteville-Lompnès,Hotvil Lonnes,Otvil Lon,Otvil'-Lomne,Otvil'-Lones,ao te wei ye-long nei si,hwtfyl-lwmny,Отвил Лон,Отвиль-Лонес,Отвіль-Ломне,Հոտվիլ Լոննես,هوتفيل-لومني,奥特维耶－隆内斯","latitude":"45.97794","longitude":"5.60114","feature_class":"P","feature_code":"PPL","country_code":"FR","cc2":"","admin1_code":"84","admin2_code":"01","admin3_code":"011","admin4_code":"01185","population":"4096","elevation":"","dem":"804","timezone":"Europe/Paris","modification_date":"2016-02-18"},{"geonameid":"3013706","name":"Hauteville-lès-Dijon","asciiname":"Hauteville-les-Dijon","alternatenames":"Hauteville,Hauteville-les-Dijon,Hauteville-lès-Dijon,Otvil le Dizhon,Otvil'-le-Dizhon,ao te wei er lai di rong,Отвил ле Дижон,Отвиль-ле-Дижон,Отвіль-ле-Діжон,奥特维尔莱迪容","latitude":"47.36602","longitude":"4.99375","feature_class":"P","feature_code":"PPL","country_code":"FR","cc2":"","admin1_code":"27","admin2_code":"21","admin3_code":"212","admin4_code":"21315","population":"1119","elevation":"","dem":"386","timezone":"Europe/Paris","modification_date":"2016-02-18"},{"geonameid":"3013741","name":"Haute-Rivoire","asciiname":"Haute-Rivoire","alternatenames":"Haute-Rivoire","latitude":"45.71526","longitude":"4.39662","feature_class":"P","feature_code":"PPL","country_code":"FR","cc2":"","admin1_code":"84","admin2_code":"69","admin3_code":"691","admin4_code":"69099","population":"1244","elevation":"","dem":"595","timezone":"Europe/Paris","modification_date":"2016-02-18"},{"geonameid":"3013742","name":"Hauterives","asciiname":"Hauterives","alternatenames":"Hauterives,Otriv,ao te li wei,Отрив,奥特里韦","latitude":"45.2562","longitude":"5.02572","feature_class":"P","feature_code":"PPL","country_code":"FR","cc2":"","admin1_code":"84","admin2_code":"26","admin3_code":"263","admin4_code":"26148","population":"1438","elevation":"","dem":"311","timezone":"Europe/Paris","modification_date":"2016-02-18"},{"geonameid":"3013748","name":"Hauterive","asciiname":"Hauterive","alternatenames":"Hauterive","latitude":"46.09005","longitude":"3.44593","feature_class":"P","feature_code":"PPL","country_code":"FR","cc2":"","admin1_code":"84","admin2_code":"03","admin3_code":"033","admin4_code":"03126","population":"1072","elevation":"","dem":"259","timezone":"Europe/Paris","modification_date":"2016-02-18"},{"geonameid":"3013766","name":"Haute-Goulaine","asciiname":"Haute-Goulaine","alternatenames":"Gorre-Goulen,Haute-Goulaine,Ot Gulen,Ot-Gulen,Sancta Radegundis de Golena,ao te gu lan,oto=gurenu,От Гулен,От-Гулен,オート＝グレーヌ,奥特古兰","latitude":"47.19905","longitude":"-1.42941","feature_class":"P","feature_code":"PPL","country_code":"FR","cc2":"","admin1_code":"52","admin2_code":"44","admin3_code":"442","admin4_code":"44071","population":"5290","elevation":"","dem":"24","timezone":"Europe/Paris","modification_date":"2016-02-18"},{"geonameid":"3013769","name":"Hautefort","asciiname":"Hautefort","alternatenames":"Aignan-Haute-Vue,Autafort,Autafòrt,Hautefort,Otfor,ao tai fu er,Отфор,奥泰福尔","latitude":"45.25953","longitude":"1.14879","feature_class":"P","feature_code":"PPL","country_code":"FR","cc2":"","admin1_code":"75","admin2_code":"24","admin3_code":"243","admin4_code":"24210","population":"1244","elevation":"","dem":"204","timezone":"Europe/Paris","modification_date":"2016-02-18"},{"geonameid":"3013830","name":"Haussy","asciiname":"Haussy","alternatenames":"Haussy,Osi,Ossi,ou xi,Оси,Осси,Оссі,欧西","latitude":"50.2183","longitude":"3.47683","feature_class":"P","feature_code":"PPL","country_code":"FR","cc2":"","admin1_code":"32","admin2_code":"59","admin3_code":"592","admin4_code":"59289","population":"1704","elevation":"","dem":"57","timezone":"Europe/Paris","modification_date":"2016-02-18"},{"geonameid":"3013845","name":"Haulchin","asciiname":"Haulchin","alternatenames":"Haulchin","latitude":"50.3172","longitude":"3.43599","feature_class":"P","feature_code":"PPL","country_code":"FR","cc2":"","admin1_code":"32","admin2_code":"59","admin3_code":"596","admin4_code":"59288","population":"2393","elevation":"","dem":"32","timezone":"Europe/Paris","modification_date":"2016-02-18"},{"geonameid":"3013855","name":"Haucourt-Moulaine","asciiname":"Haucourt-Moulaine","alternatenames":"Haucourt,Haucourt-Moulaine","latitude":"49.49022","longitude":"5.80283","feature_class":"P","feature_code":"PPL","country_code":"FR","cc2":"","admin1_code":"44","admin2_code":"54","admin3_code":"541","admin4_code":"54254","population":"2891","elevation":"","dem":"377","timezone":"Europe/Paris","modification_date":"2016-02-21"},{"geonameid":"3013862","name":"Haubourdin","asciiname":"Haubourdin","alternatenames":"Haubourdin,Oburden,ou bu er dan,Обурден,欧布尔丹","latitude":"50.60826","longitude":"2.99143","feature_class":"P","feature_code":"PPL","country_code":"FR","cc2":"","admin1_code":"32","admin2_code":"59","admin3_code":"595","admin4_code":"59286","population":"15694","elevation":"","dem":"27","timezone":"Europe/Paris","modification_date":"2016-02-18"},{"geonameid":"3013875","name":"Haspres","asciiname":"Haspres","alternatenames":"Aspr,Aspre,Haspres,a si pu er,Аспр,Аспре,阿斯普尔","latitude":"50.25829","longitude":"3.41695","feature_class":"P","feature_code":"PPL","country_code":"FR","cc2":"","admin1_code":"32","admin2_code":"59","admin3_code":"596","admin4_code":"59285","population":"2812","elevation":"","dem":"44","timezone":"Europe/Paris","modification_date":"2016-02-18"},{"geonameid":"3013877","name":"Hasparren","asciiname":"Hasparren","alternatenames":"Asparan,Asparran,Hasparn,Hasparren,Hazparne,a si pa lang,Аспаран,Аспарран,阿斯帕朗","latitude":"43.38377","longitude":"-1.30499","feature_class":"P","feature_code":"PPL","country_code":"FR","cc2":"","admin1_code":"75","admin2_code":"64","admin3_code":"641","admin4_code":"64256","population":"6250","elevation":"","dem":"88","timezone":"Europe/Paris","modification_date":"2016-02-18"},{"geonameid":"3013878","name":"Hasnon","asciiname":"Hasnon","alternatenames":"Anon,Hasnon,a nong,Анон,阿农","latitude":"50.42472","longitude":"3.38657","feature_class":"P","feature_code":"PPL","country_code":"FR","cc2":"","admin1_code":"32","admin2_code":"59","admin3_code":"596","admin4_code":"59284","population":"3248","elevation":"","dem":"16","timezone":"Europe/Paris","modification_date":"2016-02-18"},{"geonameid":"3013908","name":"Harnes","asciiname":"Harnes","alternatenames":"Arn,Harnes,a er ne,harnys,Арн,هارنيس,阿尔讷","latitude":"50.44643","longitude":"2.90481","feature_class":"P","feature_code":"PPL","country_code":"FR","cc2":"","admin1_code":"32","admin2_code":"62","admin3_code":"627","admin4_code":"62413","population":"13569","elevation":"","dem":"35","timezone":"Europe/Paris","modification_date":"2016-02-18"},{"geonameid":"3013911","name":"Harly","asciiname":"Harly","alternatenames":"Harly","latitude":"49.83766","longitude":"3.31001","feature_class":"P","feature_code":"PPL","country_code":"FR","cc2":"","admin1_code":"32","admin2_code":"02","admin3_code":"023","admin4_code":"02371","population":"1839","elevation":"","dem":"95","timezone":"Europe/Paris","modification_date":"2016-02-18"},{"geonameid":"3013921","name":"Hargarten-aux-Mines","asciiname":"Hargarten-aux-Mines","alternatenames":"Hargarten,Hargarten-aux-Mines","latitude":"49.22429","longitude":"6.60942","feature_class":"P","feature_code":"PPL","country_code":"FR","cc2":"","admin1_code":"44","admin2_code":"57","admin3_code":"571","admin4_code":"57296","population":"1168","elevation":"","dem":"229","timezone":"Europe/Paris","modification_date":"2016-02-21"},{"geonameid":"3013922","name":"Harfleur","asciiname":"Harfleur","alternatenames":"Arfler,Arfljor,Harfleur,Port de Harfleur,harflwr,Арфлер,Арфлёр,ארפלור,هارفلور","latitude":"49.5066","longitude":"0.19827","feature_class":"P","feature_code":"PPL","country_code":"FR","cc2":"","admin1_code":"28","admin2_code":"76","admin3_code":"762","admin4_code":"76341","population":"8286","elevation":"","dem":"4","timezone":"Europe/Paris","modification_date":"2016-02-18"},{"geonameid":"3013926","name":"Hardricourt","asciiname":"Hardricourt","alternatenames":"Ardrikur,Hardricourt,Ардрикур","latitude":"49.00779","longitude":"1.89389","feature_class":"P","feature_code":"PPL","country_code":"FR","cc2":"","admin1_code":"11","admin2_code":"78","admin3_code":"781","admin4_code":"78299","population":"1941","elevation":"","dem":"61","timezone":"Europe/Paris","modification_date":"2016-02-18"},{"geonameid":"3013935","name":"Hardinghen","asciiname":"Hardinghen","alternatenames":"Ardengan,Hardinghen,Hardinghin,a er dan gang,hardynhyn,Арденган,هاردينهين,阿尔丹冈","latitude":"50.80414","longitude":"1.82122","feature_class":"P","feature_code":"PPL","country_code":"FR","cc2":"","admin1_code":"32","admin2_code":"62","admin3_code":"626","admin4_code":"62412","population":"1030","elevation":"","dem":"115","timezone":"Europe/Paris","modification_date":"2016-02-18"},{"geonameid":"3013955","name":"Harbonnières","asciiname":"Harbonnieres","alternatenames":"Arbon'er,Arbonijer,Harbonnieres,Harbonnières,Harbouniere,Harbounière,a er bo ni ye er,Арбонијер,Арбоньєр,阿尔博尼耶尔","latitude":"49.84958","longitude":"2.66812","feature_class":"P","feature_code":"PPL","country_code":"FR","cc2":"","admin1_code":"32","admin2_code":"80","admin3_code":"803","admin4_code":"80417","population":"1325","elevation":"","dem":"89","timezone":"Europe/Paris","modification_date":"2016-02-18"},{"geonameid":"3013971","name":"Hanvec","asciiname":"Hanvec","alternatenames":"Anvek,Hanvec,Hanveg,Hañveg,ang wei ke,Анвек,昂韦克","latitude":"48.32692","longitude":"-4.15951","feature_class":"P","feature_code":"PPL","country_code":"FR","cc2":"","admin1_code":"53","admin2_code":"29","admin3_code":"291","admin4_code":"29078","population":"1690","elevation":"","dem":"103","timezone":"Europe/Paris","modification_date":"2016-02-18"},{"geonameid":"3013994","name":"Hangenbieten","asciiname":"Hangenbieten","alternatenames":"Hangenbieten","latitude":"48.55985","longitude":"7.61464","feature_class":"P","feature_code":"PPL","country_code":"FR","cc2":"","admin1_code":"44","admin2_code":"67","admin3_code":"676","admin4_code":"67182","population":"1472","elevation":"","dem":"150","timezone":"Europe/Paris","modification_date":"2016-02-18"},{"geonameid":"3014001","name":"Hanches","asciiname":"Hanches","alternatenames":"Hanches","latitude":"48.60115","longitude":"1.65137","feature_class":"P","feature_code":"PPL","country_code":"FR","cc2":"","admin1_code":"24","admin2_code":"28","admin3_code":"281","admin4_code":"28191","population":"2583","elevation":"","dem":"112","timezone":"Europe/Paris","modification_date":"2016-02-18"},{"geonameid":"3014006","name":"Ham-sous-Varsberg","asciiname":"Ham-sous-Varsberg","alternatenames":"Ham,Ham-sous-Varsberg","latitude":"49.18031","longitude":"6.64626","feature_class":"P","feature_code":"PPL","country_code":"FR","cc2":"","admin1_code":"44","admin2_code":"57","admin3_code":"571","admin4_code":"57288","population":"2790","elevation":"","dem":"224","timezone":"Europe/Paris","modification_date":"2016-02-21"},{"geonameid":"3014014","name":"Hames-Boucres","asciiname":"Hames-Boucres","alternatenames":"Am Bukr,Am-Bukr,Hames,Hames-Boucres,a mu bu ke er,hamys bwsrys,Ам Букр,Ам-Букр,هاميس بوسريس,阿姆布克尔","latitude":"50.88178","longitude":"1.84338","feature_class":"P","feature_code":"PPL","country_code":"FR","cc2":"","admin1_code":"32","admin2_code":"62","admin3_code":"626","admin4_code":"62408","population":"1221","elevation":"","dem":"6","timezone":"Europe/Paris","modification_date":"2016-02-18"},{"geonameid":"3014023","name":"Hambye","asciiname":"Hambye","alternatenames":"Ambi,Hambye,ang bi ai,Амби,Амбі,昂比埃","latitude":"48.94798","longitude":"-1.26417","feature_class":"P","feature_code":"PPL","country_code":"FR","cc2":"","admin1_code":"28","admin2_code":"50","admin3_code":"503","admin4_code":"50228","population":"1141","elevation":"","dem":"91","timezone":"Europe/Paris","modification_date":"2016-02-18"},{"geonameid":"3014026","name":"Hambach","asciiname":"Hambach","alternatenames":"Hambach","latitude":"49.06263","longitude":"7.04246","feature_class":"P","feature_code":"PPL","country_code":"FR","cc2":"","admin1_code":"44","admin2_code":"57","admin3_code":"576","admin4_code":"57289","population":"2587","elevation":"","dem":"242","timezone":"Europe/Paris","modification_date":"2016-02-21"},{"geonameid":"3014029","name":"Ham","asciiname":"Ham","alternatenames":"Ham,Sparte","latitude":"49.74721","longitude":"3.07301","feature_class":"P","feature_code":"PPL","country_code":"FR","cc2":"","admin1_code":"32","admin2_code":"80","admin3_code":"804","admin4_code":"80410","population":"5698","elevation":"","dem":"67","timezone":"Europe/Paris","modification_date":"2016-02-18"},{"geonameid":"3014034","name":"Halluin","asciiname":"Halluin","alternatenames":"Alijen,Alljuehn,Alljuen,Halewijn,Halluin,Oalewyne,a lu an,Алијен,Аллюен,Аллюэн,阿吕安","latitude":"50.78628","longitude":"3.12611","feature_class":"P","feature_code":"PPL","country_code":"FR","cc2":"","admin1_code":"32","admin2_code":"59","admin3_code":"595","admin4_code":"59279","population":"20171","elevation":"","dem":"17","timezone":"Europe/Paris","modification_date":"2016-02-18"},{"geonameid":"3014044","name":"Hallines","asciiname":"Hallines","alternatenames":"Alin,Allin,Hallines,a li ne,halyns,Алин,Аллин,Аллін,هالينس,阿利讷","latitude":"50.71087","longitude":"2.22629","feature_class":"P","feature_code":"PPL","country_code":"FR","cc2":"","admin1_code":"32","admin2_code":"62","admin3_code":"625","admin4_code":"62403","population":"1436","elevation":"","dem":"34","timezone":"Europe/Paris","modification_date":"2016-02-18"},{"geonameid":"3014049","name":"Hallennes-lez-Haubourdin","asciiname":"Hallennes-lez-Haubourdin","alternatenames":"Alan le Oburden,Allenn-le-Oburden,Hallennes,Hallennes-lez-Haubourdin,a lai ne lai ou bu er dan,Алан ле Обурден,Алленн-ле-Обурден,阿莱讷莱欧布尔丹","latitude":"50.61667","longitude":"2.96667","feature_class":"P","feature_code":"PPL","country_code":"FR","cc2":"","admin1_code":"32","admin2_code":"59","admin3_code":"595","admin4_code":"59278","population":"3872","elevation":"","dem":"25","timezone":"Europe/Paris","modification_date":"2016-02-18"},{"geonameid":"3014050","name":"Hallencourt","asciiname":"Hallencourt","alternatenames":"Alankur,Allankur,Hallencourt,a lang ku er,arankuru,Аланкур,Алланкур,アランクール,阿朗库尔","latitude":"49.99201","longitude":"1.87649","feature_class":"P","feature_code":"PPL","country_code":"FR","cc2":"","admin1_code":"32","admin2_code":"80","admin3_code":"801","admin4_code":"80406","population":"1372","elevation":"","dem":"113","timezone":"Europe/Paris","modification_date":"2016-02-18"},{"geonameid":"3014060","name":"Haisnes","asciiname":"Haisnes","alternatenames":"Haisnes,Haisnes-lez la Bassee,Haisnes-lez la Bassée","latitude":"50.50776","longitude":"2.79416","feature_class":"P","feature_code":"PPL","country_code":"FR","cc2":"","admin1_code":"32","admin2_code":"62","admin3_code":"622","admin4_code":"62401","population":"4436","elevation":"","dem":"27","timezone":"Europe/Paris","modification_date":"2016-02-18"},{"geonameid":"3014067","name":"Haillicourt","asciiname":"Haillicourt","alternatenames":"Aikur,Ajikur,Haillicourt,a yi ku er,haylykwrt,Аикур,Айикур,Аїкур,Ајикур,هايليكورت,阿伊库尔","latitude":"50.47519","longitude":"2.57458","feature_class":"P","feature_code":"PPL","country_code":"FR","cc2":"","admin1_code":"32","admin2_code":"62","admin3_code":"622","admin4_code":"62400","population":"5121","elevation":"","dem":"65","timezone":"Europe/Paris","modification_date":"2016-02-18"},{"geonameid":"3014078","name":"Haguenau","asciiname":"Haguenau","alternatenames":"Ageno,Agenu,Agijeno,Agno,Ankno,Hagenau,Haguenau,Hawenau,Hàwenau,a gai nuo,ageuno,agno,agnw,aguno,haghwynaw,Αγκνώ,Агено,Агену,Агијено,Агно,אגנו,اگنو,هاغويناو,აგნო,アグノー,阿盖诺,아그노","latitude":"48.81557","longitude":"7.79051","feature_class":"P","feature_code":"PPLA3","country_code":"FR","cc2":"","admin1_code":"44","admin2_code":"67","admin3_code":"672","admin4_code":"67180","population":"38721","elevation":"","dem":"144","timezone":"Europe/Paris","modification_date":"2016-02-18"},{"geonameid":"3014080","name":"Hagondange","asciiname":"Hagondange","alternatenames":"Agondanzh,Hagendingen,Hagondange,a gong dang ge,hagndanzh,Агонданж,هاگندانژ,阿贡当格","latitude":"49.25134","longitude":"6.16812","feature_class":"P","feature_code":"PPL","country_code":"FR","cc2":"","admin1_code":"44","admin2_code":"57","admin3_code":"574","admin4_code":"57283","population":"9039","elevation":"","dem":"162","timezone":"Europe/Paris","modification_date":"2016-02-21"},{"geonameid":"3014084","name":"Hagetmau","asciiname":"Hagetmau","alternatenames":"Azhemo,Azhetmo,a re te mo,Ажемо,Ажетмо,阿热特莫","latitude":"43.65893","longitude":"-0.59172","feature_class":"P","feature_code":"PPL","country_code":"FR","cc2":"","admin1_code":"75","admin2_code":"40","admin3_code":"402","admin4_code":"40119","population":"4798","elevation":"","dem":"118","timezone":"Europe/Paris","modification_date":"2016-02-18"},{"geonameid":"3014088","name":"Hagenthal-le-Bas","asciiname":"Hagenthal-le-Bas","alternatenames":"","latitude":"47.52497","longitude":"7.47783","feature_class":"P","feature_code":"PPL","country_code":"FR","cc2":"","admin1_code":"44","admin2_code":"68","admin3_code":"684","admin4_code":"68120","population":"1050","elevation":"","dem":"360","timezone":"Europe/Paris","modification_date":"2016-02-18"},{"geonameid":"3014096","name":"Hadol","asciiname":"Hadol","alternatenames":"Adol,Adol',Hadol,a duo,Адол,Адоль,阿多","latitude":"48.08983","longitude":"6.47662","feature_class":"P","feature_code":"PPL","country_code":"FR","cc2":"","admin1_code":"44","admin2_code":"88","admin3_code":"881","admin4_code":"88225","population":"2184","elevation":"","dem":"406","timezone":"Europe/Paris","modification_date":"2016-02-21"},{"geonameid":"3014103","name":"Habsheim","asciiname":"Habsheim","alternatenames":"Habsheim","latitude":"47.73087","longitude":"7.41855","feature_class":"P","feature_code":"PPL","country_code":"FR","cc2":"","admin1_code":"44","admin2_code":"68","admin3_code":"684","admin4_code":"68118","population":"4534","elevation":"","dem":"237","timezone":"Europe/Paris","modification_date":"2016-02-18"},{"geonameid":"3014114","name":"Habas","asciiname":"Habas","alternatenames":"Habas","latitude":"43.5718","longitude":"-0.92976","feature_class":"P","feature_code":"PPL","country_code":"FR","cc2":"","admin1_code":"75","admin2_code":"40","admin3_code":"401","admin4_code":"40118","population":"1470","elevation":"","dem":"110","timezone":"Europe/Paris","modification_date":"2016-02-18"},{"geonameid":"3014128","name":"Gy","asciiname":"Gy","alternatenames":"Gy","latitude":"47.40588","longitude":"5.81226","feature_class":"P","feature_code":"PPL","country_code":"FR","cc2":"","admin1_code":"27","admin2_code":"70","admin3_code":"702","admin4_code":"70282","population":"1043","elevation":"","dem":"233","timezone":"Europe/Paris","modification_date":"2016-02-18"},{"geonameid":"3014143","name":"Guyancourt","asciiname":"Guyancourt","alternatenames":"Gijankur,Gjujankur,Guyancourt,giangkuleu,gwyankwr,gyuiyankuru,ji yang gu er,Гиянкур,Гијанкур,Гюйанкур,Гіянкур,گویانکور,ギュイヤンクール,基揚古爾,기앙쿠르","latitude":"48.77334","longitude":"2.07393","feature_class":"P","feature_code":"PPL","country_code":"FR","cc2":"","admin1_code":"11","admin2_code":"78","admin3_code":"784","admin4_code":"78297","population":"31989","elevation":"","dem":"161","timezone":"Europe/Paris","modification_date":"2016-02-18"},{"geonameid":"3014155","name":"Gurgy","asciiname":"Gurgy","alternatenames":"Gurgy","latitude":"47.86712","longitude":"3.56341","feature_class":"P","feature_code":"PPL","country_code":"FR","cc2":"","admin1_code":"27","admin2_code":"89","admin3_code":"891","admin4_code":"89198","population":"1718","elevation":"","dem":"90","timezone":"Europe/Paris","modification_date":"2016-02-18"},{"geonameid":"3014167","name":"Gundershoffen","asciiname":"Gundershoffen","alternatenames":"Gundershoffen","latitude":"48.90648","longitude":"7.66096","feature_class":"P","feature_code":"PPL","country_code":"FR","cc2":"","admin1_code":"44","admin2_code":"67","admin3_code":"672","admin4_code":"67176","population":"3710","elevation":"","dem":"175","timezone":"Europe/Paris","modification_date":"2016-02-18"},{"geonameid":"3014173","name":"Gumbrechtshoffen","asciiname":"Gumbrechtshoffen","alternatenames":"Niederbronn","latitude":"48.9058","longitude":"7.62915","feature_class":"P","feature_code":"PPL","country_code":"FR","cc2":"","admin1_code":"44","admin2_code":"67","admin3_code":"672","admin4_code":"67174","population":"1299","elevation":"","dem":"174","timezone":"Europe/Paris","modification_date":"2016-02-18"},{"geonameid":"3014175","name":"Gujan-Mestras","asciiname":"Gujan-Mestras","alternatenames":"Gjuzhan-Mestras,Gujan,Gujan e Mestras,Gujan e Mestràs,Gujan-Mestras,Gujan-et-Mestras,ju rang mei si te la,Гюжан-Местрас,居让梅斯特拉","latitude":"44.63333","longitude":"-1.06667","feature_class":"P","feature_code":"PPL","country_code":"FR","cc2":"","admin1_code":"75","admin2_code":"33","admin3_code":"336","admin4_code":"33199","population":"19184","elevation":"","dem":"7","timezone":"Europe/Paris","modification_date":"2016-02-18"},{"geonameid":"3014185","name":"Guîtres","asciiname":"Guitres","alternatenames":"Gitr,Gjuitr,Guitres,Guîtres,ji te lei,Гитр,Гюитр,Гюїтр,吉特雷","latitude":"45.03333","longitude":"-0.18333","feature_class":"P","feature_code":"PPL","country_code":"FR","cc2":"","admin1_code":"75","admin2_code":"33","admin3_code":"335","admin4_code":"33198","population":"1607","elevation":"","dem":"9","timezone":"Europe/Paris","modification_date":"2016-02-18"},{"geonameid":"3014192","name":"Guissény","asciiname":"Guisseny","alternatenames":"Gisseni,Guisseny,Guissény,Gwiseni,Гиссени,Гіссені","latitude":"48.63292","longitude":"-4.40884","feature_class":"P","feature_code":"PPL","country_code":"FR","cc2":"","admin1_code":"53","admin2_code":"29","admin3_code":"291","admin4_code":"29077","population":"1938","elevation":"","dem":"16","timezone":"Europe/Paris","modification_date":"2016-02-18"},{"geonameid":"3014195","name":"Guise","asciiname":"Guise","alternatenames":"Beaupre,Beaupré,Giz,Gjuiz,Guisa,Guise,Reunion-sur-Oise,Réunion-sur-Oise,ji si,Гиз,Гюиз,Гіз,吉斯","latitude":"49.90055","longitude":"3.62801","feature_class":"P","feature_code":"PPL","country_code":"FR","cc2":"","admin1_code":"32","admin2_code":"02","admin3_code":"025","admin4_code":"02361","population":"6033","elevation":"","dem":"98","timezone":"Europe/Paris","modification_date":"2016-02-18"},{"geonameid":"3014196","name":"Guiscriff","asciiname":"Guiscriff","alternatenames":"Giskriff,Guiscriff,Guiseriff,Gwiskri,ji si ke li,Гискрифф,Гіскрифф,吉斯克里","latitude":"48.04944","longitude":"-3.64356","feature_class":"P","feature_code":"PPL","country_code":"FR","cc2":"","admin1_code":"53","admin2_code":"56","admin3_code":"562","admin4_code":"56081","population":"2554","elevation":"","dem":"192","timezone":"Europe/Paris","modification_date":"2016-02-18"},{"geonameid":"3014197","name":"Guiscard","asciiname":"Guiscard","alternatenames":"Guiscard","latitude":"49.6566","longitude":"3.05127","feature_class":"P","feature_code":"PPL","country_code":"FR","cc2":"","admin1_code":"32","admin2_code":"60","admin3_code":"603","admin4_code":"60291","population":"1802","elevation":"","dem":"62","timezone":"Europe/Paris","modification_date":"2016-02-18"},{"geonameid":"3014208","name":"Guipry","asciiname":"Guipry","alternatenames":"Gipri,Guipry,Gwipri,Wippericum,ji pu li,Гипри,Гіпрі,吉普里","latitude":"47.82637","longitude":"-1.84218","feature_class":"P","feature_code":"PPL","country_code":"FR","cc2":"","admin1_code":"53","admin2_code":"35","admin3_code":"352","admin4_code":"35129","population":"3281","elevation":"","dem":"43","timezone":"Europe/Paris","modification_date":"2016-02-18"},{"geonameid":"3014212","name":"Guipel","asciiname":"Guipel","alternatenames":"Guipel,Gwipedel","latitude":"48.29937","longitude":"-1.71866","feature_class":"P","feature_code":"PPL","country_code":"FR","cc2":"","admin1_code":"53","admin2_code":"35","admin3_code":"353","admin4_code":"35128","population":"1557","elevation":"","dem":"75","timezone":"Europe/Paris","modification_date":"2016-02-18"},{"geonameid":"3014213","name":"Guipavas","asciiname":"Guipavas","alternatenames":"Gipava,Guipavas,Gwipavaz,ji pa wa,Гипава,Гіпава,吉帕瓦","latitude":"48.43522","longitude":"-4.39722","feature_class":"P","feature_code":"PPL","country_code":"FR","cc2":"","admin1_code":"53","admin2_code":"29","admin3_code":"291","admin4_code":"29075","population":"13755","elevation":"","dem":"85","timezone":"Europe/Paris","modification_date":"2016-02-18"},{"geonameid":"3014221","name":"Guingamp","asciiname":"Guingamp","alternatenames":"Gengam,Gengan,Genganas,Gingam,Guengampum,Guingamp,Gwengamp,gaeng-gang,gan gang,gangan,ghanghan,gngamn,gngamp,Генгам,Генган,Гингам,غانغان,گنگامن,گنگامپ,ガンガン,甘岡,갱강","latitude":"48.55","longitude":"-3.15","feature_class":"P","feature_code":"PPLA3","country_code":"FR","cc2":"","admin1_code":"53","admin2_code":"22","admin3_code":"222","admin4_code":"22070","population":"9023","elevation":"","dem":"86","timezone":"Europe/Paris","modification_date":"2016-02-18"},{"geonameid":"3014224","name":"Guînes","asciiname":"Guines","alternatenames":"Gin,Gjuin,Guines,Guines-en-Calaisis,Guinne,Guînes,Guînes-en-Calaisis,ji ne,jwynys,Гин,Гюин,Гюїн,جوينيس,吉讷","latitude":"50.86708","longitude":"1.87025","feature_class":"P","feature_code":"PPL","country_code":"FR","cc2":"","admin1_code":"32","admin2_code":"62","admin3_code":"626","admin4_code":"62397","population":"5342","elevation":"","dem":"13","timezone":"Europe/Paris","modification_date":"2016-02-18"},{"geonameid":"3014239","name":"Guilvinec","asciiname":"Guilvinec","alternatenames":"Ar Gelveneg,Gil'vinek,Le Guilvinec,ji er wei nei ke,Гильвинек,Гільвінек,吉尔维内克","latitude":"47.79861","longitude":"-4.28111","feature_class":"P","feature_code":"PPL","country_code":"FR","cc2":"","admin1_code":"53","admin2_code":"29","admin3_code":"294","admin4_code":"29072","population":"3201","elevation":"","dem":"6","timezone":"Europe/Paris","modification_date":"2016-02-18"},{"geonameid":"3014255","name":"Guilliers","asciiname":"Guilliers","alternatenames":"Guilliers,Gwiler-Porc'hoed","latitude":"48.04286","longitude":"-2.40562","feature_class":"P","feature_code":"PPL","country_code":"FR","cc2":"","admin1_code":"53","admin2_code":"56","admin3_code":"563","admin4_code":"56080","population":"1453","elevation":"","dem":"89","timezone":"Europe/Paris","modification_date":"2016-02-18"},{"geonameid":"3014258","name":"Guillestre","asciiname":"Guillestre","alternatenames":"Gijestr,Gillestr,Guilhestra,Guilhèstra,ji lai si te er,Гийестр,Гіллестр,吉莱斯特尔","latitude":"44.6595","longitude":"6.64948","feature_class":"P","feature_code":"PPL","country_code":"FR","cc2":"","admin1_code":"93","admin2_code":"05","admin3_code":"051","admin4_code":"05065","population":"2409","elevation":"1000","dem":"1003","timezone":"Europe/Paris","modification_date":"2016-02-18"},{"geonameid":"3014274","name":"Guillac","asciiname":"Guillac","alternatenames":"Gilieg,Guillac","latitude":"47.91096","longitude":"-2.46571","feature_class":"P","feature_code":"PPL","country_code":"FR","cc2":"","admin1_code":"53","admin2_code":"56","admin3_code":"562","admin4_code":"56079","population":"1170","elevation":"","dem":"61","timezone":"Europe/Paris","modification_date":"2016-02-18"},{"geonameid":"3014277","name":"Guilherand-Granges","asciiname":"Guilherand-Granges","alternatenames":"Granges-les-Valence,Granges-lès-Valence","latitude":"44.93278","longitude":"4.87372","feature_class":"P","feature_code":"PPL","country_code":"FR","cc2":"","admin1_code":"84","admin2_code":"07","admin3_code":"073","admin4_code":"07102","population":"11365","elevation":"","dem":"112","timezone":"Europe/Paris","modification_date":"2016-02-18"},{"geonameid":"3014280","name":"Guilers","asciiname":"Guilers","alternatenames":"Gile,Guilers,Gwiler-Leon,ji lai er,Гиле,Гіле,吉莱尔","latitude":"48.42545","longitude":"-4.55801","feature_class":"P","feature_code":"PPL","country_code":"FR","cc2":"","admin1_code":"53","admin2_code":"29","admin3_code":"291","admin4_code":"29069","population":"7328","elevation":"","dem":"93","timezone":"Europe/Paris","modification_date":"2016-02-18"},{"geonameid":"3014289","name":"Guignicourt","asciiname":"Guignicourt","alternatenames":"Gin'ikur,Guignicourt,ji ni ku er,Гиньикур,Гіньїкур,吉尼库尔","latitude":"49.43714","longitude":"3.96755","feature_class":"P","feature_code":"PPL","country_code":"FR","cc2":"","admin1_code":"32","admin2_code":"02","admin3_code":"022","admin4_code":"02360","population":"2226","elevation":"","dem":"66","timezone":"Europe/Paris","modification_date":"2016-02-18"},{"geonameid":"3014292","name":"Guignes","asciiname":"Guignes","alternatenames":"Gin',Guignes-Libre,Guignes-Rabutin,Гинь,Гінь","latitude":"48.63333","longitude":"2.8","feature_class":"P","feature_code":"PPL","country_code":"FR","cc2":"","admin1_code":"11","admin2_code":"77","admin3_code":"772","admin4_code":"77222","population":"2639","elevation":"","dem":"93","timezone":"Europe/Paris","modification_date":"2016-02-18"},{"geonameid":"3014294","name":"Guignen","asciiname":"Guignen","alternatenames":"Gin'jan,Guignen,Gwinien,ji gai en,Гиньян,Гіньян,吉盖恩","latitude":"47.92009","longitude":"-1.86161","feature_class":"P","feature_code":"PPL","country_code":"FR","cc2":"","admin1_code":"53","admin2_code":"35","admin3_code":"352","admin4_code":"35127","population":"2645","elevation":"","dem":"72","timezone":"Europe/Paris","modification_date":"2016-02-18"},{"geonameid":"3014304","name":"Guiclan","asciiname":"Guiclan","alternatenames":"Giklan,Guiclan,Gwiglann,ji ke lang,Гиклан,Гіклан,吉克朗","latitude":"48.54967","longitude":"-3.96211","feature_class":"P","feature_code":"PPL","country_code":"FR","cc2":"","admin1_code":"53","admin2_code":"29","admin3_code":"293","admin4_code":"29068","population":"2138","elevation":"","dem":"107","timezone":"Europe/Paris","modification_date":"2016-02-18"},{"geonameid":"3014305","name":"Guichen","asciiname":"Guichen","alternatenames":"Gishan,Guichen,Gwizien,ji shang,Гишан,Гішан,吉尚","latitude":"47.96762","longitude":"-1.79534","feature_class":"P","feature_code":"PPL","country_code":"FR","cc2":"","admin1_code":"53","admin2_code":"35","admin3_code":"352","admin4_code":"35126","population":"7142","elevation":"","dem":"81","timezone":"Europe/Paris","modification_date":"2016-02-18"},{"geonameid":"3014310","name":"Guichainville","asciiname":"Guichainville","alternatenames":"Gishenvil',ji shang wei er,Гишенвиль,Гішенвіль,吉尚维尔","latitude":"49.00139","longitude":"1.19305","feature_class":"P","feature_code":"PPL","country_code":"FR","cc2":"","admin1_code":"28","admin2_code":"27","admin3_code":"273","admin4_code":"27306","population":"2473","elevation":"","dem":"135","timezone":"Europe/Paris","modification_date":"2016-02-18"},{"geonameid":"3014327","name":"Guewenheim","asciiname":"Guewenheim","alternatenames":"","latitude":"47.75283","longitude":"7.09253","feature_class":"P","feature_code":"PPL","country_code":"FR","cc2":"","admin1_code":"44","admin2_code":"68","admin3_code":"686","admin4_code":"68115","population":"1229","elevation":"","dem":"333","timezone":"Europe/Paris","modification_date":"2016-02-18"},{"geonameid":"3014330","name":"Gueux","asciiname":"Gueux","alternatenames":"Gueux","latitude":"49.25048","longitude":"3.91024","feature_class":"P","feature_code":"PPL","country_code":"FR","cc2":"","admin1_code":"44","admin2_code":"51","admin3_code":"513","admin4_code":"51282","population":"1453","elevation":"","dem":"96","timezone":"Europe/Paris","modification_date":"2016-02-18"},{"geonameid":"3014334","name":"Gueugnon","asciiname":"Gueugnon","alternatenames":"Gen'on,Genjonas,Gueugnon,Геньон","latitude":"46.60357","longitude":"4.06286","feature_class":"P","feature_code":"PPL","country_code":"FR","cc2":"","admin1_code":"27","admin2_code":"71","admin3_code":"713","admin4_code":"71230","population":"8486","elevation":"","dem":"243","timezone":"Europe/Paris","modification_date":"2016-02-18"},{"geonameid":"3014340","name":"Guéthary","asciiname":"Guethary","alternatenames":"Cetaria,Getari,Getaria,Guetaria,Guethary,Guéthary,gai ta li,getari,Гетари,Гетарі,ゲタリー,盖塔里","latitude":"43.42285","longitude":"-1.61073","feature_class":"P","feature_code":"PPL","country_code":"FR","cc2":"","admin1_code":"75","admin2_code":"64","admin3_code":"641","admin4_code":"64249","population":"1370","elevation":"","dem":"46","timezone":"Europe/Paris","modification_date":"2016-02-18"},{"geonameid":"3014346","name":"Guesnain","asciiname":"Guesnain","alternatenames":"Djesnain,Djésnain,Genen,Guesnain,ge si nan,Генен,格斯南","latitude":"50.35","longitude":"3.15","feature_class":"P","feature_code":"PPL","country_code":"FR","cc2":"","admin1_code":"32","admin2_code":"59","admin3_code":"593","admin4_code":"59276","population":"4987","elevation":"","dem":"23","timezone":"Europe/Paris","modification_date":"2016-02-18"},{"geonameid":"3014351","name":"Guerville","asciiname":"Guerville","alternatenames":"Guerville","latitude":"48.94388","longitude":"1.73429","feature_class":"P","feature_code":"PPL","country_code":"FR","cc2":"","admin1_code":"11","admin2_code":"78","admin3_code":"781","admin4_code":"78291","population":"1990","elevation":"","dem":"92","timezone":"Europe/Paris","modification_date":"2016-02-18"},{"geonameid":"3014365","name":"Guern","asciiname":"Guern","alternatenames":"Guern,Gwern","latitude":"48.02964","longitude":"-3.09145","feature_class":"P","feature_code":"PPL","country_code":"FR","cc2":"","admin1_code":"53","admin2_code":"56","admin3_code":"562","admin4_code":"56076","population":"1500","elevation":"","dem":"140","timezone":"Europe/Paris","modification_date":"2016-02-18"},{"geonameid":"3014367","name":"Guermantes","asciiname":"Guermantes","alternatenames":"Germant,Германт","latitude":"48.85303","longitude":"2.70495","feature_class":"P","feature_code":"PPL","country_code":"FR","cc2":"","admin1_code":"11","admin2_code":"77","admin3_code":"775","admin4_code":"77221","population":"1537","elevation":"","dem":"103","timezone":"Europe/Paris","modification_date":"2016-02-18"},{"geonameid":"3014369","name":"Guerlesquin","asciiname":"Guerlesquin","alternatenames":"Guerlesquin,Gwerliskin","latitude":"48.51758","longitude":"-3.58583","feature_class":"P","feature_code":"PPL","country_code":"FR","cc2":"","admin1_code":"53","admin2_code":"29","admin3_code":"293","admin4_code":"29067","population":"1451","elevation":"","dem":"198","timezone":"Europe/Paris","modification_date":"2016-02-18"},{"geonameid":"3014377","name":"Guérigny","asciiname":"Guerigny","alternatenames":"Garigniacum,Gerin'i,Guerigny,Guérigny,gai li ni,Гериньи,Гериньї,盖里尼","latitude":"47.08703","longitude":"3.20182","feature_class":"P","feature_code":"PPL","country_code":"FR","cc2":"","admin1_code":"27","admin2_code":"58","admin3_code":"583","admin4_code":"58131","population":"2486","elevation":"","dem":"226","timezone":"Europe/Paris","modification_date":"2016-02-18"},{"geonameid":"3014383","name":"Guéret","asciiname":"Gueret","alternatenames":"Garait,Gere,Gueretum,gai lei,gele,gere,ghwyryt,grh,zhwyr,Гере,גרה,غويريت,ژوئر,ゲレ,盖雷,게레","latitude":"46.16667","longitude":"1.86667","feature_class":"P","feature_code":"PPLA2","country_code":"FR","cc2":"","admin1_code":"75","admin2_code":"23","admin3_code":"232","admin4_code":"23096","population":"15853","elevation":"","dem":"504","timezone":"Europe/Paris","modification_date":"2016-02-18"},{"geonameid":"3014384","name":"Guéreins","asciiname":"Guereins","alternatenames":"Guereins,Guéreins","latitude":"46.10628","longitude":"4.77902","feature_class":"P","feature_code":"PPL","country_code":"FR","cc2":"","admin1_code":"84","admin2_code":"01","admin3_code":"012","admin4_code":"01183","population":"1165","elevation":"","dem":"175","timezone":"Europe/Paris","modification_date":"2016-02-18"},{"geonameid":"3014391","name":"Guérard","asciiname":"Guerard","alternatenames":"Guerard,Guérard","latitude":"48.82086","longitude":"2.95969","feature_class":"P","feature_code":"PPL","country_code":"FR","cc2":"","admin1_code":"11","admin2_code":"77","admin3_code":"771","admin4_code":"77219","population":"2134","elevation":"","dem":"71","timezone":"Europe/Paris","modification_date":"2016-02-18"},{"geonameid":"3014392","name":"Guérande","asciiname":"Guerande","alternatenames":"Gerand,Guerande,Guerrandia,Guérande,Gwenrann,gai lang de,gerando,Геранд,ゲランド,蓋朗德","latitude":"47.32911","longitude":"-2.42829","feature_class":"P","feature_code":"PPL","country_code":"FR","cc2":"","admin1_code":"52","admin2_code":"44","admin3_code":"443","admin4_code":"44069","population":"16523","elevation":"","dem":"52","timezone":"Europe/Paris","modification_date":"2016-02-18"},{"geonameid":"3014393","name":"Guer","asciiname":"Guer","alternatenames":"Ger,Guer,Gwern-Porc'hoed,Gwern-Porchoed,Pagus Guernius,gai zhen,Гер,盖镇","latitude":"47.90619","longitude":"-2.12314","feature_class":"P","feature_code":"PPL","country_code":"FR","cc2":"","admin1_code":"53","admin2_code":"56","admin3_code":"563","admin4_code":"56075","population":"6308","elevation":"","dem":"46","timezone":"Europe/Paris","modification_date":"2016-02-18"},{"geonameid":"3014398","name":"Guenrouet","asciiname":"Guenrouet","alternatenames":"Genrue,Guenrouet,Guenrouët,Gwenred,gai en lu ai,ganrue,Генруе,ガンルエ,盖恩鲁埃","latitude":"47.51881","longitude":"-1.95381","feature_class":"P","feature_code":"PPL","country_code":"FR","cc2":"","admin1_code":"52","admin2_code":"44","admin3_code":"443","admin4_code":"44068","population":"2601","elevation":"","dem":"35","timezone":"Europe/Paris","modification_date":"2016-02-18"},{"geonameid":"3014402","name":"Guénin","asciiname":"Guenin","alternatenames":"Genen,Guenin,Guénin,Gwennin,gai nan,Генен,盖南","latitude":"47.90757","longitude":"-2.97941","feature_class":"P","feature_code":"PPL","country_code":"FR","cc2":"","admin1_code":"53","admin2_code":"56","admin3_code":"562","admin4_code":"56074","population":"1304","elevation":"","dem":"70","timezone":"Europe/Paris","modification_date":"2016-02-18"},{"geonameid":"3014403","name":"Guengat","asciiname":"Guengat","alternatenames":"Genga,Guengat,Gwengad,gai en jia,Генга,盖恩加","latitude":"48.04193","longitude":"-4.2047","feature_class":"P","feature_code":"PPL","country_code":"FR","cc2":"","admin1_code":"53","admin2_code":"29","admin3_code":"294","admin4_code":"29066","population":"1686","elevation":"","dem":"111","timezone":"Europe/Paris","modification_date":"2016-02-18"},