{"nextFile":"cities.73.json","rows":[{"geonameid":"8329841","name":"Pandean","asciiname":"Pandean","alternatenames":"Pandean","latitude":"-8.1196","longitude":"111.8076","feature_class":"P","feature_code":"PPLA4","country_code":"ID","cc2":"","admin1_code":"08","admin2_code":"","admin3_code":"","admin4_code":"","population":"0","elevation":"","dem":"96","timezone":"Asia/Jakarta","modification_date":"2012-06-07"},{"geonameid":"8329843","name":"Pakis","asciiname":"Pakis","alternatenames":"Pakis","latitude":"-8.115","longitude":"111.8049","feature_class":"P","feature_code":"PPLA4","country_code":"ID","cc2":"","admin1_code":"08","admin2_code":"","admin3_code":"","admin4_code":"","population":"0","elevation":"","dem":"96","timezone":"Asia/Jakarta","modification_date":"2012-06-07"},{"geonameid":"8329847","name":"Sendangkemulian","asciiname":"Sendangkemulian","alternatenames":"Sendangkemulian","latitude":"-8.0972","longitude":"111.8163","feature_class":"P","feature_code":"PPLA4","country_code":"ID","cc2":"","admin1_code":"08","admin2_code":"","admin3_code":"","admin4_code":"","population":"0","elevation":"","dem":"102","timezone":"Asia/Jakarta","modification_date":"2012-06-07"},{"geonameid":"8329856","name":"Gador","asciiname":"Gador","alternatenames":"Gador","latitude":"-8.0915","longitude":"111.8103","feature_class":"P","feature_code":"PPLA4","country_code":"ID","cc2":"","admin1_code":"08","admin2_code":"","admin3_code":"","admin4_code":"","population":"0","elevation":"","dem":"114","timezone":"Asia/Jakarta","modification_date":"2012-06-07"},{"geonameid":"8329859","name":"Sidem","asciiname":"Sidem","alternatenames":"Sidem","latitude":"-8.0797","longitude":"111.8117","feature_class":"P","feature_code":"PPLA4","country_code":"ID","cc2":"","admin1_code":"08","admin2_code":"","admin3_code":"","admin4_code":"","population":"0","elevation":"","dem":"117","timezone":"Asia/Jakarta","modification_date":"2012-06-07"},{"geonameid":"8329868","name":"Sumberejo","asciiname":"Sumberejo","alternatenames":"Sumberejo","latitude":"-8.0719","longitude":"111.8018","feature_class":"P","feature_code":"PPLA4","country_code":"ID","cc2":"","admin1_code":"08","admin2_code":"","admin3_code":"","admin4_code":"","population":"0","elevation":"","dem":"134","timezone":"Asia/Jakarta","modification_date":"2012-06-07"},{"geonameid":"8329915","name":"Blendis","asciiname":"Blendis","alternatenames":"Blendis","latitude":"-8.0603","longitude":"111.8254","feature_class":"P","feature_code":"PPLA4","country_code":"ID","cc2":"","admin1_code":"08","admin2_code":"","admin3_code":"","admin4_code":"","population":"0","elevation":"","dem":"118","timezone":"Asia/Jakarta","modification_date":"2012-06-07"},{"geonameid":"8329923","name":"Kleben","asciiname":"Kleben","alternatenames":"Kleben","latitude":"-8.0506","longitude":"111.8404","feature_class":"P","feature_code":"PPLA4","country_code":"ID","cc2":"","admin1_code":"08","admin2_code":"","admin3_code":"","admin4_code":"","population":"0","elevation":"","dem":"110","timezone":"Asia/Jakarta","modification_date":"2012-06-07"},{"geonameid":"8329934","name":"Bolorejo","asciiname":"Bolorejo","alternatenames":"Bolorejo","latitude":"-8.0534","longitude":"111.8625","feature_class":"P","feature_code":"PPLA4","country_code":"ID","cc2":"","admin1_code":"08","admin2_code":"","admin3_code":"","admin4_code":"","population":"0","elevation":"","dem":"96","timezone":"Asia/Jakarta","modification_date":"2012-06-07"},{"geonameid":"8329937","name":"Irongganan","asciiname":"Irongganan","alternatenames":"Irongganan","latitude":"-8.05067","longitude":"111.87142","feature_class":"P","feature_code":"PPLA4","country_code":"ID","cc2":"","admin1_code":"08","admin2_code":"","admin3_code":"","admin4_code":"","population":"0","elevation":"","dem":"94","timezone":"Asia/Jakarta","modification_date":"2012-06-07"},{"geonameid":"8329940","name":"Boneng","asciiname":"Boneng","alternatenames":"Boneng","latitude":"-8.0487","longitude":"111.8675","feature_class":"P","feature_code":"PPLA4","country_code":"ID","cc2":"","admin1_code":"08","admin2_code":"","admin3_code":"","admin4_code":"","population":"0","elevation":"","dem":"94","timezone":"Asia/Jakarta","modification_date":"2012-06-07"},{"geonameid":"8329948","name":"Pucangan","asciiname":"Pucangan","alternatenames":"Pucangan","latitude":"-8.0384","longitude":"111.8462","feature_class":"P","feature_code":"PPLA4","country_code":"ID","cc2":"","admin1_code":"08","admin2_code":"","admin3_code":"","admin4_code":"","population":"0","elevation":"","dem":"126","timezone":"Asia/Jakarta","modification_date":"2012-06-07"},{"geonameid":"8329949","name":"Srabah","asciiname":"Srabah","alternatenames":"Srabah","latitude":"-8.0392","longitude":"111.8493","feature_class":"P","feature_code":"PPLA4","country_code":"ID","cc2":"","admin1_code":"08","admin2_code":"","admin3_code":"","admin4_code":"","population":"0","elevation":"","dem":"118","timezone":"Asia/Jakarta","modification_date":"2012-06-07"},{"geonameid":"8329953","name":"Mojasari","asciiname":"Mojasari","alternatenames":"Mojasari","latitude":"-8.0462","longitude":"111.8619","feature_class":"P","feature_code":"PPLA4","country_code":"ID","cc2":"","admin1_code":"08","admin2_code":"","admin3_code":"","admin4_code":"","population":"0","elevation":"","dem":"99","timezone":"Asia/Jakarta","modification_date":"2012-06-07"},{"geonameid":"8329959","name":"Jabon","asciiname":"Jabon","alternatenames":"Jabon","latitude":"-8.0347","longitude":"111.8731","feature_class":"P","feature_code":"PPLA4","country_code":"ID","cc2":"","admin1_code":"08","admin2_code":"","admin3_code":"","admin4_code":"","population":"0","elevation":"","dem":"97","timezone":"Asia/Jakarta","modification_date":"2012-06-07"},{"geonameid":"8329960","name":"Sendung","asciiname":"Sendung","alternatenames":"Sendung","latitude":"-8.0272","longitude":"111.8611","feature_class":"P","feature_code":"PPLA4","country_code":"ID","cc2":"","admin1_code":"08","admin2_code":"","admin3_code":"","admin4_code":"","population":"0","elevation":"","dem":"108","timezone":"Asia/Jakarta","modification_date":"2012-06-07"},{"geonameid":"8329963","name":"Bebekan","asciiname":"Bebekan","alternatenames":"Bebekan","latitude":"-8.061","longitude":"111.8726","feature_class":"P","feature_code":"PPLA4","country_code":"ID","cc2":"","admin1_code":"08","admin2_code":"","admin3_code":"","admin4_code":"","population":"0","elevation":"","dem":"95","timezone":"Asia/Jakarta","modification_date":"2012-06-07"},{"geonameid":"8329966","name":"Ngrendeng","asciiname":"Ngrendeng","alternatenames":"Ngrendeng","latitude":"-8.0677","longitude":"111.8493","feature_class":"P","feature_code":"PPLA4","country_code":"ID","cc2":"","admin1_code":"08","admin2_code":"","admin3_code":"","admin4_code":"","population":"0","elevation":"","dem":"102","timezone":"Asia/Jakarta","modification_date":"2012-06-07"},{"geonameid":"8329968","name":"Bendungan","asciiname":"Bendungan","alternatenames":"Bendungan","latitude":"-8.07058","longitude":"111.84584","feature_class":"P","feature_code":"PPLA4","country_code":"ID","cc2":"","admin1_code":"08","admin2_code":"","admin3_code":"","admin4_code":"","population":"0","elevation":"","dem":"102","timezone":"Asia/Jakarta","modification_date":"2012-06-07"},{"geonameid":"8329970","name":"Bendo","asciiname":"Bendo","alternatenames":"Bendo","latitude":"-8.0735","longitude":"111.8668","feature_class":"P","feature_code":"PPLA4","country_code":"ID","cc2":"","admin1_code":"08","admin2_code":"","admin3_code":"","admin4_code":"","population":"0","elevation":"","dem":"92","timezone":"Asia/Jakarta","modification_date":"2012-06-07"},{"geonameid":"8329971","name":"Dami","asciiname":"Dami","alternatenames":"Dami","latitude":"-8.0805","longitude":"111.8651","feature_class":"P","feature_code":"PPLA4","country_code":"ID","cc2":"","admin1_code":"08","admin2_code":"","admin3_code":"","admin4_code":"","population":"0","elevation":"","dem":"89","timezone":"Asia/Jakarta","modification_date":"2012-06-07"},{"geonameid":"8329975","name":"Kiping","asciiname":"Kiping","alternatenames":"Kiping","latitude":"-8.0788","longitude":"111.8492","feature_class":"P","feature_code":"PPLA4","country_code":"ID","cc2":"","admin1_code":"08","admin2_code":"","admin3_code":"","admin4_code":"","population":"0","elevation":"","dem":"94","timezone":"Asia/Jakarta","modification_date":"2012-06-07"},{"geonameid":"8329984","name":"Karangsari","asciiname":"Karangsari","alternatenames":"Karangsari","latitude":"-8.0712","longitude":"111.8245","feature_class":"P","feature_code":"PPLA4","country_code":"ID","cc2":"","admin1_code":"08","admin2_code":"","admin3_code":"","admin4_code":"","population":"0","elevation":"","dem":"107","timezone":"Asia/Jakarta","modification_date":"2012-06-07"},{"geonameid":"8329992","name":"Karangtengah","asciiname":"Karangtengah","alternatenames":"Karangtengah","latitude":"-8.0861","longitude":"111.8232","feature_class":"P","feature_code":"PPLA4","country_code":"ID","cc2":"","admin1_code":"08","admin2_code":"","admin3_code":"","admin4_code":"","population":"0","elevation":"","dem":"105","timezone":"Asia/Jakarta","modification_date":"2012-06-07"},{"geonameid":"8329995","name":"Sepatan","asciiname":"Sepatan","alternatenames":"Sepatan","latitude":"-8.0871","longitude":"111.8484","feature_class":"P","feature_code":"PPLA4","country_code":"ID","cc2":"","admin1_code":"08","admin2_code":"","admin3_code":"","admin4_code":"","population":"0","elevation":"","dem":"95","timezone":"Asia/Jakarta","modification_date":"2012-06-07"},{"geonameid":"8329997","name":"Dukuh","asciiname":"Dukuh","alternatenames":"Dukuh","latitude":"-8.0934","longitude":"111.8504","feature_class":"P","feature_code":"PPLA4","country_code":"ID","cc2":"","admin1_code":"08","admin2_code":"","admin3_code":"","admin4_code":"","population":"0","elevation":"","dem":"89","timezone":"Asia/Jakarta","modification_date":"2012-06-07"},{"geonameid":"8329999","name":"Gajah","asciiname":"Gajah","alternatenames":"Gadjah,Gajah","latitude":"-8.0929","longitude":"111.8556","feature_class":"P","feature_code":"PPLA4","country_code":"ID","cc2":"","admin1_code":"08","admin2_code":"","admin3_code":"","admin4_code":"","population":"0","elevation":"","dem":"90","timezone":"Asia/Jakarta","modification_date":"2012-06-07"},{"geonameid":"8330000","name":"Gondosuli","asciiname":"Gondosuli","alternatenames":"Gondosoeli,Gondosuli","latitude":"-8.095","longitude":"111.8596","feature_class":"P","feature_code":"PPLA4","country_code":"ID","cc2":"","admin1_code":"08","admin2_code":"","admin3_code":"","admin4_code":"","population":"0","elevation":"","dem":"90","timezone":"Asia/Jakarta","modification_date":"2012-06-07"},{"geonameid":"8330007","name":"Gempolan Wetan","asciiname":"Gempolan Wetan","alternatenames":"Gempolan Wetan","latitude":"-8.1145","longitude":"111.8582","feature_class":"P","feature_code":"PPLA4","country_code":"ID","cc2":"","admin1_code":"08","admin2_code":"","admin3_code":"","admin4_code":"","population":"0","elevation":"","dem":"91","timezone":"Asia/Jakarta","modification_date":"2012-06-07"},{"geonameid":"8330010","name":"Kendal","asciiname":"Kendal","alternatenames":"Kendal","latitude":"-8.1099","longitude":"111.8483","feature_class":"P","feature_code":"PPLA4","country_code":"ID","cc2":"","admin1_code":"08","admin2_code":"","admin3_code":"","admin4_code":"","population":"0","elevation":"","dem":"92","timezone":"Asia/Jakarta","modification_date":"2012-06-07"},{"geonameid":"8330012","name":"Temenggungan","asciiname":"Temenggungan","alternatenames":"Temenggungan","latitude":"-8.1041","longitude":"111.8657","feature_class":"P","feature_code":"PPLA4","country_code":"ID","cc2":"","admin1_code":"08","admin2_code":"","admin3_code":"","admin4_code":"","population":"0","elevation":"","dem":"89","timezone":"Asia/Jakarta","modification_date":"2012-06-07"},{"geonameid":"8330020","name":"Baruklinting Dua","asciiname":"Baruklinting Dua","alternatenames":"Baruklinting Dua","latitude":"-8.0962","longitude":"111.8252","feature_class":"P","feature_code":"PPLA4","country_code":"ID","cc2":"","admin1_code":"08","admin2_code":"","admin3_code":"","admin4_code":"","population":"0","elevation":"","dem":"101","timezone":"Asia/Jakarta","modification_date":"2012-06-07"},{"geonameid":"8330031","name":"Nglengkong","asciiname":"Nglengkong","alternatenames":"Nglengkong","latitude":"-8.1077","longitude":"111.8347","feature_class":"P","feature_code":"PPLA4","country_code":"ID","cc2":"","admin1_code":"08","admin2_code":"","admin3_code":"","admin4_code":"","population":"0","elevation":"","dem":"93","timezone":"Asia/Jakarta","modification_date":"2012-06-07"},{"geonameid":"8330035","name":"Jajar","asciiname":"Jajar","alternatenames":"Jajar","latitude":"-8.1091","longitude":"111.8192","feature_class":"P","feature_code":"PPLA4","country_code":"ID","cc2":"","admin1_code":"08","admin2_code":"","admin3_code":"","admin4_code":"","population":"0","elevation":"","dem":"95","timezone":"Asia/Jakarta","modification_date":"2012-06-07"},{"geonameid":"8330040","name":"Tertek","asciiname":"Tertek","alternatenames":"Tertek","latitude":"-8.1224","longitude":"111.8148","feature_class":"P","feature_code":"PPLA4","country_code":"ID","cc2":"","admin1_code":"08","admin2_code":"","admin3_code":"","admin4_code":"","population":"0","elevation":"","dem":"97","timezone":"Asia/Jakarta","modification_date":"2012-06-07"},{"geonameid":"8333314","name":"Jabung Wetan","asciiname":"Jabung Wetan","alternatenames":"Jabung Wetan","latitude":"-7.742","longitude":"113.4873","feature_class":"P","feature_code":"PPLA4","country_code":"ID","cc2":"","admin1_code":"08","admin2_code":"","admin3_code":"","admin4_code":"","population":"0","elevation":"","dem":"22","timezone":"Asia/Jakarta","modification_date":"2012-06-07"},{"geonameid":"8333319","name":"Tanjung Kidul","asciiname":"Tanjung Kidul","alternatenames":"Tanjung Kidul","latitude":"-7.7213","longitude":"113.4982","feature_class":"P","feature_code":"PPLA4","country_code":"ID","cc2":"","admin1_code":"08","admin2_code":"","admin3_code":"","admin4_code":"","population":"0","elevation":"","dem":"14","timezone":"Asia/Jakarta","modification_date":"2012-06-07"},{"geonameid":"8333321","name":"Randumerak","asciiname":"Randumerak","alternatenames":"Randumerak","latitude":"-7.7278","longitude":"113.4811","feature_class":"P","feature_code":"PPLA4","country_code":"ID","cc2":"","admin1_code":"08","admin2_code":"","admin3_code":"","admin4_code":"","population":"0","elevation":"","dem":"13","timezone":"Asia/Jakarta","modification_date":"2012-06-07"},{"geonameid":"8333325","name":"Krajan Jabungcandi","asciiname":"Krajan Jabungcandi","alternatenames":"Krajan Jabungcandi","latitude":"-7.7342","longitude":"113.4815","feature_class":"P","feature_code":"PPLA4","country_code":"ID","cc2":"","admin1_code":"08","admin2_code":"","admin3_code":"","admin4_code":"","population":"0","elevation":"","dem":"17","timezone":"Asia/Jakarta","modification_date":"2012-06-07"},{"geonameid":"8333328","name":"Sidodadi","asciiname":"Sidodadi","alternatenames":"Sidodadi","latitude":"-7.7385","longitude":"113.4947","feature_class":"P","feature_code":"PPLA4","country_code":"ID","cc2":"","admin1_code":"08","admin2_code":"","admin3_code":"","admin4_code":"","population":"0","elevation":"","dem":"19","timezone":"Asia/Jakarta","modification_date":"2012-06-07"},{"geonameid":"8333336","name":"Kalibuntu","asciiname":"Kalibuntu","alternatenames":"Kalibuntu","latitude":"-7.7361","longitude":"113.417","feature_class":"P","feature_code":"PPLA4","country_code":"ID","cc2":"","admin1_code":"08","admin2_code":"","admin3_code":"","admin4_code":"","population":"0","elevation":"","dem":"7","timezone":"Asia/Jakarta","modification_date":"2012-06-07"},{"geonameid":"8333351","name":"Krajan Kebonagung","asciiname":"Krajan Kebonagung","alternatenames":"Krajan Kebonagung","latitude":"-7.7477","longitude":"113.4486","feature_class":"P","feature_code":"PPLA4","country_code":"ID","cc2":"","admin1_code":"08","admin2_code":"","admin3_code":"","admin4_code":"","population":"0","elevation":"","dem":"11","timezone":"Asia/Jakarta","modification_date":"2012-06-07"},{"geonameid":"8333354","name":"Bringinanom","asciiname":"Bringinanom","alternatenames":"Bringinanom","latitude":"-7.7427","longitude":"113.4538","feature_class":"P","feature_code":"PPLA4","country_code":"ID","cc2":"","admin1_code":"08","admin2_code":"","admin3_code":"","admin4_code":"","population":"0","elevation":"","dem":"10","timezone":"Asia/Jakarta","modification_date":"2012-06-07"},{"geonameid":"8333355","name":"Parseh","asciiname":"Parseh","alternatenames":"Parseh","latitude":"-7.7494","longitude":"113.4607","feature_class":"P","feature_code":"PPLA4","country_code":"ID","cc2":"","admin1_code":"08","admin2_code":"","admin3_code":"","admin4_code":"","population":"0","elevation":"","dem":"17","timezone":"Asia/Jakarta","modification_date":"2012-06-07"},{"geonameid":"8333358","name":"Krajan Alastengah","asciiname":"Krajan Alastengah","alternatenames":"Krajan Alastengah","latitude":"-7.7492","longitude":"113.4952","feature_class":"P","feature_code":"PPLA4","country_code":"ID","cc2":"","admin1_code":"08","admin2_code":"","admin3_code":"","admin4_code":"","population":"0","elevation":"","dem":"23","timezone":"Asia/Jakarta","modification_date":"2012-06-07"},{"geonameid":"8333536","name":"Grujugan","asciiname":"Grujugan","alternatenames":"Grujugan","latitude":"-7.1279","longitude":"113.53838","feature_class":"P","feature_code":"PPLA4","country_code":"ID","cc2":"","admin1_code":"08","admin2_code":"","admin3_code":"","admin4_code":"","population":"0","elevation":"","dem":"42","timezone":"Asia/Jakarta","modification_date":"2012-06-07"},{"geonameid":"8333538","name":"Trasak","asciiname":"Trasak","alternatenames":"Trasak","latitude":"-7.13231","longitude":"113.52351","feature_class":"P","feature_code":"PPLA4","country_code":"ID","cc2":"","admin1_code":"08","admin2_code":"","admin3_code":"","admin4_code":"","population":"0","elevation":"","dem":"44","timezone":"Asia/Jakarta","modification_date":"2012-06-07"},{"geonameid":"8333539","name":"Tentenan","asciiname":"Tentenan","alternatenames":"Tentenan","latitude":"-7.13036","longitude":"113.53334","feature_class":"P","feature_code":"PPLA4","country_code":"ID","cc2":"","admin1_code":"08","admin2_code":"","admin3_code":"","admin4_code":"","population":"0","elevation":"","dem":"45","timezone":"Asia/Jakarta","modification_date":"2012-06-07"},{"geonameid":"8333540","name":"Barajalan","asciiname":"Barajalan","alternatenames":"Barajalan","latitude":"-7.1332","longitude":"113.53472","feature_class":"P","feature_code":"PPLA4","country_code":"ID","cc2":"","admin1_code":"08","admin2_code":"","admin3_code":"","admin4_code":"","population":"0","elevation":"","dem":"34","timezone":"Asia/Jakarta","modification_date":"2012-06-07"},{"geonameid":"8333542","name":"Toampar","asciiname":"Toampar","alternatenames":"Toampar","latitude":"-7.13099","longitude":"113.54245","feature_class":"P","feature_code":"PPLA4","country_code":"ID","cc2":"","admin1_code":"08","admin2_code":"","admin3_code":"","admin4_code":"","population":"0","elevation":"","dem":"36","timezone":"Asia/Jakarta","modification_date":"2012-06-07"},{"geonameid":"8333543","name":"Larangan","asciiname":"Larangan","alternatenames":"Larangan","latitude":"-7.12875","longitude":"113.54702","feature_class":"P","feature_code":"PPLA3","country_code":"ID","cc2":"","admin1_code":"08","admin2_code":"","admin3_code":"","admin4_code":"","population":"0","elevation":"","dem":"40","timezone":"Asia/Jakarta","modification_date":"2012-06-07"},{"geonameid":"8333546","name":"Pandiyan","asciiname":"Pandiyan","alternatenames":"Pandiyan","latitude":"-7.13152","longitude":"113.55785","feature_class":"P","feature_code":"PPLA4","country_code":"ID","cc2":"","admin1_code":"08","admin2_code":"","admin3_code":"","admin4_code":"","population":"0","elevation":"","dem":"34","timezone":"Asia/Jakarta","modification_date":"2012-06-07"},{"geonameid":"8333550","name":"Tanahmerah","asciiname":"Tanahmerah","alternatenames":"Tanahmerah","latitude":"-7.13366","longitude":"113.57119","feature_class":"P","feature_code":"PPLA4","country_code":"ID","cc2":"","admin1_code":"08","admin2_code":"","admin3_code":"","admin4_code":"","population":"0","elevation":"","dem":"21","timezone":"Asia/Jakarta","modification_date":"2012-06-07"},{"geonameid":"8333552","name":"Platok","asciiname":"Platok","alternatenames":"Platok","latitude":"-7.13025","longitude":"113.57874","feature_class":"P","feature_code":"PPLA4","country_code":"ID","cc2":"","admin1_code":"08","admin2_code":"","admin3_code":"","admin4_code":"","population":"0","elevation":"","dem":"20","timezone":"Asia/Jakarta","modification_date":"2012-06-07"},{"geonameid":"8333561","name":"Raas","asciiname":"Raas","alternatenames":"Raas","latitude":"-7.12474","longitude":"113.60051","feature_class":"P","feature_code":"PPLA4","country_code":"ID","cc2":"","admin1_code":"08","admin2_code":"","admin3_code":"","admin4_code":"","population":"0","elevation":"","dem":"21","timezone":"Asia/Jakarta","modification_date":"2012-06-07"},{"geonameid":"8333569","name":"Polagan Tengah","asciiname":"Polagan Tengah","alternatenames":"Polagan Tengah","latitude":"-7.13852","longitude":"113.56069","feature_class":"P","feature_code":"PPLA4","country_code":"ID","cc2":"","admin1_code":"08","admin2_code":"","admin3_code":"","admin4_code":"","population":"0","elevation":"","dem":"21","timezone":"Asia/Jakarta","modification_date":"2012-06-07"},{"geonameid":"8333580","name":"Temorlorong","asciiname":"Temorlorong","alternatenames":"Temorlorong","latitude":"-7.13386","longitude":"113.51997","feature_class":"P","feature_code":"PPLA4","country_code":"ID","cc2":"","admin1_code":"08","admin2_code":"","admin3_code":"","admin4_code":"","population":"0","elevation":"","dem":"48","timezone":"Asia/Jakarta","modification_date":"2012-06-07"},{"geonameid":"8333587","name":"Bulay","asciiname":"Bulay","alternatenames":"Bulay","latitude":"-7.14265","longitude":"113.54847","feature_class":"P","feature_code":"PPLA4","country_code":"ID","cc2":"","admin1_code":"08","admin2_code":"","admin3_code":"","admin4_code":"","population":"0","elevation":"","dem":"19","timezone":"Asia/Jakarta","modification_date":"2012-06-07"},{"geonameid":"8333594","name":"Nampera","asciiname":"Nampera","alternatenames":"Nampera","latitude":"-7.15824","longitude":"113.55542","feature_class":"P","feature_code":"PPLA4","country_code":"ID","cc2":"","admin1_code":"08","admin2_code":"","admin3_code":"","admin4_code":"","population":"0","elevation":"","dem":"8","timezone":"Asia/Jakarta","modification_date":"2012-06-07"},{"geonameid":"8333597","name":"Rongrongan","asciiname":"Rongrongan","alternatenames":"Rongrongan","latitude":"-7.15053","longitude":"113.52835","feature_class":"P","feature_code":"PPLA4","country_code":"ID","cc2":"","admin1_code":"08","admin2_code":"","admin3_code":"","admin4_code":"","population":"0","elevation":"","dem":"22","timezone":"Asia/Jakarta","modification_date":"2012-06-07"},{"geonameid":"8333600","name":"Biris Daja","asciiname":"Biris Daja","alternatenames":"Biris Daja","latitude":"-7.15376","longitude":"113.51969","feature_class":"P","feature_code":"PPLA4","country_code":"ID","cc2":"","admin1_code":"08","admin2_code":"","admin3_code":"","admin4_code":"","population":"0","elevation":"","dem":"29","timezone":"Asia/Jakarta","modification_date":"2012-06-07"},{"geonameid":"8333602","name":"Bulung","asciiname":"Bulung","alternatenames":"Bulung","latitude":"-7.15834","longitude":"113.51003","feature_class":"P","feature_code":"PPLA4","country_code":"ID","cc2":"","admin1_code":"08","admin2_code":"","admin3_code":"","admin4_code":"","population":"0","elevation":"","dem":"27","timezone":"Asia/Jakarta","modification_date":"2012-06-07"},{"geonameid":"8333608","name":"Lobuk","asciiname":"Lobuk","alternatenames":"Lobuk","latitude":"-7.15908","longitude":"113.51864","feature_class":"P","feature_code":"PPLA4","country_code":"ID","cc2":"","admin1_code":"08","admin2_code":"","admin3_code":"","admin4_code":"","population":"0","elevation":"","dem":"22","timezone":"Asia/Jakarta","modification_date":"2012-06-07"},{"geonameid":"8333609","name":"Tandes","asciiname":"Tandes","alternatenames":"Tandes","latitude":"-7.15791","longitude":"113.54054","feature_class":"P","feature_code":"PPLA4","country_code":"ID","cc2":"","admin1_code":"08","admin2_code":"","admin3_code":"","admin4_code":"","population":"0","elevation":"","dem":"10","timezone":"Asia/Jakarta","modification_date":"2012-06-07"},{"geonameid":"8333612","name":"Lembung Tengah","asciiname":"Lembung Tengah","alternatenames":"Lembung Tengah","latitude":"-7.16208","longitude":"113.56187","feature_class":"P","feature_code":"PPLA4","country_code":"ID","cc2":"","admin1_code":"08","admin2_code":"","admin3_code":"","admin4_code":"","population":"0","elevation":"","dem":"6","timezone":"Asia/Jakarta","modification_date":"2012-06-07"},{"geonameid":"8333615","name":"Plasah","asciiname":"Plasah","alternatenames":"Plasah","latitude":"-7.17459","longitude":"113.55364","feature_class":"P","feature_code":"PPLA4","country_code":"ID","cc2":"","admin1_code":"08","admin2_code":"","admin3_code":"","admin4_code":"","population":"0","elevation":"","dem":"5","timezone":"Asia/Jakarta","modification_date":"2012-06-07"},{"geonameid":"8333624","name":"Murtajih","asciiname":"Murtajih","alternatenames":"Murtajih","latitude":"-7.16689","longitude":"113.50912","feature_class":"P","feature_code":"PPLA4","country_code":"ID","cc2":"","admin1_code":"08","admin2_code":"","admin3_code":"","admin4_code":"","population":"0","elevation":"","dem":"25","timezone":"Asia/Jakarta","modification_date":"2012-06-07"},{"geonameid":"8333633","name":"Karangdalam","asciiname":"Karangdalam","alternatenames":"Karangdalam","latitude":"-7.18877","longitude":"113.51245","feature_class":"P","feature_code":"PPLA4","country_code":"ID","cc2":"","admin1_code":"08","admin2_code":"","admin3_code":"","admin4_code":"","population":"0","elevation":"","dem":"14","timezone":"Asia/Jakarta","modification_date":"2012-06-07"},{"geonameid":"8333637","name":"Kebon","asciiname":"Kebon","alternatenames":"Kebon","latitude":"-7.18495","longitude":"113.50247","feature_class":"P","feature_code":"PPLA4","country_code":"ID","cc2":"","admin1_code":"08","admin2_code":"","admin3_code":"","admin4_code":"","population":"0","elevation":"","dem":"11","timezone":"Asia/Jakarta","modification_date":"2012-06-07"},{"geonameid":"8333638","name":"Dorbuk Utara","asciiname":"Dorbuk Utara","alternatenames":"Dorbuk Utara","latitude":"-7.19322","longitude":"113.50378","feature_class":"P","feature_code":"PPLA4","country_code":"ID","cc2":"","admin1_code":"08","admin2_code":"","admin3_code":"","admin4_code":"","population":"0","elevation":"","dem":"10","timezone":"Asia/Jakarta","modification_date":"2012-06-07"},{"geonameid":"8333645","name":"Mungging","asciiname":"Mungging","alternatenames":"Mungging","latitude":"-7.20429","longitude":"113.53198","feature_class":"P","feature_code":"PPLA4","country_code":"ID","cc2":"","admin1_code":"08","admin2_code":"","admin3_code":"","admin4_code":"","population":"0","elevation":"","dem":"8","timezone":"Asia/Jakarta","modification_date":"2012-06-07"},{"geonameid":"8333654","name":"Jambul","asciiname":"Jambul","alternatenames":"Jambul","latitude":"-7.21863","longitude":"113.53061","feature_class":"P","feature_code":"PPLA4","country_code":"ID","cc2":"","admin1_code":"08","admin2_code":"","admin3_code":"","admin4_code":"","population":"0","elevation":"","dem":"6","timezone":"Asia/Jakarta","modification_date":"2012-06-07"},{"geonameid":"8333657","name":"Mor Laok","asciiname":"Mor Laok","alternatenames":"Mor Laok","latitude":"-7.22439","longitude":"113.51508","feature_class":"P","feature_code":"PPLA4","country_code":"ID","cc2":"","admin1_code":"08","admin2_code":"","admin3_code":"","admin4_code":"","population":"0","elevation":"","dem":"4","timezone":"Asia/Jakarta","modification_date":"2012-06-07"},{"geonameid":"8333659","name":"Bong","asciiname":"Bong","alternatenames":"Bong","latitude":"-7.22608","longitude":"113.50008","feature_class":"P","feature_code":"PPLA4","country_code":"ID","cc2":"","admin1_code":"08","admin2_code":"","admin3_code":"","admin4_code":"","population":"0","elevation":"","dem":"9","timezone":"Asia/Jakarta","modification_date":"2012-06-07"},{"geonameid":"8333663","name":"Bangkal","asciiname":"Bangkal","alternatenames":"Bangkal","latitude":"-7.22704","longitude":"113.53042","feature_class":"P","feature_code":"PPLA4","country_code":"ID","cc2":"","admin1_code":"08","admin2_code":"","admin3_code":"","admin4_code":"","population":"0","elevation":"","dem":"4","timezone":"Asia/Jakarta","modification_date":"2012-06-07"},{"geonameid":"8354806","name":"Banjar Sempidi","asciiname":"Banjar Sempidi","alternatenames":"Banjar Sempidi","latitude":"-8.5233","longitude":"115.2068","feature_class":"P","feature_code":"PPLA4","country_code":"ID","cc2":"","admin1_code":"02","admin2_code":"","admin3_code":"","admin4_code":"","population":"0","elevation":"","dem":"177","timezone":"Asia/Makassar","modification_date":"2012-08-05"},{"geonameid":"8354816","name":"Terang","asciiname":"Terang","alternatenames":"Terang","latitude":"-8.4563","longitude":"120.0792","feature_class":"P","feature_code":"PPLA4","country_code":"ID","cc2":"","admin1_code":"18","admin2_code":"","admin3_code":"","admin4_code":"","population":"0","elevation":"","dem":"9","timezone":"Asia/Makassar","modification_date":"2012-08-05"},{"geonameid":"8354995","name":"Rora","asciiname":"Rora","alternatenames":"Rora","latitude":"-8.4772","longitude":"118.5115","feature_class":"P","feature_code":"PPLA4","country_code":"ID","cc2":"","admin1_code":"17","admin2_code":"","admin3_code":"","admin4_code":"","population":"0","elevation":"","dem":"270","timezone":"Asia/Makassar","modification_date":"2012-08-05"},{"geonameid":"8355633","name":"Woja","asciiname":"Woja","alternatenames":"Woja","latitude":"-8.6366","longitude":"118.3542","feature_class":"P","feature_code":"PPLA3","country_code":"ID","cc2":"","admin1_code":"17","admin2_code":"7057508","admin3_code":"","admin4_code":"","population":"0","elevation":"","dem":"20","timezone":"Asia/Makassar","modification_date":"2014-01-05"},{"geonameid":"8355934","name":"Bangsring","asciiname":"Bangsring","alternatenames":"Bangsring","latitude":"-8.0582","longitude":"114.4169","feature_class":"P","feature_code":"PPLA4","country_code":"ID","cc2":"","admin1_code":"08","admin2_code":"","admin3_code":"","admin4_code":"","population":"0","elevation":"","dem":"32","timezone":"Asia/Jakarta","modification_date":"2012-08-05"},{"geonameid":"8356005","name":"Pakel","asciiname":"Pakel","alternatenames":"Pakel","latitude":"-8.0018","longitude":"111.9063","feature_class":"P","feature_code":"PPLA3","country_code":"ID","cc2":"","admin1_code":"08","admin2_code":"","admin3_code":"","admin4_code":"","population":"0","elevation":"","dem":"89","timezone":"Asia/Jakarta","modification_date":"2012-08-05"},{"geonameid":"8356010","name":"Tegalpakis","asciiname":"Tegalpakis","alternatenames":"Tegalpakis","latitude":"-8.2989","longitude":"113.9927","feature_class":"P","feature_code":"PPLA4","country_code":"ID","cc2":"","admin1_code":"08","admin2_code":"","admin3_code":"","admin4_code":"","population":"0","elevation":"","dem":"397","timezone":"Asia/Jakarta","modification_date":"2012-08-05"},{"geonameid":"8357760","name":"Tonggoh","asciiname":"Tonggoh","alternatenames":"Tonggoh","latitude":"-7.2693","longitude":"108.314","feature_class":"P","feature_code":"PPLA4","country_code":"ID","cc2":"","admin1_code":"30","admin2_code":"","admin3_code":"","admin4_code":"","population":"0","elevation":"","dem":"414","timezone":"Asia/Jakarta","modification_date":"2012-08-05"},{"geonameid":"8357780","name":"Girang","asciiname":"Girang","alternatenames":"Girang","latitude":"-7.2697","longitude":"108.4222","feature_class":"P","feature_code":"PPLA4","country_code":"ID","cc2":"","admin1_code":"30","admin2_code":"","admin3_code":"","admin4_code":"","population":"0","elevation":"","dem":"199","timezone":"Asia/Jakarta","modification_date":"2012-08-05"},{"geonameid":"8358385","name":"Jambean","asciiname":"Jambean","alternatenames":"Jambean","latitude":"-6.7371","longitude":"111.0352","feature_class":"P","feature_code":"PPLA4","country_code":"ID","cc2":"","admin1_code":"07","admin2_code":"","admin3_code":"","admin4_code":"","population":"0","elevation":"","dem":"18","timezone":"Asia/Jakarta","modification_date":"2012-08-05"},{"geonameid":"8358448","name":"Beran","asciiname":"Beran","alternatenames":"Beran","latitude":"-6.9793","longitude":"111.4102","feature_class":"P","feature_code":"PPLA4","country_code":"ID","cc2":"","admin1_code":"07","admin2_code":"","admin3_code":"","admin4_code":"","population":"0","elevation":"","dem":"89","timezone":"Asia/Jakarta","modification_date":"2012-08-06"},{"geonameid":"8358470","name":"Kalidawe","asciiname":"Kalidawe","alternatenames":"Kalidawe","latitude":"-8.2533","longitude":"112.012","feature_class":"P","feature_code":"PPLA4","country_code":"ID","cc2":"","admin1_code":"08","admin2_code":"","admin3_code":"","admin4_code":"","population":"0","elevation":"","dem":"230","timezone":"Asia/Jakarta","modification_date":"2012-08-06"},{"geonameid":"8358471","name":"Pucanglaban","asciiname":"Pucanglaban","alternatenames":"Poetjanglaban,Pucanglaban","latitude":"-8.2626","longitude":"112.0153","feature_class":"P","feature_code":"PPLA3","country_code":"ID","cc2":"","admin1_code":"08","admin2_code":"","admin3_code":"","admin4_code":"","population":"0","elevation":"","dem":"220","timezone":"Asia/Jakarta","modification_date":"2012-08-06"},{"geonameid":"8358472","name":"Ngeni","asciiname":"Ngeni","alternatenames":"Ngeni","latitude":"-8.2538","longitude":"112.2095","feature_class":"P","feature_code":"PPLA4","country_code":"ID","cc2":"","admin1_code":"08","admin2_code":"","admin3_code":"","admin4_code":"","population":"0","elevation":"","dem":"165","timezone":"Asia/Jakarta","modification_date":"2012-08-06"},{"geonameid":"8358473","name":"Mojorejo","asciiname":"Mojorejo","alternatenames":"Mojorejo","latitude":"-8.2609","longitude":"112.3558","feature_class":"P","feature_code":"PPLA4","country_code":"ID","cc2":"","admin1_code":"08","admin2_code":"","admin3_code":"","admin4_code":"","population":"0","elevation":"","dem":"396","timezone":"Asia/Jakarta","modification_date":"2012-08-06"},{"geonameid":"8358491","name":"Bibis","asciiname":"Bibis","alternatenames":"Bibis","latitude":"-8.0087","longitude":"111.467","feature_class":"P","feature_code":"PPLA4","country_code":"ID","cc2":"","admin1_code":"08","admin2_code":"","admin3_code":"","admin4_code":"","population":"0","elevation":"","dem":"128","timezone":"Asia/Jakarta","modification_date":"2012-08-06"},{"geonameid":"8358561","name":"Sumberbuncis","asciiname":"Sumberbuncis","alternatenames":"Soemberboentjis,Sumberbuncis","latitude":"-8.2703","longitude":"112.8825","feature_class":"P","feature_code":"PPLA4","country_code":"ID","cc2":"","admin1_code":"08","admin2_code":"","admin3_code":"","admin4_code":"","population":"0","elevation":"","dem":"438","timezone":"Asia/Jakarta","modification_date":"2012-08-06"},{"geonameid":"8358574","name":"Badean","asciiname":"Badean","alternatenames":"Badean,Badejan","latitude":"-8.1445","longitude":"113.5947","feature_class":"P","feature_code":"PPLA4","country_code":"ID","cc2":"","admin1_code":"08","admin2_code":"","admin3_code":"","admin4_code":"","population":"0","elevation":"","dem":"202","timezone":"Asia/Jakarta","modification_date":"2012-08-06"},{"geonameid":"8358576","name":"Curahkalong","asciiname":"Curahkalong","alternatenames":"Curahkalong","latitude":"-8.1733","longitude":"113.5128","feature_class":"P","feature_code":"PPLA4","country_code":"ID","cc2":"","admin1_code":"08","admin2_code":"","admin3_code":"","admin4_code":"","population":"0","elevation":"","dem":"121","timezone":"Asia/Jakarta","modification_date":"2012-08-06"},{"geonameid":"8361848","name":"Muaradua","asciiname":"Muaradua","alternatenames":"Muaradua,Muaraduo","latitude":"-4.11768","longitude":"103.6121","feature_class":"P","feature_code":"PPLA2","country_code":"ID","cc2":"","admin1_code":"32","admin2_code":"","admin3_code":"","admin4_code":"","population":"0","elevation":"","dem":"810","timezone":"Asia/Jakarta","modification_date":"2016-01-08"},{"geonameid":"8362638","name":"Bara Datu","asciiname":"Bara Datu","alternatenames":"Bara Datu","latitude":"-4.74423","longitude":"104.4964","feature_class":"P","feature_code":"PPLA3","country_code":"ID","cc2":"","admin1_code":"15","admin2_code":"","admin3_code":"","admin4_code":"","population":"0","elevation":"","dem":"179","timezone":"Asia/Jakarta","modification_date":"2012-08-06"},{"geonameid":"8362953","name":"Pasar Banjit","asciiname":"Pasar Banjit","alternatenames":"Pasar Banjit","latitude":"-4.79945","longitude":"104.48323","feature_class":"P","feature_code":"PPLA4","country_code":"ID","cc2":"","admin1_code":"15","admin2_code":"","admin3_code":"","admin4_code":"","population":"0","elevation":"","dem":"222","timezone":"Asia/Jakarta","modification_date":"2012-08-06"},{"geonameid":"8363502","name":"Kurungannyawa","asciiname":"Kurungannyawa","alternatenames":"Kurungannyawa","latitude":"-4.23804","longitude":"104.46482","feature_class":"P","feature_code":"PPLA4","country_code":"ID","cc2":"","admin1_code":"32","admin2_code":"","admin3_code":"","admin4_code":"","population":"0","elevation":"","dem":"78","timezone":"Asia/Jakarta","modification_date":"2012-08-06"},{"geonameid":"8364332","name":"Oganlima","asciiname":"Oganlima","alternatenames":"Oganlima","latitude":"-4.86736","longitude":"104.70308","feature_class":"P","feature_code":"PPLA3","country_code":"ID","cc2":"","admin1_code":"15","admin2_code":"","admin3_code":"","admin4_code":"","population":"0","elevation":"","dem":"121","timezone":"Asia/Jakarta","modification_date":"2012-08-06"},{"geonameid":"8364400","name":"Umbulan Kapiak","asciiname":"Umbulan Kapiak","alternatenames":"Umbulan Kapiak,Umbulankapiak","latitude":"-4.83438","longitude":"104.52867","feature_class":"P","feature_code":"PPLA3","country_code":"ID","cc2":"","admin1_code":"15","admin2_code":"","admin3_code":"","admin4_code":"","population":"0","elevation":"","dem":"237","timezone":"Asia/Jakarta","modification_date":"2012-08-06"},{"geonameid":"8376729","name":"Gunung","asciiname":"Gunung","alternatenames":"Gunung","latitude":"-7.0148","longitude":"113.5819","feature_class":"P","feature_code":"PPLA4","country_code":"ID","cc2":"","admin1_code":"08","admin2_code":"","admin3_code":"","admin4_code":"","population":"0","elevation":"","dem":"204","timezone":"Asia/Jakarta","modification_date":"2012-08-06"},{"geonameid":"8376736","name":"Trebungonjur","asciiname":"Trebungonjur","alternatenames":"Trebungonjur","latitude":"-7.0089","longitude":"113.5144","feature_class":"P","feature_code":"PPLA4","country_code":"ID","cc2":"","admin1_code":"08","admin2_code":"","admin3_code":"","admin4_code":"","population":"0","elevation":"","dem":"157","timezone":"Asia/Jakarta","modification_date":"2012-08-06"},{"geonameid":"8376743","name":"Grujugan","asciiname":"Grujugan","alternatenames":"Grujugan","latitude":"-7.0287","longitude":"113.6157","feature_class":"P","feature_code":"PPLA4","country_code":"ID","cc2":"","admin1_code":"08","admin2_code":"","admin3_code":"","admin4_code":"","population":"0","elevation":"","dem":"195","timezone":"Asia/Jakarta","modification_date":"2012-08-06"},{"geonameid":"8376749","name":"Parengan Laok","asciiname":"Parengan Laok","alternatenames":"Parengan Laok","latitude":"-7.0331","longitude":"113.5917","feature_class":"P","feature_code":"PPLA4","country_code":"ID","cc2":"","admin1_code":"08","admin2_code":"","admin3_code":"","admin4_code":"","population":"0","elevation":"","dem":"185","timezone":"Asia/Jakarta","modification_date":"2012-08-06"},{"geonameid":"8376764","name":"Patapan","asciiname":"Patapan","alternatenames":"Patapan","latitude":"-7.0279","longitude":"113.5081","feature_class":"P","feature_code":"PPLA4","country_code":"ID","cc2":"","admin1_code":"08","admin2_code":"","admin3_code":"","admin4_code":"","population":"0","elevation":"","dem":"322","timezone":"Asia/Jakarta","modification_date":"2012-08-06"},{"geonameid":"8376772","name":"Duko","asciiname":"Duko","alternatenames":"Duko","latitude":"-7.036","longitude":"113.5467","feature_class":"P","feature_code":"PPLA4","country_code":"ID","cc2":"","admin1_code":"08","admin2_code":"","admin3_code":"","admin4_code":"","population":"0","elevation":"","dem":"259","timezone":"Asia/Jakarta","modification_date":"2012-08-06"},{"geonameid":"8376776","name":"Gungguh","asciiname":"Gungguh","alternatenames":"Gungguh","latitude":"-7.035","longitude":"113.5599","feature_class":"P","feature_code":"PPLA4","country_code":"ID","cc2":"","admin1_code":"08","admin2_code":"","admin3_code":"","admin4_code":"","population":"0","elevation":"","dem":"254","timezone":"Asia/Jakarta","modification_date":"2012-08-06"},{"geonameid":"8376782","name":"Ba’rigi","asciiname":"Ba'rigi","alternatenames":"Ba'rigi,Ba’rigi","latitude":"-7.0402","longitude":"113.6026","feature_class":"P","feature_code":"PPLA4","country_code":"ID","cc2":"","admin1_code":"08","admin2_code":"","admin3_code":"","admin4_code":"","population":"0","elevation":"","dem":"165","timezone":"Asia/Jakarta","modification_date":"2012-08-06"},{"geonameid":"8376786","name":"Birsa","asciiname":"Birsa","alternatenames":"Birsa","latitude":"-7.0458","longitude":"113.6158","feature_class":"P","feature_code":"PPLA4","country_code":"ID","cc2":"","admin1_code":"08","admin2_code":"","admin3_code":"","admin4_code":"","population":"0","elevation":"","dem":"143","timezone":"Asia/Jakarta","modification_date":"2012-08-06"},{"geonameid":"8376790","name":"Sumberaya Barat","asciiname":"Sumberaya Barat","alternatenames":"Sumberaya Barat","latitude":"-7.0434","longitude":"113.5924","feature_class":"P","feature_code":"PPLA4","country_code":"ID","cc2":"","admin1_code":"08","admin2_code":"","admin3_code":"","admin4_code":"","population":"0","elevation":"","dem":"186","timezone":"Asia/Jakarta","modification_date":"2012-08-06"},{"geonameid":"8376791","name":"Kendal","asciiname":"Kendal","alternatenames":"Kendal","latitude":"-7.0436","longitude":"113.5874","feature_class":"P","feature_code":"PPLA4","country_code":"ID","cc2":"","admin1_code":"08","admin2_code":"","admin3_code":"","admin4_code":"","population":"0","elevation":"","dem":"197","timezone":"Asia/Jakarta","modification_date":"2012-08-06"},{"geonameid":"8376794","name":"Sannip","asciiname":"Sannip","alternatenames":"Sannip","latitude":"-7.0475","longitude":"113.5842","feature_class":"P","feature_code":"PPLA4","country_code":"ID","cc2":"","admin1_code":"08","admin2_code":"","admin3_code":"","admin4_code":"","population":"0","elevation":"","dem":"226","timezone":"Asia/Jakarta","modification_date":"2012-08-06"},{"geonameid":"8376796","name":"Sumberbatas","asciiname":"Sumberbatas","alternatenames":"Sumberbatas","latitude":"-7.0497","longitude":"113.5583","feature_class":"P","feature_code":"PPLA4","country_code":"ID","cc2":"","admin1_code":"08","admin2_code":"","admin3_code":"","admin4_code":"","population":"0","elevation":"","dem":"258","timezone":"Asia/Jakarta","modification_date":"2012-08-06"},{"geonameid":"8376823","name":"Polay Atas","asciiname":"Polay Atas","alternatenames":"Polay Atas","latitude":"-7.0662","longitude":"113.5964","feature_class":"P","feature_code":"PPLA4","country_code":"ID","cc2":"","admin1_code":"08","admin2_code":"","admin3_code":"","admin4_code":"","population":"0","elevation":"","dem":"178","timezone":"Asia/Jakarta","modification_date":"2012-08-06"},{"geonameid":"8376831","name":"Tonggakjati","asciiname":"Tonggakjati","alternatenames":"Tonggakjati","latitude":"-7.0612","longitude":"113.528","feature_class":"P","feature_code":"PPLA4","country_code":"ID","cc2":"","admin1_code":"08","admin2_code":"","admin3_code":"","admin4_code":"","population":"0","elevation":"","dem":"309","timezone":"Asia/Jakarta","modification_date":"2012-08-06"},{"geonameid":"8376832","name":"Sumberbendo","asciiname":"Sumberbendo","alternatenames":"Sumberbendo","latitude":"-7.0655","longitude":"113.5272","feature_class":"P","feature_code":"PPLA4","country_code":"ID","cc2":"","admin1_code":"08","admin2_code":"","admin3_code":"","admin4_code":"","population":"0","elevation":"","dem":"217","timezone":"Asia/Jakarta","modification_date":"2012-08-06"},{"geonameid":"8376833","name":"Pogag","asciiname":"Pogag","alternatenames":"Pogag","latitude":"-7.0638","longitude":"113.5187","feature_class":"P","feature_code":"PPLA4","country_code":"ID","cc2":"","admin1_code":"08","admin2_code":"","admin3_code":"","admin4_code":"","population":"0","elevation":"","dem":"250","timezone":"Asia/Jakarta","modification_date":"2012-08-06"},{"geonameid":"8376852","name":"Bakbatu","asciiname":"Bakbatu","alternatenames":"Bakbatu","latitude":"-7.0831","longitude":"113.5943","feature_class":"P","feature_code":"PPLA4","country_code":"ID","cc2":"","admin1_code":"08","admin2_code":"","admin3_code":"","admin4_code":"","population":"0","elevation":"","dem":"83","timezone":"Asia/Jakarta","modification_date":"2012-08-06"},{"geonameid":"8376868","name":"Sumberngerjat","asciiname":"Sumberngerjat","alternatenames":"Sumberngerjat","latitude":"-7.0888","longitude":"113.5901","feature_class":"P","feature_code":"PPLA4","country_code":"ID","cc2":"","admin1_code":"08","admin2_code":"","admin3_code":"","admin4_code":"","population":"0","elevation":"","dem":"82","timezone":"Asia/Jakarta","modification_date":"2012-08-06"},{"geonameid":"8376882","name":"Kadur","asciiname":"Kadur","alternatenames":"Kadur","latitude":"-7.093","longitude":"113.5586","feature_class":"P","feature_code":"PPLA4","country_code":"ID","cc2":"","admin1_code":"08","admin2_code":"","admin3_code":"","admin4_code":"","population":"0","elevation":"","dem":"108","timezone":"Asia/Jakarta","modification_date":"2012-08-06"},{"geonameid":"8376889","name":"Pancoran","asciiname":"Pancoran","alternatenames":"Pancoran","latitude":"-7.1035","longitude":"113.5201","feature_class":"P","feature_code":"PPLA4","country_code":"ID","cc2":"","admin1_code":"08","admin2_code":"","admin3_code":"","admin4_code":"","population":"0","elevation":"","dem":"97","timezone":"Asia/Jakarta","modification_date":"2012-08-06"},{"geonameid":"8376903","name":"Daleman Tengah","asciiname":"Daleman Tengah","alternatenames":"Daleman Tengah","latitude":"-7.105","longitude":"113.5913","feature_class":"P","feature_code":"PPLA4","country_code":"ID","cc2":"","admin1_code":"08","admin2_code":"","admin3_code":"","admin4_code":"","population":"0","elevation":"","dem":"67","timezone":"Asia/Jakarta","modification_date":"2012-08-06"},{"geonameid":"8376906","name":"Gagah","asciiname":"Gagah","alternatenames":"Gagah","latitude":"-7.1073","longitude":"113.5949","feature_class":"P","feature_code":"PPLA4","country_code":"ID","cc2":"","admin1_code":"08","admin2_code":"","admin3_code":"","admin4_code":"","population":"0","elevation":"","dem":"55","timezone":"Asia/Jakarta","modification_date":"2012-08-06"},{"geonameid":"8376908","name":"Mangkaan","asciiname":"Mangkaan","alternatenames":"Mangkaan","latitude":"-7.1048","longitude":"113.6086","feature_class":"P","feature_code":"PPLA4","country_code":"ID","cc2":"","admin1_code":"08","admin2_code":"","admin3_code":"","admin4_code":"","population":"0","elevation":"","dem":"81","timezone":"Asia/Jakarta","modification_date":"2012-08-06"},{"geonameid":"8376911","name":"Kolor","asciiname":"Kolor","alternatenames":"Kolor","latitude":"-7.1061","longitude":"113.6173","feature_class":"P","feature_code":"PPLA4","country_code":"ID","cc2":"","admin1_code":"08","admin2_code":"","admin3_code":"","admin4_code":"","population":"0","elevation":"","dem":"76","timezone":"Asia/Jakarta","modification_date":"2012-08-06"},{"geonameid":"8376921","name":"Sekolahan","asciiname":"Sekolahan","alternatenames":"Sekolahan","latitude":"-7.1143","longitude":"113.5829","feature_class":"P","feature_code":"PPLA4","country_code":"ID","cc2":"","admin1_code":"08","admin2_code":"","admin3_code":"","admin4_code":"","population":"0","elevation":"","dem":"57","timezone":"Asia/Jakarta","modification_date":"2012-08-06"},{"geonameid":"8376924","name":"Taraban Timur","asciiname":"Taraban Timur","alternatenames":"Taraban Timur","latitude":"-7.1149","longitude":"113.5773","feature_class":"P","feature_code":"PPLA4","country_code":"ID","cc2":"","admin1_code":"08","admin2_code":"","admin3_code":"","admin4_code":"","population":"0","elevation":"","dem":"62","timezone":"Asia/Jakarta","modification_date":"2012-08-06"},{"geonameid":"8376929","name":"Bertah","asciiname":"Bertah","alternatenames":"Bertah","latitude":"-7.1152","longitude":"113.5487","feature_class":"P","feature_code":"PPLA4","country_code":"ID","cc2":"","admin1_code":"08","admin2_code":"","admin3_code":"","admin4_code":"","population":"0","elevation":"","dem":"88","timezone":"Asia/Jakarta","modification_date":"2012-08-06"},{"geonameid":"8376935","name":"Duwaktenggi","asciiname":"Duwaktenggi","alternatenames":"Duwaktenggi","latitude":"-7.1108","longitude":"113.5265","feature_class":"P","feature_code":"PPLA4","country_code":"ID","cc2":"","admin1_code":"08","admin2_code":"","admin3_code":"","admin4_code":"","population":"0","elevation":"","dem":"115","timezone":"Asia/Jakarta","modification_date":"2012-08-06"},{"geonameid":"8376952","name":"Batuputih","asciiname":"Batuputih","alternatenames":"Batuputih","latitude":"-7.1183","longitude":"113.5523","feature_class":"P","feature_code":"PPLA4","country_code":"ID","cc2":"","admin1_code":"08","admin2_code":"","admin3_code":"","admin4_code":"","population":"0","elevation":"","dem":"70","timezone":"Asia/Jakarta","modification_date":"2012-08-06"},{"geonameid":"8376965","name":"Panggulan","asciiname":"Panggulan","alternatenames":"Panggulan","latitude":"-7.1188","longitude":"113.6123","feature_class":"P","feature_code":"PPLA4","country_code":"ID","cc2":"","admin1_code":"08","admin2_code":"","admin3_code":"","admin4_code":"","population":"0","elevation":"","dem":"22","timezone":"Asia/Jakarta","modification_date":"2012-08-06"},{"geonameid":"8376967","name":"Sendang Timur","asciiname":"Sendang Timur","alternatenames":"Sendang Timur","latitude":"-7.1173","longitude":"113.6214","feature_class":"P","feature_code":"PPLA4","country_code":"ID","cc2":"","admin1_code":"08","admin2_code":"","admin3_code":"","admin4_code":"","population":"0","elevation":"","dem":"22","timezone":"Asia/Jakarta","modification_date":"2012-08-06"},{"geonameid":"8376968","name":"Palalang","asciiname":"Palalang","alternatenames":"Palalang","latitude":"-7.0326","longitude":"113.5735","feature_class":"P","feature_code":"PPLA4","country_code":"ID","cc2":"","admin1_code":"08","admin2_code":"","admin3_code":"","admin4_code":"","population":"0","elevation":"","dem":"228","timezone":"Asia/Jakarta","modification_date":"2012-08-06"},{"geonameid":"8377177","name":"Budan Daja","asciiname":"Budan Daja","alternatenames":"Budan Daja","latitude":"-7.1986","longitude":"113.8946","feature_class":"P","feature_code":"PPLA4","country_code":"ID","cc2":"","admin1_code":"08","admin2_code":"","admin3_code":"","admin4_code":"","population":"0","elevation":"","dem":"29","timezone":"Asia/Jakarta","modification_date":"2012-08-06"},{"geonameid":"8377190","name":"Dadap","asciiname":"Dadap","alternatenames":"Dadap","latitude":"-7.1761","longitude":"113.9247","feature_class":"P","feature_code":"PPLA4","country_code":"ID","cc2":"","admin1_code":"08","admin2_code":"","admin3_code":"","admin4_code":"","population":"0","elevation":"","dem":"10","timezone":"Asia/Jakarta","modification_date":"2012-08-06"},{"geonameid":"8377193","name":"Gedugan Barat","asciiname":"Gedugan Barat","alternatenames":"Gedugan Barat","latitude":"-7.1977","longitude":"113.9326","feature_class":"P","feature_code":"PPLA4","country_code":"ID","cc2":"","admin1_code":"08","admin2_code":"","admin3_code":"","admin4_code":"","population":"0","elevation":"","dem":"11","timezone":"Asia/Jakarta","modification_date":"2012-08-06"},{"geonameid":"8377311","name":"Ledeunu","asciiname":"Ledeunu","alternatenames":"Ledeunu","latitude":"-10.6058","longitude":"121.6106","feature_class":"P","feature_code":"PPLA3","country_code":"ID","cc2":"","admin1_code":"18","admin2_code":"","admin3_code":"","admin4_code":"","population":"0","elevation":"","dem":"15","timezone":"Asia/Makassar","modification_date":"2012-08-06"},{"geonameid":"8377314","name":"Ujudima","asciiname":"Ujudima","alternatenames":"Ujudima","latitude":"-10.6078","longitude":"121.6085","feature_class":"P","feature_code":"PPLA4","country_code":"ID","cc2":"","admin1_code":"18","admin2_code":"","admin3_code":"","admin4_code":"","population":"0","elevation":"","dem":"15","timezone":"Asia/Makassar","modification_date":"2012-08-06"},{"geonameid":"8377322","name":"Maae","asciiname":"Maae","alternatenames":"Maae","latitude":"-10.6184","longitude":"121.5991","feature_class":"P","feature_code":"PPLA4","country_code":"ID","cc2":"","admin1_code":"18","admin2_code":"","admin3_code":"","admin4_code":"","population":"0","elevation":"","dem":"83","timezone":"Asia/Makassar","modification_date":"2012-08-06"},{"geonameid":"8377334","name":"Loboma","asciiname":"Loboma","alternatenames":"Loboma","latitude":"-10.6212","longitude":"121.5749","feature_class":"P","feature_code":"PPLA4","country_code":"ID","cc2":"","admin1_code":"18","admin2_code":"","admin3_code":"","admin4_code":"","population":"0","elevation":"","dem":"122","timezone":"Asia/Makassar","modification_date":"2012-08-06"},{"geonameid":"8377345","name":"Bogi","asciiname":"Bogi","alternatenames":"Bogi","latitude":"-10.6162","longitude":"121.5743","feature_class":"P","feature_code":"PPLA4","country_code":"ID","cc2":"","admin1_code":"18","admin2_code":"","admin3_code":"","admin4_code":"","population":"0","elevation":"","dem":"157","timezone":"Asia/Makassar","modification_date":"2012-08-06"},{"geonameid":"8377367","name":"Lupe","asciiname":"Lupe","alternatenames":"Lupe","latitude":"-10.6167","longitude":"121.5531","feature_class":"P","feature_code":"PPLA4","country_code":"ID","cc2":"","admin1_code":"18","admin2_code":"","admin3_code":"","admin4_code":"","population":"0","elevation":"","dem":"107","timezone":"Asia/Makassar","modification_date":"2012-08-06"},{"geonameid":"8377404","name":"Danirai","asciiname":"Danirai","alternatenames":"Danirai","latitude":"-10.5732","longitude":"121.7388","feature_class":"P","feature_code":"PPLA4","country_code":"ID","cc2":"","admin1_code":"18","admin2_code":"","admin3_code":"","admin4_code":"","population":"0","elevation":"","dem":"181","timezone":"Asia/Makassar","modification_date":"2012-08-06"},{"geonameid":"8377422","name":"Para","asciiname":"Para","alternatenames":"Para","latitude":"-10.5972","longitude":"121.7303","feature_class":"P","feature_code":"PPLA4","country_code":"ID","cc2":"","admin1_code":"18","admin2_code":"","admin3_code":"","admin4_code":"","population":"0","elevation":"","dem":"13","timezone":"Asia/Makassar","modification_date":"2012-08-06"},{"geonameid":"8377440","name":"Lederaba","asciiname":"Lederaba","alternatenames":"Lederaba","latitude":"-10.5737","longitude":"121.7219","feature_class":"P","feature_code":"PPLA4","country_code":"ID","cc2":"","admin1_code":"18","admin2_code":"","admin3_code":"","admin4_code":"","population":"0","elevation":"","dem":"122","timezone":"Asia/Makassar","modification_date":"2012-08-06"},{"geonameid":"8377510","name":"Loboae","asciiname":"Loboae","alternatenames":"Loboae","latitude":"-10.5048","longitude":"121.828","feature_class":"P","feature_code":"PPLA3","country_code":"ID","cc2":"","admin1_code":"18","admin2_code":"","admin3_code":"","admin4_code":"","population":"0","elevation":"","dem":"21","timezone":"Asia/Makassar","modification_date":"2012-08-06"},{"geonameid":"8377530","name":"Dinititi","asciiname":"Dinititi","alternatenames":"Dinititi","latitude":"-10.5125","longitude":"121.8513","feature_class":"P","feature_code":"PPLA4","country_code":"ID","cc2":"","admin1_code":"18","admin2_code":"","admin3_code":"","admin4_code":"","population":"0","elevation":"","dem":"24","timezone":"Asia/Makassar","modification_date":"2012-08-06"},{"geonameid":"8377537","name":"Raeliu","asciiname":"Raeliu","alternatenames":"Raeliu","latitude":"-10.5137","longitude":"121.8112","feature_class":"P","feature_code":"PPLA4","country_code":"ID","cc2":"","admin1_code":"18","admin2_code":"","admin3_code":"","admin4_code":"","population":"0","elevation":"","dem":"12","timezone":"Asia/Makassar","modification_date":"2012-08-06"},{"geonameid":"8377543","name":"Ubajami","asciiname":"Ubajami","alternatenames":"Ubajami","latitude":"-10.5182","longitude":"121.7895","feature_class":"P","feature_code":"PPLA4","country_code":"ID","cc2":"","admin1_code":"18","admin2_code":"","admin3_code":"","admin4_code":"","population":"0","elevation":"","dem":"11","timezone":"Asia/Makassar","modification_date":"2012-08-06"},{"geonameid":"8377572","name":"Raehawu","asciiname":"Raehawu","alternatenames":"Raehawu","latitude":"-10.5336","longitude":"121.8313","feature_class":"P","feature_code":"PPLA4","country_code":"ID","cc2":"","admin1_code":"18","admin2_code":"","admin3_code":"","admin4_code":"","population":"0","elevation":"","dem":"39","timezone":"Asia/Makassar","modification_date":"2012-08-06"},{"geonameid":"8377598","name":"Dairiti","asciiname":"Dairiti","alternatenames":"Dairiti","latitude":"-10.539","longitude":"121.8525","feature_class":"P","feature_code":"PPLA4","country_code":"ID","cc2":"","admin1_code":"18","admin2_code":"","admin3_code":"","admin4_code":"","population":"0","elevation":"","dem":"62","timezone":"Asia/Makassar","modification_date":"2012-08-06"},{"geonameid":"8377604","name":"Ligu","asciiname":"Ligu","alternatenames":"Ligu","latitude":"-10.5422","longitude":"121.7566","feature_class":"P","feature_code":"PPLA4","country_code":"ID","cc2":"","admin1_code":"18","admin2_code":"","admin3_code":"","admin4_code":"","population":"0","elevation":"","dem":"22","timezone":"Asia/Makassar","modification_date":"2012-08-06"},{"geonameid":"8377636","name":"Raemude","asciiname":"Raemude","alternatenames":"Raemude","latitude":"-10.5524","longitude":"121.8475","feature_class":"P","feature_code":"PPLA4","country_code":"ID","cc2":"","admin1_code":"18","admin2_code":"","admin3_code":"","admin4_code":"","population":"0","elevation":"","dem":"128","timezone":"Asia/Makassar","modification_date":"2012-08-06"},{"geonameid":"8377666","name":"Raenalulu","asciiname":"Raenalulu","alternatenames":"Raenalulu","latitude":"-10.5599","longitude":"121.8123","feature_class":"P","feature_code":"PPLA4","country_code":"ID","cc2":"","admin1_code":"18","admin2_code":"","admin3_code":"","admin4_code":"","population":"0","elevation":"","dem":"115","timezone":"Asia/Makassar","modification_date":"2012-08-06"},{"geonameid":"8377709","name":"Aimadamodo","asciiname":"Aimadamodo","alternatenames":"Aimadamodo","latitude":"-10.5822","longitude":"121.8062","feature_class":"P","feature_code":"PPLA4","country_code":"ID","cc2":"","admin1_code":"18","admin2_code":"","admin3_code":"","admin4_code":"","population":"0","elevation":"","dem":"250","timezone":"Asia/Makassar","modification_date":"2012-08-06"},{"geonameid":"8377738","name":"Pudi","asciiname":"Pudi","alternatenames":"Pudi","latitude":"-10.5891","longitude":"121.7575","feature_class":"P","feature_code":"PPLA4","country_code":"ID","cc2":"","admin1_code":"18","admin2_code":"","admin3_code":"","admin4_code":"","population":"0","elevation":"","dem":"150","timezone":"Asia/Makassar","modification_date":"2012-08-06"},{"geonameid":"8377761","name":"Mehona","asciiname":"Mehona","alternatenames":"Mehona","latitude":"-10.5951","longitude":"121.8335","feature_class":"P","feature_code":"PPLA4","country_code":"ID","cc2":"","admin1_code":"18","admin2_code":"","admin3_code":"","admin4_code":"","population":"0","elevation":"","dem":"176","timezone":"Asia/Makassar","modification_date":"2012-08-06"},{"geonameid":"8377767","name":"Duku","asciiname":"Duku","alternatenames":"Duku","latitude":"-10.5971","longitude":"121.8625","feature_class":"P","feature_code":"PPLA4","country_code":"ID","cc2":"","admin1_code":"18","admin2_code":"","admin3_code":"","admin4_code":"","population":"0","elevation":"","dem":"21","timezone":"Asia/Makassar","modification_date":"2012-08-06"},{"geonameid":"8377784","name":"Danidehe","asciiname":"Danidehe","alternatenames":"Danidehe","latitude":"-10.6072","longitude":"121.8214","feature_class":"P","feature_code":"PPLA4","country_code":"ID","cc2":"","admin1_code":"18","admin2_code":"","admin3_code":"","admin4_code":"","population":"0","elevation":"","dem":"41","timezone":"Asia/Makassar","modification_date":"2012-08-06"},{"geonameid":"8377792","name":"Gelanalalu","asciiname":"Gelanalalu","alternatenames":"Gelanalalu","latitude":"-10.603","longitude":"121.7837","feature_class":"P","feature_code":"PPLA4","country_code":"ID","cc2":"","admin1_code":"18","admin2_code":"","admin3_code":"","admin4_code":"","population":"0","elevation":"","dem":"44","timezone":"Asia/Makassar","modification_date":"2012-08-06"},{"geonameid":"8377796","name":"Lenakapa","asciiname":"Lenakapa","alternatenames":"Lenakapa","latitude":"-10.6012","longitude":"121.7557","feature_class":"P","feature_code":"PPLA4","country_code":"ID","cc2":"","admin1_code":"18","admin2_code":"","admin3_code":"","admin4_code":"","population":"0","elevation":"","dem":"68","timezone":"Asia/Makassar","modification_date":"2012-08-06"},{"geonameid":"8377819","name":"Waduwala","asciiname":"Waduwala","alternatenames":"Waduwala","latitude":"-10.614","longitude":"121.8634","feature_class":"P","feature_code":"PPLA4","country_code":"ID","cc2":"","admin1_code":"18","admin2_code":"","admin3_code":"","admin4_code":"","population":"0","elevation":"","dem":"15","timezone":"Asia/Makassar","modification_date":"2012-08-06"},{"geonameid":"8377939","name":"Nahura","asciiname":"Nahura","alternatenames":"Nahura","latitude":"-10.4611","longitude":"121.8698","feature_class":"P","feature_code":"PPLA4","country_code":"ID","cc2":"","admin1_code":"18","admin2_code":"","admin3_code":"","admin4_code":"","population":"0","elevation":"","dem":"41","timezone":"Asia/Makassar","modification_date":"2012-08-06"},{"geonameid":"8377959","name":"Eikapaka","asciiname":"Eikapaka","alternatenames":"Eikapaka","latitude":"-10.4997","longitude":"121.8535","feature_class":"P","feature_code":"PPLA4","country_code":"ID","cc2":"","admin1_code":"18","admin2_code":"","admin3_code":"","admin4_code":"","population":"0","elevation":"","dem":"30","timezone":"Asia/Makassar","modification_date":"2012-08-06"},{"geonameid":"8378089","name":"Raejeru","asciiname":"Raejeru","alternatenames":"Raejeru","latitude":"-10.4555","longitude":"121.9359","feature_class":"P","feature_code":"PPLA4","country_code":"ID","cc2":"","admin1_code":"18","admin2_code":"","admin3_code":"","admin4_code":"","population":"0","elevation":"","dem":"92","timezone":"Asia/Makassar","modification_date":"2012-08-06"},{"geonameid":"8378098","name":"Padadue","asciiname":"Padadue","alternatenames":"Padadue","latitude":"-10.4987","longitude":"121.9349","feature_class":"P","feature_code":"PPLA4","country_code":"ID","cc2":"","admin1_code":"18","admin2_code":"","admin3_code":"","admin4_code":"","population":"0","elevation":"","dem":"142","timezone":"Asia/Makassar","modification_date":"2012-08-06"},{"geonameid":"8378114","name":"Jiwuwu","asciiname":"Jiwuwu","alternatenames":"Jiwuwu","latitude":"-10.4636","longitude":"121.96","feature_class":"P","feature_code":"PPLA4","country_code":"ID","cc2":"","admin1_code":"18","admin2_code":"","admin3_code":"","admin4_code":"","population":"0","elevation":"","dem":"91","timezone":"Asia/Makassar","modification_date":"2012-08-06"},{"geonameid":"8378148","name":"Guluhawu","asciiname":"Guluhawu","alternatenames":"Guluhawu","latitude":"-10.4948","longitude":"121.9766","feature_class":"P","feature_code":"PPLA4","country_code":"ID","cc2":"","admin1_code":"18","admin2_code":"","admin3_code":"","admin4_code":"","population":"0","elevation":"","dem":"77","timezone":"Asia/Makassar","modification_date":"2012-08-06"},{"geonameid":"8378159","name":"Bolou","asciiname":"Bolou","alternatenames":"Bolou","latitude":"-10.4979","longitude":"121.9733","feature_class":"P","feature_code":"PPLA3","country_code":"ID","cc2":"","admin1_code":"18","admin2_code":"","admin3_code":"","admin4_code":"","population":"0","elevation":"","dem":"84","timezone":"Asia/Makassar","modification_date":"2012-08-06"},{"geonameid":"8378181","name":"Unukume","asciiname":"Unukume","alternatenames":"Unukume","latitude":"-10.5023","longitude":"121.9783","feature_class":"P","feature_code":"PPLA4","country_code":"ID","cc2":"","admin1_code":"18","admin2_code":"","admin3_code":"","admin4_code":"","population":"0","elevation":"","dem":"64","timezone":"Asia/Makassar","modification_date":"2012-08-06"},{"geonameid":"8378224","name":"Jarada","asciiname":"Jarada","alternatenames":"Jarada","latitude":"-10.5224","longitude":"121.9409","feature_class":"P","feature_code":"PPLA4","country_code":"ID","cc2":"","admin1_code":"18","admin2_code":"","admin3_code":"","admin4_code":"","population":"0","elevation":"","dem":"135","timezone":"Asia/Makassar","modification_date":"2012-08-06"},{"geonameid":"8378228","name":"Loboma","asciiname":"Loboma","alternatenames":"Loboma","latitude":"-10.5219","longitude":"121.9666","feature_class":"P","feature_code":"PPLA4","country_code":"ID","cc2":"","admin1_code":"18","admin2_code":"","admin3_code":"","admin4_code":"","population":"0","elevation":"","dem":"106","timezone":"Asia/Makassar","modification_date":"2012-08-06"},{"geonameid":"8378246","name":"Lokorae","asciiname":"Lokorae","alternatenames":"Lokorae","latitude":"-10.5297","longitude":"121.9058","feature_class":"P","feature_code":"PPLA4","country_code":"ID","cc2":"","admin1_code":"18","admin2_code":"","admin3_code":"","admin4_code":"","population":"0","elevation":"","dem":"137","timezone":"Asia/Makassar","modification_date":"2012-08-06"},{"geonameid":"8378282","name":"Eilau","asciiname":"Eilau","alternatenames":"Eilau","latitude":"-10.5454","longitude":"121.9511","feature_class":"P","feature_code":"PPLA4","country_code":"ID","cc2":"","admin1_code":"18","admin2_code":"","admin3_code":"","admin4_code":"","population":"0","elevation":"","dem":"101","timezone":"Asia/Makassar","modification_date":"2012-08-06"},{"geonameid":"8378311","name":"Kahabe","asciiname":"Kahabe","alternatenames":"Kahabe","latitude":"-10.5676","longitude":"121.9306","feature_class":"P","feature_code":"PPLA4","country_code":"ID","cc2":"","admin1_code":"18","admin2_code":"","admin3_code":"","admin4_code":"","population":"0","elevation":"","dem":"9","timezone":"Asia/Makassar","modification_date":"2012-08-06"},{"geonameid":"8378323","name":"Daikela","asciiname":"Daikela","alternatenames":"Daikela","latitude":"-10.5684","longitude":"121.8988","feature_class":"P","feature_code":"PPLA4","country_code":"ID","cc2":"","admin1_code":"18","admin2_code":"","admin3_code":"","admin4_code":"","population":"0","elevation":"","dem":"165","timezone":"Asia/Makassar","modification_date":"2012-08-06"},{"geonameid":"8378349","name":"Parajara","asciiname":"Parajara","alternatenames":"Parajara","latitude":"-10.5971","longitude":"121.8889","feature_class":"P","feature_code":"PPLA4","country_code":"ID","cc2":"","admin1_code":"18","admin2_code":"","admin3_code":"","admin4_code":"","population":"0","elevation":"","dem":"12","timezone":"Asia/Makassar","modification_date":"2012-08-06"},{"geonameid":"8378367","name":"Aduoen","asciiname":"Aduoen","alternatenames":"Aduoen","latitude":"-10.7965","longitude":"122.857","feature_class":"P","feature_code":"PPLA4","country_code":"ID","cc2":"","admin1_code":"18","admin2_code":"","admin3_code":"","admin4_code":"","population":"0","elevation":"","dem":"17","timezone":"Asia/Makassar","modification_date":"2012-08-06"},{"geonameid":"8378408","name":"Olo","asciiname":"Olo","alternatenames":"Olo","latitude":"-10.84712","longitude":"122.86473","feature_class":"P","feature_code":"PPLA4","country_code":"ID","cc2":"","admin1_code":"18","admin2_code":"","admin3_code":"","admin4_code":"","population":"0","elevation":"","dem":"62","timezone":"Asia/Makassar","modification_date":"2012-08-06"},{"geonameid":"8379623","name":"Angsana Timur","asciiname":"Angsana Timur","alternatenames":"Angsana Timur","latitude":"-7.0913","longitude":"113.543","feature_class":"P","feature_code":"PPLA4","country_code":"ID","cc2":"","admin1_code":"08","admin2_code":"","admin3_code":"","admin4_code":"","population":"0","elevation":"","dem":"114","timezone":"Asia/Jakarta","modification_date":"2012-09-08"},{"geonameid":"8379682","name":"Bangrat","asciiname":"Bangrat","alternatenames":"Bangrat","latitude":"-7.0405","longitude":"113.6397","feature_class":"P","feature_code":"PPLA4","country_code":"ID","cc2":"","admin1_code":"08","admin2_code":"","admin3_code":"","admin4_code":"","population":"0","elevation":"","dem":"116","timezone":"Asia/Jakarta","modification_date":"2012-09-08"},{"geonameid":"8379685","name":"Masaran","asciiname":"Masaran","alternatenames":"Masaran","latitude":"-7.0503","longitude":"113.6264","feature_class":"P","feature_code":"PPLA4","country_code":"ID","cc2":"","admin1_code":"08","admin2_code":"","admin3_code":"","admin4_code":"","population":"0","elevation":"","dem":"135","timezone":"Asia/Jakarta","modification_date":"2012-09-08"},{"geonameid":"8379686","name":"Pordapor Barat","asciiname":"Pordapor Barat","alternatenames":"Pordapor Barat","latitude":"-7.0504","longitude":"113.6357","feature_class":"P","feature_code":"PPLA4","country_code":"ID","cc2":"","admin1_code":"08","admin2_code":"","admin3_code":"","admin4_code":"","population":"0","elevation":"","dem":"127","timezone":"Asia/Jakarta","modification_date":"2012-09-08"},{"geonameid":"8379696","name":"Sabitak","asciiname":"Sabitak","alternatenames":"Sabitak","latitude":"-7.0877","longitude":"113.6327","feature_class":"P","feature_code":"PPLA4","country_code":"ID","cc2":"","admin1_code":"08","admin2_code":"","admin3_code":"","admin4_code":"","population":"0","elevation":"","dem":"67","timezone":"Asia/Jakarta","modification_date":"2012-09-08"},{"geonameid":"8379699","name":"Prengtale","asciiname":"Prengtale","alternatenames":"Prengtale","latitude":"-7.0972","longitude":"113.6404","feature_class":"P","feature_code":"PPLA4","country_code":"ID","cc2":"","admin1_code":"08","admin2_code":"","admin3_code":"","admin4_code":"","population":"0","elevation":"","dem":"41","timezone":"Asia/Jakarta","modification_date":"2012-09-08"},{"geonameid":"8379706","name":"Banlapa","asciiname":"Banlapa","alternatenames":"Banlapa","latitude":"-7.0332","longitude":"113.6597","feature_class":"P","feature_code":"PPLA4","country_code":"ID","cc2":"","admin1_code":"08","admin2_code":"","admin3_code":"","admin4_code":"","population":"0","elevation":"","dem":"132","timezone":"Asia/Jakarta","modification_date":"2012-09-08"},{"geonameid":"8379721","name":"Mrongi Daja","asciiname":"Mrongi Daja","alternatenames":"Mrongi Daja","latitude":"-7.0967","longitude":"113.6588","feature_class":"P","feature_code":"PPLA4","country_code":"ID","cc2":"","admin1_code":"08","admin2_code":"","admin3_code":"","admin4_code":"","population":"0","elevation":"","dem":"46","timezone":"Asia/Jakarta","modification_date":"2012-09-08"},{"geonameid":"8379724","name":"Ketapang Daja","asciiname":"Ketapang Daja","alternatenames":"Ketapang Daja","latitude":"-7.1131","longitude":"113.6527","feature_class":"P","feature_code":"PPLA4","country_code":"ID","cc2":"","admin1_code":"08","admin2_code":"","admin3_code":"","admin4_code":"","population":"0","elevation":"","dem":"11","timezone":"Asia/Jakarta","modification_date":"2012-09-08"},{"geonameid":"8379726","name":"Galis Dua","asciiname":"Galis Dua","alternatenames":"Galis Dua","latitude":"-7.1133","longitude":"113.6441","feature_class":"P","feature_code":"PPLA4","country_code":"ID","cc2":"","admin1_code":"08","admin2_code":"","admin3_code":"","admin4_code":"","population":"0","elevation":"","dem":"26","timezone":"Asia/Jakarta","modification_date":"2012-09-08"},{"geonameid":"8379735","name":"Timurleke","asciiname":"Timurleke","alternatenames":"Timurleke","latitude":"-7.037","longitude":"113.6765","feature_class":"P","feature_code":"PPLA4","country_code":"ID","cc2":"","admin1_code":"08","admin2_code":"","admin3_code":"","admin4_code":"","population":"0","elevation":"","dem":"113","timezone":"Asia/Jakarta","modification_date":"2012-09-08"},{"geonameid":"8379749","name":"Batojaran","asciiname":"Batojaran","alternatenames":"Batojaran","latitude":"-7.0938","longitude":"113.6665","feature_class":"P","feature_code":"PPLA4","country_code":"ID","cc2":"","admin1_code":"08","admin2_code":"","admin3_code":"","admin4_code":"","population":"0","elevation":"","dem":"54","timezone":"Asia/Jakarta","modification_date":"2012-09-08"},{"geonameid":"8379758","name":"Pragaan","asciiname":"Pragaan","alternatenames":"Pragaan","latitude":"-7.1109","longitude":"113.66","feature_class":"P","feature_code":"PPLA3","country_code":"ID","cc2":"","admin1_code":"08","admin2_code":"","admin3_code":"","admin4_code":"","population":"0","elevation":"","dem":"13","timezone":"Asia/Jakarta","modification_date":"2012-09-08"},{"geonameid":"8379766","name":"Masjid","asciiname":"Masjid","alternatenames":"Masjid","latitude":"-7.0412","longitude":"113.6863","feature_class":"P","feature_code":"PPLA4","country_code":"ID","cc2":"","admin1_code":"08","admin2_code":"","admin3_code":"","admin4_code":"","population":"0","elevation":"","dem":"103","timezone":"Asia/Jakarta","modification_date":"2012-09-08"},{"geonameid":"8379768","name":"Duko","asciiname":"Duko","alternatenames":"Duko","latitude":"-7.049","longitude":"113.6889","feature_class":"P","feature_code":"PPLA4","country_code":"ID","cc2":"","admin1_code":"08","admin2_code":"","admin3_code":"","admin4_code":"","population":"0","elevation":"","dem":"92","timezone":"Asia/Jakarta","modification_date":"2012-09-08"},{"geonameid":"8379772","name":"Sumberkindagan","asciiname":"Sumberkindagan","alternatenames":"Sumberkindagan","latitude":"-7.0621","longitude":"113.6886","feature_class":"P","feature_code":"PPLA4","country_code":"ID","cc2":"","admin1_code":"08","admin2_code":"","admin3_code":"","admin4_code":"","population":"0","elevation":"","dem":"145","timezone":"Asia/Jakarta","modification_date":"2012-09-08"},{"geonameid":"8379788","name":"Talambung Laok","asciiname":"Talambung Laok","alternatenames":"Talambung Laok","latitude":"-7.0382","longitude":"113.7022","feature_class":"P","feature_code":"PPLA4","country_code":"ID","cc2":"","admin1_code":"08","admin2_code":"","admin3_code":"","admin4_code":"","population":"0","elevation":"","dem":"89","timezone":"Asia/Jakarta","modification_date":"2012-09-08"},{"geonameid":"8379789","name":"Naga","asciiname":"Naga","alternatenames":"Naga","latitude":"-7.0442","longitude":"113.6933","feature_class":"P","feature_code":"PPLA4","country_code":"ID","cc2":"","admin1_code":"08","admin2_code":"","admin3_code":"","admin4_code":"","population":"0","elevation":"","dem":"96","timezone":"Asia/Jakarta","modification_date":"2012-09-08"},{"geonameid":"8379791","name":"Panggungdaja","asciiname":"Panggungdaja","alternatenames":"Panggungdaja","latitude":"-7.0532","longitude":"113.6931","feature_class":"P","feature_code":"PPLA4","country_code":"ID","cc2":"","admin1_code":"08","admin2_code":"","admin3_code":"","admin4_code":"","population":"0","elevation":"","dem":"100","timezone":"Asia/Jakarta","modification_date":"2012-09-08"},{"geonameid":"8379804","name":"Barru","asciiname":"Barru","alternatenames":"Barru","latitude":"-7.0943","longitude":"113.7045","feature_class":"P","feature_code":"PPLA4","country_code":"ID","cc2":"","admin1_code":"08","admin2_code":"","admin3_code":"","admin4_code":"","population":"0","elevation":"","dem":"41","timezone":"Asia/Jakarta","modification_date":"2012-09-08"},{"geonameid":"8379815","name":"Mangar","asciiname":"Mangar","alternatenames":"Mangar","latitude":"-7.015","longitude":"113.7187","feature_class":"P","feature_code":"PPLA4","country_code":"ID","cc2":"","admin1_code":"08","admin2_code":"","admin3_code":"","admin4_code":"","population":"0","elevation":"","dem":"118","timezone":"Asia/Jakarta","modification_date":"2012-09-08"},{"geonameid":"8379825","name":"Kebunan","asciiname":"Kebunan","alternatenames":"Kebunan","latitude":"-7.0541","longitude":"113.7081","feature_class":"P","feature_code":"PPLA4","country_code":"ID","cc2":"","admin1_code":"08","admin2_code":"","admin3_code":"","admin4_code":"","population":"0","elevation":"","dem":"94","timezone":"Asia/Jakarta","modification_date":"2012-09-08"},{"geonameid":"8379826","name":"Karangjati","asciiname":"Karangjati","alternatenames":"Karangjati","latitude":"-7.0524","longitude":"113.722","feature_class":"P","feature_code":"PPLA4","country_code":"ID","cc2":"","admin1_code":"08","admin2_code":"","admin3_code":"","admin4_code":"","population":"0","elevation":"","dem":"82","timezone":"Asia/Jakarta","modification_date":"2012-09-08"},{"geonameid":"8379827","name":"Dajalorong","asciiname":"Dajalorong","alternatenames":"Dajalorong","latitude":"-7.0609","longitude":"113.7136","feature_class":"P","feature_code":"PPLA4","country_code":"ID","cc2":"","admin1_code":"08","admin2_code":"","admin3_code":"","admin4_code":"","population":"0","elevation":"","dem":"130","timezone":"Asia/Jakarta","modification_date":"2012-09-08"},{"geonameid":"8379842","name":"Sumberpandan","asciiname":"Sumberpandan","alternatenames":"Sumberpandan","latitude":"-7.1088","longitude":"113.7173","feature_class":"P","feature_code":"PPLA4","country_code":"ID","cc2":"","admin1_code":"08","admin2_code":"","admin3_code":"","admin4_code":"","population":"0","elevation":"","dem":"31","timezone":"Asia/Jakarta","modification_date":"2012-09-08"},{"geonameid":"8379843","name":"Biyan","asciiname":"Biyan","alternatenames":"Biyan","latitude":"-7.1105","longitude":"113.7226","feature_class":"P","feature_code":"PPLA4","country_code":"ID","cc2":"","admin1_code":"08","admin2_code":"","admin3_code":"","admin4_code":"","population":"0","elevation":"","dem":"34","timezone":"Asia/Jakarta","modification_date":"2012-09-08"},{"geonameid":"8379851","name":"Jambumonyet","asciiname":"Jambumonyet","alternatenames":"Jambumonyet","latitude":"-7.0358","longitude":"113.7355","feature_class":"P","feature_code":"PPLA4","country_code":"ID","cc2":"","admin1_code":"08","admin2_code":"","admin3_code":"","admin4_code":"","population":"0","elevation":"","dem":"83","timezone":"Asia/Jakarta","modification_date":"2012-09-08"},{"geonameid":"8379852","name":"Dajasongai","asciiname":"Dajasongai","alternatenames":"Dajasongai","latitude":"-7.04486","longitude":"113.73422","feature_class":"P","feature_code":"PPLA4","country_code":"ID","cc2":"","admin1_code":"08","admin2_code":"","admin3_code":"","admin4_code":"","population":"0","elevation":"","dem":"53","timezone":"Asia/Jakarta","modification_date":"2012-09-08"},{"geonameid":"8379854","name":"Loaksongai","asciiname":"Loaksongai","alternatenames":"Loaksongai","latitude":"-7.0505","longitude":"113.7276","feature_class":"P","feature_code":"PPLA4","country_code":"ID","cc2":"","admin1_code":"08","admin2_code":"","admin3_code":"","admin4_code":"","population":"0","elevation":"","dem":"63","timezone":"Asia/Jakarta","modification_date":"2012-09-08"},{"geonameid":"8379860","name":"Sasar","asciiname":"Sasar","alternatenames":"Sasar","latitude":"-7.0827","longitude":"113.7343","feature_class":"P","feature_code":"PPLA4","country_code":"ID","cc2":"","admin1_code":"08","admin2_code":"","admin3_code":"","admin4_code":"","population":"0","elevation":"","dem":"242","timezone":"Asia/Jakarta","modification_date":"2012-09-08"},{"geonameid":"8379879","name":"Taman","asciiname":"Taman","alternatenames":"Taman","latitude":"-7.0512","longitude":"113.7445","feature_class":"P","feature_code":"PPLA4","country_code":"ID","cc2":"","admin1_code":"08","admin2_code":"","admin3_code":"","admin4_code":"","population":"0","elevation":"","dem":"51","timezone":"Asia/Jakarta","modification_date":"2012-09-08"},{"geonameid":"8379882","name":"Solok Timur","asciiname":"Solok Timur","alternatenames":"Solok Timur","latitude":"-7.0594","longitude":"113.7474","feature_class":"P","feature_code":"PPLA4","country_code":"ID","cc2":"","admin1_code":"08","admin2_code":"","admin3_code":"","admin4_code":"","population":"0","elevation":"","dem":"88","timezone":"Asia/Jakarta","modification_date":"2012-09-08"},{"geonameid":"8379883","name":"Solok","asciiname":"Solok","alternatenames":"Solok","latitude":"-7.0687","longitude":"113.7448","feature_class":"P","feature_code":"PPLA4","country_code":"ID","cc2":"","admin1_code":"08","admin2_code":"","admin3_code":"","admin4_code":"","population":"0","elevation":"","dem":"147","timezone":"Asia/Jakarta","modification_date":"2012-09-08"},{"geonameid":"8379890","name":"Pesisir","asciiname":"Pesisir","alternatenames":"Pesisir","latitude":"-7.1145","longitude":"113.7489","feature_class":"P","feature_code":"PPLA4","country_code":"ID","cc2":"","admin1_code":"08","admin2_code":"","admin3_code":"","admin4_code":"","population":"0","elevation":"","dem":"29","timezone":"Asia/Jakarta","modification_date":"2012-09-08"},{"geonameid":"8382019","name":"Sedeoen","asciiname":"Sedeoen","alternatenames":"Sedeoen","latitude":"-10.87926","longitude":"122.83022","feature_class":"P","feature_code":"PPLA4","country_code":"ID","cc2":"","admin1_code":"18","admin2_code":"","admin3_code":"","admin4_code":"","population":"0","elevation":"","dem":"13","timezone":"Asia/Makassar","modification_date":"2012-09-08"},{"geonameid":"8382031","name":"Tunggaoen Timur","asciiname":"Tunggaoen Timur","alternatenames":"Tunggaoen Timur","latitude":"-10.9232","longitude":"122.8283","feature_class":"P","feature_code":"PPLA4","country_code":"ID","cc2":"","admin1_code":"18","admin2_code":"","admin3_code":"","admin4_code":"","population":"0","elevation":"","dem":"13","timezone":"Asia/Makassar","modification_date":"2012-09-08"},{"geonameid":"8382034","name":"Oemau","asciiname":"Oemau","alternatenames":"Oemau","latitude":"-10.934","longitude":"122.8482","feature_class":"P","feature_code":"PPLA4","country_code":"ID","cc2":"","admin1_code":"18","admin2_code":"","admin3_code":"","admin4_code":"","population":"0","elevation":"","dem":"12","timezone":"Asia/Makassar","modification_date":"2012-09-08"},{"geonameid":"8382087","name":"Leteki","asciiname":"Leteki","alternatenames":"Leteki","latitude":"-10.8996","longitude":"122.9017","feature_class":"P","feature_code":"PPLA4","country_code":"ID","cc2":"","admin1_code":"18","admin2_code":"","admin3_code":"","admin4_code":"","population":"0","elevation":"","dem":"72","timezone":"Asia/Makassar","modification_date":"2012-09-08"},{"geonameid":"8382090","name":"Oebou","asciiname":"Oebou","alternatenames":"Oebou","latitude":"-10.8986","longitude":"122.9426","feature_class":"P","feature_code":"PPLA4","country_code":"ID","cc2":"","admin1_code":"18","admin2_code":"","admin3_code":"","admin4_code":"","population":"0","elevation":"","dem":"40","timezone":"Asia/Makassar","modification_date":"2012-09-08"},{"geonameid":"8382172","name":"Oelaba","asciiname":"Oelaba","alternatenames":"Oelaba","latitude":"-10.754","longitude":"122.9123","feature_class":"P","feature_code":"PPLA4","country_code":"ID","cc2":"","admin1_code":"18","admin2_code":"","admin3_code":"","admin4_code":"","population":"0","elevation":"","dem":"9","timezone":"Asia/Makassar","modification_date":"2012-09-08"},{"geonameid":"8382194","name":"Netenain","asciiname":"Netenain","alternatenames":"Netenain","latitude":"-10.765","longitude":"122.9564","feature_class":"P","feature_code":"PPLA4","country_code":"ID","cc2":"","admin1_code":"18","admin2_code":"","admin3_code":"","admin4_code":"","population":"0","elevation":"","dem":"88","timezone":"Asia/Makassar","modification_date":"2012-09-08"},{"geonameid":"8382206","name":"Oetutulul","asciiname":"Oetutulul","alternatenames":"Oetutulul","latitude":"-10.7733","longitude":"122.9872","feature_class":"P","feature_code":"PPLA4","country_code":"ID","cc2":"","admin1_code":"18","admin2_code":"","admin3_code":"","admin4_code":"","population":"0","elevation":"","dem":"149","timezone":"Asia/Makassar","modification_date":"2012-09-08"},{"geonameid":"8382215","name":"Oebaffok Satu","asciiname":"Oebaffok Satu","alternatenames":"Oebaffok Satu","latitude":"-10.8144","longitude":"122.9828","feature_class":"P","feature_code":"PPLA4","country_code":"ID","cc2":"","admin1_code":"18","admin2_code":"","admin3_code":"","admin4_code":"","population":"0","elevation":"","dem":"111","timezone":"Asia/Makassar","modification_date":"2012-09-08"},{"geonameid":"8382220","name":"Modosinal","asciiname":"Modosinal","alternatenames":"Modosinal","latitude":"-10.7949","longitude":"122.9617","feature_class":"P","feature_code":"PPLA4","country_code":"ID","cc2":"","admin1_code":"18","admin2_code":"","admin3_code":"","admin4_code":"","population":"0","elevation":"","dem":"107","timezone":"Asia/Makassar","modification_date":"2012-09-08"},{"geonameid":"8382227","name":"Kotafeuk","asciiname":"Kotafeuk","alternatenames":"Kotafeuk","latitude":"-10.7862","longitude":"122.9496","feature_class":"P","feature_code":"PPLA4","country_code":"ID","cc2":"","admin1_code":"18","admin2_code":"","admin3_code":"","admin4_code":"","population":"0","elevation":"","dem":"116","timezone":"Asia/Makassar","modification_date":"2012-09-08"},{"geonameid":"8382229","name":"Faeanak Dua","asciiname":"Faeanak Dua","alternatenames":"Faeanak Dua","latitude":"-10.7964","longitude":"122.9437","feature_class":"P","feature_code":"PPLA4","country_code":"ID","cc2":"","admin1_code":"18","admin2_code":"","admin3_code":"","admin4_code":"","population":"0","elevation":"","dem":"94","timezone":"Asia/Makassar","modification_date":"2012-09-08"},{"geonameid":"8382252","name":"Lidor","asciiname":"Lidor","alternatenames":"Lidor","latitude":"-10.8454","longitude":"122.915","feature_class":"P","feature_code":"PPLA4","country_code":"ID","cc2":"","admin1_code":"18","admin2_code":"","admin3_code":"","admin4_code":"","population":"0","elevation":"","dem":"88","timezone":"Asia/Makassar","modification_date":"2012-09-08"},{"geonameid":"8382264","name":"Lalukoen Dua","asciiname":"Lalukoen Dua","alternatenames":"Lalukoen Dua","latitude":"-10.8632","longitude":"122.9266","feature_class":"P","feature_code":"PPLA4","country_code":"ID","cc2":"","admin1_code":"18","admin2_code":"","admin3_code":"","admin4_code":"","population":"0","elevation":"","dem":"81","timezone":"Asia/Makassar","modification_date":"2012-09-08"},{"geonameid":"8382274","name":"Oehandi Utara","asciiname":"Oehandi Utara","alternatenames":"Oehandi Utara","latitude":"-10.8521","longitude":"122.9543","feature_class":"P","feature_code":"PPLA4","country_code":"ID","cc2":"","admin1_code":"18","admin2_code":"","admin3_code":"","admin4_code":"","population":"0","elevation":"","dem":"73","timezone":"Asia/Makassar","modification_date":"2012-09-08"},{"geonameid":"8382277","name":"Roioen","asciiname":"Roioen","alternatenames":"Roioen","latitude":"-10.8439","longitude":"122.9526","feature_class":"P","feature_code":"PPLA4","country_code":"ID","cc2":"","admin1_code":"18","admin2_code":"","admin3_code":"","admin4_code":"","population":"0","elevation":"","dem":"109","timezone":"Asia/Makassar","modification_date":"2012-09-08"},{"geonameid":"8382305","name":"Inggudale","asciiname":"Inggudale","alternatenames":"Inggudale","latitude":"-10.8491","longitude":"122.9991","feature_class":"P","feature_code":"PPLA4","country_code":"ID","cc2":"","admin1_code":"18","admin2_code":"","admin3_code":"","admin4_code":"","population":"0","elevation":"","dem":"33","timezone":"Asia/Makassar","modification_date":"2012-09-08"},{"geonameid":"8382324","name":"Batutua","asciiname":"Batutua","alternatenames":"Batutua","latitude":"-10.8593","longitude":"122.9843","feature_class":"P","feature_code":"PPLA3","country_code":"ID","cc2":"","admin1_code":"18","admin2_code":"","admin3_code":"","admin4_code":"","population":"0","elevation":"","dem":"19","timezone":"Asia/Makassar","modification_date":"2012-09-08"},{"geonameid":"8382325","name":"Batutua Satu","asciiname":"Batutua Satu","alternatenames":"Batutua Satu","latitude":"-10.8609","longitude":"122.9831","feature_class":"P","feature_code":"PPLA4","country_code":"ID","cc2":"","admin1_code":"18","admin2_code":"","admin3_code":"","admin4_code":"","population":"0","elevation":"","dem":"14","timezone":"Asia/Makassar","modification_date":"2012-09-08"},{"geonameid":"8382366","name":"Talambung Laok","asciiname":"Talambung Laok","alternatenames":"Talambung Laok","latitude":"-7.0395","longitude":"113.69823","feature_class":"P","feature_code":"PPLA4","country_code":"ID","cc2":"","admin1_code":"08","admin2_code":"","admin3_code":"","admin4_code":"","population":"0","elevation":"","dem":"87","timezone":"Asia/Jakarta","modification_date":"2012-09-08"},{"geonameid":"8382477","name":"Oemaulain","asciiname":"Oemaulain","alternatenames":"Oemaulain","latitude":"-10.7525","longitude":"123.033","feature_class":"P","feature_code":"PPLA4","country_code":"ID","cc2":"","admin1_code":"18","admin2_code":"","admin3_code":"","admin4_code":"","population":"0","elevation":"","dem":"80","timezone":"Asia/Makassar","modification_date":"2012-09-08"},{"geonameid":"8382492","name":"Deranitan","asciiname":"Deranitan","alternatenames":"Deranitan","latitude":"-10.8614","longitude":"123.0124","feature_class":"P","feature_code":"PPLA4","country_code":"ID","cc2":"","admin1_code":"18","admin2_code":"","admin3_code":"","admin4_code":"","population":"0","elevation":"","dem":"17","timezone":"Asia/Makassar","modification_date":"2012-09-08"},{"geonameid":"8382520","name":"Laes","asciiname":"Laes","alternatenames":"Laes","latitude":"-10.8433","longitude":"123.0275","feature_class":"P","feature_code":"PPLA4","country_code":"ID","cc2":"","admin1_code":"18","admin2_code":"","admin3_code":"","admin4_code":"","population":"0","elevation":"","dem":"56","timezone":"Asia/Makassar","modification_date":"2012-09-08"},{"geonameid":"8382526","name":"Gayabaru","asciiname":"Gayabaru","alternatenames":"Gayabaru","latitude":"-10.8435","longitude":"123.0579","feature_class":"P","feature_code":"PPLA4","country_code":"ID","cc2":"","admin1_code":"18","admin2_code":"","admin3_code":"","admin4_code":"","population":"0","elevation":"","dem":"20","timezone":"Asia/Makassar","modification_date":"2012-09-08"},{"geonameid":"8382542","name":"Nggalai Barat","asciiname":"Nggalai Barat","alternatenames":"Nggalai Barat","latitude":"-10.8293","longitude":"123.0201","feature_class":"P","feature_code":"PPLA4","country_code":"ID","cc2":"","admin1_code":"18","admin2_code":"","admin3_code":"","admin4_code":"","population":"0","elevation":"","dem":"125","timezone":"Asia/Makassar","modification_date":"2012-09-08"},{"geonameid":"8382559","name":"Oebatu","asciiname":"Oebatu","alternatenames":"Oebatu","latitude":"-10.8142","longitude":"123.0128","feature_class":"P","feature_code":"PPLA4","country_code":"ID","cc2":"","admin1_code":"18","admin2_code":"","admin3_code":"","admin4_code":"","population":"0","elevation":"","dem":"142","timezone":"Asia/Makassar","modification_date":"2012-09-08"},{"geonameid":"8382562","name":"Souktuanan","asciiname":"Souktuanan","alternatenames":"Souktuanan","latitude":"-10.8162","longitude":"123.083","feature_class":"P","feature_code":"PPLA4","country_code":"ID","cc2":"","admin1_code":"18","admin2_code":"","admin3_code":"","admin4_code":"","population":"0","elevation":"","dem":"177","timezone":"Asia/Makassar","modification_date":"2012-09-08"},{"geonameid":"8382573","name":"Busalangga","asciiname":"Busalangga","alternatenames":"Busalangga","latitude":"-10.804","longitude":"123.0035","feature_class":"P","feature_code":"PPLA3","country_code":"ID","cc2":"","admin1_code":"18","admin2_code":"","admin3_code":"","admin4_code":"","population":"0","elevation":"","dem":"136","timezone":"Asia/Makassar","modification_date":"2012-09-08"},{"geonameid":"8382614","name":"Lekik","asciiname":"Lekik","alternatenames":"Lekik","latitude":"-10.7726","longitude":"123.1001","feature_class":"P","feature_code":"PPLA4","country_code":"ID","cc2":"","admin1_code":"18","admin2_code":"","admin3_code":"","admin4_code":"","population":"0","elevation":"","dem":"168","timezone":"Asia/Makassar","modification_date":"2012-09-08"},{"geonameid":"8382621","name":"Asamboka","asciiname":"Asamboka","alternatenames":"Asamboka","latitude":"-10.7731","longitude":"123.0326","feature_class":"P","feature_code":"PPLA4","country_code":"ID","cc2":"","admin1_code":"18","admin2_code":"","admin3_code":"","admin4_code":"","population":"0","elevation":"","dem":"129","timezone":"Asia/Makassar","modification_date":"2012-09-08"},{"geonameid":"8382634","name":"Sanggaoen","asciiname":"Sanggaoen","alternatenames":"Sanggaoen","latitude":"-10.766","longitude":"123.0437","feature_class":"P","feature_code":"PPLA4","country_code":"ID","cc2":"","admin1_code":"18","admin2_code":"","admin3_code":"","admin4_code":"","population":"0","elevation":"","dem":"128","timezone":"Asia/Makassar","modification_date":"2012-09-08"},{"geonameid":"8382756","name":"Potikosin","asciiname":"Potikosin","alternatenames":"Potikosin","latitude":"-10.7246","longitude":"123.0979","feature_class":"P","feature_code":"PPLA4","country_code":"ID","cc2":"","admin1_code":"18","admin2_code":"","admin3_code":"","admin4_code":"","population":"0","elevation":"","dem":"147","timezone":"Asia/Makassar","modification_date":"2012-09-08"},{"geonameid":"8382778","name":"Oelunggu Satu","asciiname":"Oelunggu Satu","alternatenames":"Oelunggu Satu","latitude":"-10.7298","longitude":"123.0664","feature_class":"P","feature_code":"PPLA4","country_code":"ID","cc2":"","admin1_code":"18","admin2_code":"","admin3_code":"","admin4_code":"","population":"0","elevation":"","dem":"138","timezone":"Asia/Makassar","modification_date":"2012-09-08"},{"geonameid":"8382793","name":"Alukama","asciiname":"Alukama","alternatenames":"Alukama","latitude":"-10.7432","longitude":"123.0464","feature_class":"P","feature_code":"PPLA4","country_code":"ID","cc2":"","admin1_code":"18","admin2_code":"","admin3_code":"","admin4_code":"","population":"0","elevation":"","dem":"86","timezone":"Asia/Makassar","modification_date":"2012-09-08"},{"geonameid":"8382804","name":"Likioen","asciiname":"Likioen","alternatenames":"Likioen","latitude":"-10.7484","longitude":"123.0446","feature_class":"P","feature_code":"PPLA3","country_code":"ID","cc2":"","admin1_code":"18","admin2_code":"","admin3_code":"","admin4_code":"","population":"0","elevation":"","dem":"98","timezone":"Asia/Makassar","modification_date":"2012-09-08"},{"geonameid":"8383723","name":"Sukarame","asciiname":"Sukarame","alternatenames":"Sukarame","latitude":"-7.217","longitude":"113.7718","feature_class":"P","feature_code":"PPLA4","country_code":"ID","cc2":"","admin1_code":"08","admin2_code":"","admin3_code":"","admin4_code":"","population":"0","elevation":"","dem":"21","timezone":"Asia/Jakarta","modification_date":"2012-09-08"},{"geonameid":"8383726","name":"Kalangmangga","asciiname":"Kalangmangga","alternatenames":"Kalangmangga","latitude":"-7.2252","longitude":"113.7822","feature_class":"P","feature_code":"PPLA4","country_code":"ID","cc2":"","admin1_code":"08","admin2_code":"","admin3_code":"","admin4_code":"","population":"0","elevation":"","dem":"28","timezone":"Asia/Jakarta","modification_date":"2012-09-08"},{"geonameid":"8383728","name":"Taman","asciiname":"Taman","alternatenames":"Taman","latitude":"-7.2252","longitude":"113.7974","feature_class":"P","feature_code":"PPLA4","country_code":"ID","cc2":"","admin1_code":"08","admin2_code":"","admin3_code":"","admin4_code":"","population":"0","elevation":"","dem":"13","timezone":"Asia/Jakarta","modification_date":"2012-09-08"},{"geonameid":"8383735","name":"Lobuk","asciiname":"Lobuk","alternatenames":"Lobuk","latitude":"-7.1289","longitude":"113.8187","feature_class":"P","feature_code":"PPLA4","country_code":"ID","cc2":"","admin1_code":"08","admin2_code":"","admin3_code":"","admin4_code":"","population":"0","elevation":"","dem":"20","timezone":"Asia/Jakarta","modification_date":"2012-09-08"},{"geonameid":"8383741","name":"Pagarbatu","asciiname":"Pagarbatu","alternatenames":"Pagarbatu","latitude":"-7.1328","longitude":"113.8614","feature_class":"P","feature_code":"PPLA4","country_code":"ID","cc2":"","admin1_code":"08","admin2_code":"","admin3_code":"","admin4_code":"","population":"0","elevation":"","dem":"16","timezone":"Asia/Jakarta","modification_date":"2012-09-08"},{"geonameid":"8383921","name":"Nggenamadale","asciiname":"Nggenamadale","alternatenames":"Nggenamadale","latitude":"-10.7614","longitude":"123.1966","feature_class":"P","feature_code":"PPLA4","country_code":"ID","cc2":"","admin1_code":"18","admin2_code":"","admin3_code":"","admin4_code":"","population":"0","elevation":"","dem":"359","timezone":"Asia/Makassar","modification_date":"2012-09-08"},{"geonameid":"8383960","name":"Oele","asciiname":"Oele","alternatenames":"Oele","latitude":"-10.7852","longitude":"123.1593","feature_class":"P","feature_code":"PPLA4","country_code":"ID","cc2":"","admin1_code":"18","admin2_code":"","admin3_code":"","admin4_code":"","population":"0","elevation":"","dem":"266","timezone":"Asia/Makassar","modification_date":"2012-09-08"},{"geonameid":"8383978","name":"Folaoen Satu","asciiname":"Folaoen Satu","alternatenames":"Folaoen Satu","latitude":"-10.7972","longitude":"123.225","feature_class":"P","feature_code":"PPLA4","country_code":"ID","cc2":"","admin1_code":"18","admin2_code":"","admin3_code":"","admin4_code":"","population":"0","elevation":"","dem":"30","timezone":"Asia/Makassar","modification_date":"2012-09-08"},{"geonameid":"8383983","name":"Kolobolon","asciiname":"Kolobolon","alternatenames":"Kolobolon","latitude":"-10.8026","longitude":"123.135","feature_class":"P","feature_code":"PPLA4","country_code":"ID","cc2":"","admin1_code":"18","admin2_code":"","admin3_code":"","admin4_code":"","population":"0","elevation":"","dem":"160","timezone":"Asia/Makassar","modification_date":"2012-09-08"},{"geonameid":"8384098","name":"Kolla","asciiname":"Kolla","alternatenames":"Kolla","latitude":"-10.6579","longitude":"123.1579","feature_class":"P","feature_code":"PPLA4","country_code":"ID","cc2":"","admin1_code":"18","admin2_code":"","admin3_code":"","admin4_code":"","population":"0","elevation":"","dem":"12","timezone":"Asia/Makassar","modification_date":"2012-09-08"},{"geonameid":"8384104","name":"Momanalu","asciiname":"Momanalu","alternatenames":"Momanalu","latitude":"-10.6631","longitude":"123.1415","feature_class":"P","feature_code":"PPLA3","country_code":"ID","cc2":"","admin1_code":"18","admin2_code":"","admin3_code":"","admin4_code":"","population":"0","elevation":"","dem":"30","timezone":"Asia/Makassar","modification_date":"2012-09-08"},{"geonameid":"8384138","name":"Nitanggoeng","asciiname":"Nitanggoeng","alternatenames":"Nitanggoeng","latitude":"-10.7127","longitude":"123.1642","feature_class":"P","feature_code":"PPLA4","country_code":"ID","cc2":"","admin1_code":"18","admin2_code":"","admin3_code":"","admin4_code":"","population":"0","elevation":"","dem":"211","timezone":"Asia/Makassar","modification_date":"2012-09-08"},