{"nextFile":"cities.121.json","rows":[{"geonameid":"2020013","name":"Mikhaylovka","asciiname":"Mikhaylovka","alternatenames":"Mikhailovka,Mikhajlovka,Mikhaylovka,Mikhaylovskoye,Михайловка","latitude":"43.93283","longitude":"132.00911","feature_class":"P","feature_code":"PPL","country_code":"RU","cc2":"","admin1_code":"59","admin2_code":"","admin3_code":"","admin4_code":"","population":"9300","elevation":"","dem":"40","timezone":"Asia/Vladivostok","modification_date":"2012-10-06"},{"geonameid":"2020095","name":"Meget","asciiname":"Meget","alternatenames":"Meget,Мегет","latitude":"52.415","longitude":"104.04944","feature_class":"P","feature_code":"PPL","country_code":"RU","cc2":"","admin1_code":"20","admin2_code":"","admin3_code":"","admin4_code":"","population":"8370","elevation":"","dem":"433","timezone":"Asia/Irkutsk","modification_date":"2012-01-17"},{"geonameid":"2020121","name":"Mayya","asciiname":"Mayya","alternatenames":"Maja,Majja,Maya,Mayya,Майя","latitude":"61.73824","longitude":"130.28161","feature_class":"P","feature_code":"PPL","country_code":"RU","cc2":"","admin1_code":"63","admin2_code":"","admin3_code":"","admin4_code":"","population":"6794","elevation":"","dem":"148","timezone":"Asia/Yakutsk","modification_date":"2012-10-06"},{"geonameid":"2020208","name":"Markovo","asciiname":"Markovo","alternatenames":"Markova,Markovo,Markovskoye,Марково","latitude":"57.32056","longitude":"107.08806","feature_class":"P","feature_code":"PPL","country_code":"RU","cc2":"","admin1_code":"20","admin2_code":"","admin3_code":"","admin4_code":"","population":"6340","elevation":"","dem":"315","timezone":"Asia/Irkutsk","modification_date":"2013-08-07"},{"geonameid":"2020221","name":"Markha","asciiname":"Markha","alternatenames":"Bol'shaya Markha,Bol’shaya Markha,Markha,Марха","latitude":"62.11454","longitude":"129.74403","feature_class":"P","feature_code":"PPL","country_code":"RU","cc2":"","admin1_code":"63","admin2_code":"","admin3_code":"","admin4_code":"","population":"11648","elevation":"","dem":"99","timezone":"Asia/Yakutsk","modification_date":"2012-10-06"},{"geonameid":"2020271","name":"Manzurka","asciiname":"Manzurka","alternatenames":"Manzurka,Манзурка","latitude":"53.48556","longitude":"106.05444","feature_class":"P","feature_code":"PPL","country_code":"RU","cc2":"","admin1_code":"20","admin2_code":"","admin3_code":"","admin4_code":"","population":"1004","elevation":"","dem":"593","timezone":"Asia/Irkutsk","modification_date":"2014-08-21"},{"geonameid":"2020311","name":"Mamakan","asciiname":"Mamakan","alternatenames":"Mamakan,Мамакан","latitude":"57.81611","longitude":"114.00278","feature_class":"P","feature_code":"PPL","country_code":"RU","cc2":"","admin1_code":"20","admin2_code":"","admin3_code":"","admin4_code":"","population":"2229","elevation":"","dem":"251","timezone":"Asia/Irkutsk","modification_date":"2012-01-17"},{"geonameid":"2020313","name":"Mama","asciiname":"Mama","alternatenames":"Mama,Мама","latitude":"58.31056","longitude":"112.89861","feature_class":"P","feature_code":"PPL","country_code":"RU","cc2":"","admin1_code":"20","admin2_code":"","admin3_code":"","admin4_code":"","population":"4239","elevation":"","dem":"220","timezone":"Asia/Irkutsk","modification_date":"2012-01-17"},{"geonameid":"2020559","name":"Makkaveyevo","asciiname":"Makkaveyevo","alternatenames":"Makaveyevo,Makkaveevo,Makkavejevo,Makkaveyevo,Makkaveyeyskiy,Makoveyevo,Маккавеево","latitude":"51.75325","longitude":"113.9454","feature_class":"P","feature_code":"PPL","country_code":"RU","cc2":"","admin1_code":"93","admin2_code":"","admin3_code":"","admin4_code":"","population":"3922","elevation":"","dem":"615","timezone":"Asia/Yakutsk","modification_date":"2012-01-17"},{"geonameid":"2020584","name":"Magistral’nyy","asciiname":"Magistral'nyy","alternatenames":"Magistral'nyj,Magistral'nyy,Magistralnyj,Magistral’nyy,Магистральный","latitude":"56.17148","longitude":"107.44166","feature_class":"P","feature_code":"PPL","country_code":"RU","cc2":"","admin1_code":"20","admin2_code":"","admin3_code":"","admin4_code":"","population":"7638","elevation":"","dem":"428","timezone":"Asia/Irkutsk","modification_date":"2012-11-08"},{"geonameid":"2020591","name":"Magdagachi","asciiname":"Magdagachi","alternatenames":"GDG,Magadagachi,Magdagachi,Magdagaci,Magdagatschi,Magdagatsji,Magdagatxi,Magdagači,Магдагачи,Մագդագաչի","latitude":"53.45398","longitude":"125.80932","feature_class":"P","feature_code":"PPL","country_code":"RU","cc2":"","admin1_code":"05","admin2_code":"","admin3_code":"","admin4_code":"","population":"11739","elevation":"","dem":"356","timezone":"Asia/Yakutsk","modification_date":"2012-09-05"},{"geonameid":"2020595","name":"Magan","asciiname":"Magan","alternatenames":"GYG,Magan,Маган","latitude":"62.10746","longitude":"129.53184","feature_class":"P","feature_code":"PPL","country_code":"RU","cc2":"","admin1_code":"63","admin2_code":"Yakutsk (undefined)","admin3_code":"","admin4_code":"","population":"1686","elevation":"","dem":"204","timezone":"Asia/Yakutsk","modification_date":"2013-09-21"},{"geonameid":"2020626","name":"Sergeyevka","asciiname":"Sergeyevka","alternatenames":"Lyublino,Sergeevka,Sergeyevka,Sergievskij,Sergiyevskiy,Сергеевка,Сергиевский","latitude":"44.3381","longitude":"131.66129","feature_class":"P","feature_code":"PPL","country_code":"RU","cc2":"","admin1_code":"59","admin2_code":"","admin3_code":"","admin4_code":"","population":"3760","elevation":"","dem":"140","timezone":"Asia/Vladivostok","modification_date":"2012-10-06"},{"geonameid":"2020644","name":"Lyalichi","asciiname":"Lyalichi","alternatenames":"Lalichi,Ljalichi,Ljalitsji,Lyalichi,Pavlovka,Ляличи","latitude":"44.07352","longitude":"132.38991","feature_class":"P","feature_code":"PPL","country_code":"RU","cc2":"","admin1_code":"59","admin2_code":"","admin3_code":"","admin4_code":"","population":"1300","elevation":"","dem":"88","timezone":"Asia/Vladivostok","modification_date":"2012-10-06"},{"geonameid":"2020687","name":"Luchki","asciiname":"Luchki","alternatenames":"Luchki,Lutsjki,Лучки","latitude":"44.28613","longitude":"132.25975","feature_class":"P","feature_code":"PPL","country_code":"RU","cc2":"","admin1_code":"59","admin2_code":"","admin3_code":"","admin4_code":"","population":"1131","elevation":"","dem":"89","timezone":"Asia/Vladivostok","modification_date":"2012-10-06"},{"geonameid":"2020689","name":"Luchegorsk","asciiname":"Luchegorsk","alternatenames":"Lucegorsk,Luchegors'k,Luchegorsk,Lutschegorsk,Lutsjegorsk,Lučegorsk,lu qie ge er si ke,Лучегорск,Лучегорськ,盧切戈爾斯克","latitude":"46.47656","longitude":"134.19532","feature_class":"P","feature_code":"PPL","country_code":"RU","cc2":"","admin1_code":"59","admin2_code":"","admin3_code":"","admin4_code":"","population":"21833","elevation":"","dem":"77","timezone":"Asia/Vladivostok","modification_date":"2012-09-05"},{"geonameid":"2020707","name":"Londoko","asciiname":"Londoko","alternatenames":"Landoko,Londoko,Londoko-Kamenushka,Лондоко","latitude":"49.01805","longitude":"131.99142","feature_class":"P","feature_code":"PPL","country_code":"RU","cc2":"","admin1_code":"89","admin2_code":"","admin3_code":"","admin4_code":"","population":"1298","elevation":"","dem":"207","timezone":"Asia/Vladivostok","modification_date":"2012-10-06"},{"geonameid":"2020734","name":"Livadiya","asciiname":"Livadiya","alternatenames":"Livadia,Livadija,Livadiya,Ливадия","latitude":"42.8682","longitude":"132.67367","feature_class":"P","feature_code":"PPL","country_code":"RU","cc2":"","admin1_code":"59","admin2_code":"","admin3_code":"","admin4_code":"","population":"12652","elevation":"","dem":"14","timezone":"Asia/Vladivostok","modification_date":"2012-10-06"},{"geonameid":"2020738","name":"Litovko","asciiname":"Litovko","alternatenames":"Litovko,Литовко","latitude":"49.23754","longitude":"135.17401","feature_class":"P","feature_code":"PPL","country_code":"RU","cc2":"","admin1_code":"30","admin2_code":"","admin3_code":"","admin4_code":"","population":"2670","elevation":"","dem":"71","timezone":"Asia/Vladivostok","modification_date":"2012-10-06"},{"geonameid":"2020744","name":"Listvyanka","asciiname":"Listvyanka","alternatenames":"Listrinichnoye,Listvenichnoye,Listvinichnoye,Listvjanka,Listvyanka,Листвянка","latitude":"51.8535","longitude":"104.8693","feature_class":"P","feature_code":"PPL","country_code":"RU","cc2":"","admin1_code":"20","admin2_code":"2023464","admin3_code":"","admin4_code":"","population":"1700","elevation":"","dem":"554","timezone":"Asia/Irkutsk","modification_date":"2013-01-25"},{"geonameid":"2020752","name":"Lipovtsy","asciiname":"Lipovtsy","alternatenames":"Krasnopol'ye,Krasnopol’ye,Lipovcy,Lipovtsi,Lipovtsky,Lipovtsy,Липовцы","latitude":"44.20018","longitude":"131.72373","feature_class":"P","feature_code":"PPL","country_code":"RU","cc2":"","admin1_code":"59","admin2_code":"","admin3_code":"","admin4_code":"","population":"6581","elevation":"","dem":"160","timezone":"Asia/Vladivostok","modification_date":"2012-10-06"},{"geonameid":"2020812","name":"Lesozavodsk","asciiname":"Lesozavodsk","alternatenames":"Gorad Lesazavodsk,Lesozavodsk,Lesozawodzk,Lesozayodsk,Lessosawodsk,Lessozavodsk,Leszozavodszk,Lisozavods'k,Ljesozavodsk,Ussuri,lesojabocheukeu,lie suo zha wo ci ke,lswzafwdsk,lswzawdsk,lyswzaww,resozavu~otsuku,Љесозаводск,Горад Лесазаводск,Лесозаводск,Лісозаводськ,لسوزافودسك,لسوزاودسک,لیسوزاوو,レソザヴォーツク,列索扎沃茨克,레소자보츠크","latitude":"45.47885","longitude":"133.42825","feature_class":"P","feature_code":"PPL","country_code":"RU","cc2":"","admin1_code":"59","admin2_code":"","admin3_code":"","admin4_code":"","population":"41778","elevation":"","dem":"70","timezone":"Asia/Vladivostok","modification_date":"2012-10-06"},{"geonameid":"2020824","name":"Lermontovka","asciiname":"Lermontovka","alternatenames":"Lermontovka,Лермонтовка","latitude":"47.14795","longitude":"134.33477","feature_class":"P","feature_code":"PPL","country_code":"RU","cc2":"","admin1_code":"30","admin2_code":"","admin3_code":"","admin4_code":"","population":"4479","elevation":"","dem":"81","timezone":"Asia/Vladivostok","modification_date":"2012-10-06"},{"geonameid":"2020838","name":"Lensk","asciiname":"Lensk","alternatenames":"Gorad Lensk,Lens'k,Lensk,Lenska,Lenskas,Lenskej,Lensko,Liehnskehj,Mukhtuya,ULK,lenseukeu,lian si ke,lnsk,lnsq,lynsk,rensuku,Ļenska,Горад Ленск,Ленск,Ленскей,Ленськ,Лиэнскэй,לנסק,لنسک,لينسك,لینسک,レンスク,连斯克,렌스크","latitude":"60.72528","longitude":"114.92778","feature_class":"P","feature_code":"PPL","country_code":"RU","cc2":"","admin1_code":"63","admin2_code":"","admin3_code":"","admin4_code":"","population":"23694","elevation":"","dem":"197","timezone":"Asia/Yakutsk","modification_date":"2013-04-21"},{"geonameid":"2020841","name":"Leninskoye","asciiname":"Leninskoye","alternatenames":"Blyukherovo,Leninskoe,Leninskoye,Mikhailo-Semenovskoye,Mikhaylo-Semenovskoye,Ленинское","latitude":"47.93501","longitude":"132.62025","feature_class":"P","feature_code":"PPL","country_code":"RU","cc2":"","admin1_code":"89","admin2_code":"","admin3_code":"","admin4_code":"","population":"6827","elevation":"","dem":"55","timezone":"Asia/Vladivostok","modification_date":"2014-04-23"},{"geonameid":"2020848","name":"Leninskiy","asciiname":"Leninskiy","alternatenames":"Leninskij,Leninskiy,Nizhne-Stalinsk,Nizhniy Stalinskiy,Ленинский","latitude":"58.57141","longitude":"125.43918","feature_class":"P","feature_code":"PPL","country_code":"RU","cc2":"","admin1_code":"63","admin2_code":"","admin3_code":"","admin4_code":"","population":"2043","elevation":"","dem":"611","timezone":"Asia/Yakutsk","modification_date":"2012-10-06"},{"geonameid":"2020871","name":"Lebedinyy","asciiname":"Lebedinyy","alternatenames":"Lebedinyj,Lebedinyy,Verkhne-Stalinsk,Verkhniy Stalinskiy,Лебединый","latitude":"58.48844","longitude":"125.49415","feature_class":"P","feature_code":"PPL","country_code":"RU","cc2":"","admin1_code":"63","admin2_code":"","admin3_code":"","admin4_code":"","population":"1213","elevation":"","dem":"810","timezone":"Asia/Yakutsk","modification_date":"2012-10-06"},{"geonameid":"2020887","name":"Lazo","asciiname":"Lazo","alternatenames":"Lazo,Лазо","latitude":"45.87052","longitude":"133.65021","feature_class":"P","feature_code":"PPL","country_code":"RU","cc2":"","admin1_code":"59","admin2_code":"","admin3_code":"","admin4_code":"","population":"3240","elevation":"","dem":"72","timezone":"Asia/Vladivostok","modification_date":"2012-09-05"},{"geonameid":"2020888","name":"Lazo","asciiname":"Lazo","alternatenames":"Lazo,Vangou,Лазо","latitude":"43.38563","longitude":"133.9061","feature_class":"P","feature_code":"PPL","country_code":"RU","cc2":"","admin1_code":"59","admin2_code":"","admin3_code":"","admin4_code":"","population":"3551","elevation":"","dem":"236","timezone":"Asia/Vladivostok","modification_date":"2012-10-06"},{"geonameid":"2021017","name":"Kysyl-Syr","asciiname":"Kysyl-Syr","alternatenames":"Kysyl-Syr,Кысыл-Сыр","latitude":"63.89482","longitude":"122.7654","feature_class":"P","feature_code":"PPL","country_code":"RU","cc2":"","admin1_code":"63","admin2_code":"","admin3_code":"","admin4_code":"","population":"3491","elevation":"","dem":"101","timezone":"Asia/Yakutsk","modification_date":"2012-10-06"},{"geonameid":"2021031","name":"Kyren","asciiname":"Kyren","alternatenames":"Koren,Kyren,Кырен","latitude":"51.6828","longitude":"102.1408","feature_class":"P","feature_code":"PPL","country_code":"RU","cc2":"","admin1_code":"11","admin2_code":"","admin3_code":"","admin4_code":"","population":"5334","elevation":"","dem":"751","timezone":"Asia/Irkutsk","modification_date":"2012-01-17"},{"geonameid":"2021041","name":"Kyra","asciiname":"Kyra","alternatenames":"Kora,Kyra,Кыра","latitude":"49.57903","longitude":"111.97638","feature_class":"P","feature_code":"PPL","country_code":"RU","cc2":"","admin1_code":"93","admin2_code":"","admin3_code":"","admin4_code":"","population":"4452","elevation":"","dem":"906","timezone":"Asia/Yakutsk","modification_date":"2013-01-10"},{"geonameid":"2021066","name":"Kyakhta","asciiname":"Kyakhta","alternatenames":"Kjakhta,Kyakhta,Troitskosavsk,Кяхта","latitude":"50.35737","longitude":"106.45033","feature_class":"P","feature_code":"PPL","country_code":"RU","cc2":"","admin1_code":"11","admin2_code":"","admin3_code":"","admin4_code":"","population":"18431","elevation":"","dem":"766","timezone":"Asia/Irkutsk","modification_date":"2012-09-05"},{"geonameid":"2021093","name":"Kuytun","asciiname":"Kuytun","alternatenames":"Khaikhta,Khaita,Kuitun,Kujtun,Kuytuk,Kuytun,Куйтун","latitude":"54.34241","longitude":"101.50917","feature_class":"P","feature_code":"PPL","country_code":"RU","cc2":"","admin1_code":"20","admin2_code":"","admin3_code":"","admin4_code":"","population":"10566","elevation":"","dem":"530","timezone":"Asia/Irkutsk","modification_date":"2013-01-10"},{"geonameid":"2021116","name":"Kutulik","asciiname":"Kutulik","alternatenames":"Kutulik,Kutulyk,Кутулик","latitude":"53.35083","longitude":"102.78389","feature_class":"P","feature_code":"PPL","country_code":"RU","cc2":"","admin1_code":"20","admin2_code":"","admin3_code":"","admin4_code":"","population":"5390","elevation":"","dem":"515","timezone":"Asia/Irkutsk","modification_date":"2012-01-17"},{"geonameid":"2021188","name":"Kurumkan","asciiname":"Kurumkan","alternatenames":"Kurumkan,Kurumken,Курумкан","latitude":"54.32093","longitude":"110.30651","feature_class":"P","feature_code":"PPL","country_code":"RU","cc2":"","admin1_code":"11","admin2_code":"","admin3_code":"","admin4_code":"","population":"5848","elevation":"","dem":"517","timezone":"Asia/Irkutsk","modification_date":"2013-11-01"},{"geonameid":"2021207","name":"Kurort-Darasun","asciiname":"Kurort-Darasun","alternatenames":"Darasun,Kurort Darasun,Kurort-Darasun,Курорт Дарасун,Курорт-Дарасун","latitude":"51.19905","longitude":"113.71599","feature_class":"P","feature_code":"PPL","country_code":"RU","cc2":"","admin1_code":"93","admin2_code":"","admin3_code":"","admin4_code":"","population":"3275","elevation":"","dem":"791","timezone":"Asia/Yakutsk","modification_date":"2014-06-27"},{"geonameid":"2021343","name":"Kultuk","asciiname":"Kultuk","alternatenames":"Kultuk,Zabaykalsk,Култук","latitude":"51.72083","longitude":"103.69556","feature_class":"P","feature_code":"PPL","country_code":"RU","cc2":"","admin1_code":"20","admin2_code":"","admin3_code":"","admin4_code":"","population":"4151","elevation":"","dem":"463","timezone":"Asia/Irkutsk","modification_date":"2012-01-17"},{"geonameid":"2021370","name":"Kul’dur","asciiname":"Kul'dur","alternatenames":"Kul'dur,Kuldur,Kul’dur,Kurort,Кульдур","latitude":"49.20465","longitude":"131.6384","feature_class":"P","feature_code":"PPL","country_code":"RU","cc2":"","admin1_code":"89","admin2_code":"","admin3_code":"","admin4_code":"","population":"1957","elevation":"","dem":"374","timezone":"Asia/Vladivostok","modification_date":"2012-10-06"},{"geonameid":"2021434","name":"Kudara-Somon","asciiname":"Kudara-Somon","alternatenames":"Kudara,Kudara-Somon,Кудара-Сомон","latitude":"50.15472","longitude":"107.40139","feature_class":"P","feature_code":"PPL","country_code":"RU","cc2":"RU","admin1_code":"11","admin2_code":"","admin3_code":"","admin4_code":"","population":"1475","elevation":"","dem":"747","timezone":"Asia/Irkutsk","modification_date":"2012-01-17"},{"geonameid":"2021504","name":"Kropotkin","asciiname":"Kropotkin","alternatenames":"Krapotkin,Kropotkin,Кропоткин","latitude":"58.50944","longitude":"115.32167","feature_class":"P","feature_code":"PPL","country_code":"RU","cc2":"","admin1_code":"20","admin2_code":"","admin3_code":"","admin4_code":"","population":"1765","elevation":"","dem":"794","timezone":"Asia/Irkutsk","modification_date":"2012-01-17"},{"geonameid":"2021613","name":"Krasnorechenskiy","asciiname":"Krasnorechenskiy","alternatenames":"Krasnorechenskij,Krasnorechenskiy,Krasnoretsjenskij,Краснореченский","latitude":"44.62807","longitude":"135.35262","feature_class":"P","feature_code":"PPL","country_code":"RU","cc2":"","admin1_code":"59","admin2_code":"","admin3_code":"","admin4_code":"","population":"3833","elevation":"","dem":"445","timezone":"Asia/Vladivostok","modification_date":"2012-10-06"},{"geonameid":"2021618","name":"Krasnokamensk","asciiname":"Krasnokamensk","alternatenames":"Chandacha,Chindachi,Chindachinskaya,Gorad Krasnakamensk,Krasnokamensk,Krasnokamenskas,Krasnokamiensk,Krasnokàmensk,ke la si nuo ka mian si ke,krasnwkamnsk,krasnwkamnsk  srzmyn zabaykalsky,Горад Краснакаменск,Краснокаменск,كراسنوكامنسك,کراسنوکامنسک,کراسنوکامنسک، سرزمین زابایکالسکی,克拉斯諾卡緬斯克","latitude":"50.0979","longitude":"118.0369","feature_class":"P","feature_code":"PPL","country_code":"RU","cc2":"","admin1_code":"93","admin2_code":"","admin3_code":"","admin4_code":"","population":"54316","elevation":"","dem":"642","timezone":"Asia/Yakutsk","modification_date":"2012-01-17"},{"geonameid":"2021644","name":"Kraskino","asciiname":"Kraskino","alternatenames":"Kraskino,Novo'kievsk,Novo-Kievsku,Novo-Kiyevskoye,Novokivsk,Novokiyevsk,Novo’kievsk,Краскино","latitude":"42.71071","longitude":"130.78126","feature_class":"P","feature_code":"PPL","country_code":"RU","cc2":"","admin1_code":"59","admin2_code":"","admin3_code":"","admin4_code":"","population":"3369","elevation":"","dem":"22","timezone":"Asia/Vladivostok","modification_date":"2012-09-05"},{"geonameid":"2021700","name":"Kotik","asciiname":"Kotik","alternatenames":"Kotik,Котик","latitude":"54.65057","longitude":"100.45395","feature_class":"P","feature_code":"PPL","country_code":"RU","cc2":"","admin1_code":"20","admin2_code":"","admin3_code":"","admin4_code":"","population":"1500","elevation":"","dem":"516","timezone":"Asia/Irkutsk","modification_date":"2013-09-07"},{"geonameid":"2021766","name":"Korfovskiy","asciiname":"Korfovskiy","alternatenames":"Korfovskij,Korfovskiy,Корфовский","latitude":"48.22259","longitude":"135.05966","feature_class":"P","feature_code":"PPL","country_code":"RU","cc2":"","admin1_code":"30","admin2_code":"","admin3_code":"","admin4_code":"","population":"5652","elevation":"","dem":"113","timezone":"Asia/Vladivostok","modification_date":"2012-10-06"},{"geonameid":"2021799","name":"Konstantinovka","asciiname":"Konstantinovka","alternatenames":"Konstantinovka,Konstantinovskoye,Константиновка","latitude":"49.61876","longitude":"127.99025","feature_class":"P","feature_code":"PPL","country_code":"RU","cc2":"","admin1_code":"05","admin2_code":"","admin3_code":"","admin4_code":"","population":"5702","elevation":"","dem":"121","timezone":"Asia/Yakutsk","modification_date":"2012-10-06"},{"geonameid":"2021851","name":"Komsomolsk-on-Amur","asciiname":"Komsomolsk-on-Amur","alternatenames":"KXK,Komsomol's'k-na-Amuri,Komsomol'sk,Komsomol'sk-na-Amure,Komsomolsk am Amur,Komsomolsk del Amur,Komsomolsk-na-Amure,Komsomolsk-on-Amur,Komsomolsk-sur-l'Amour,Komsomol’sk,Permskoye,a mu er he pan gong qing cheng,komsomolseukeunaamule,komusomorisuku・na・amure,Комсомольск-на-Амуре,Комсомольськ-на-Амурі,コムソモリスク・ナ・アムーレ,阿穆尔河畔共青城,콤소몰스크나아무레","latitude":"50.55034","longitude":"137.00995","feature_class":"P","feature_code":"PPLA2","country_code":"RU","cc2":"","admin1_code":"30","admin2_code":"","admin3_code":"","admin4_code":"","population":"275908","elevation":"","dem":"36","timezone":"Asia/Vladivostok","modification_date":"2013-10-05"},{"geonameid":"2021908","name":"Kokuy","asciiname":"Kokuy","alternatenames":"Kodui,Koduy,Kokuj,Kokur,Kokuy,Kokuyskaya,Nokuy,Poselok Kukuyskiy,Posëlok Kukuyskiy,Кокуй","latitude":"52.20634","longitude":"117.55412","feature_class":"P","feature_code":"PPL","country_code":"RU","cc2":"","admin1_code":"93","admin2_code":"","admin3_code":"","admin4_code":"","population":"7767","elevation":"","dem":"450","timezone":"Asia/Yakutsk","modification_date":"2013-01-10"},{"geonameid":"2021954","name":"Knyaze-Volkonskoye","asciiname":"Knyaze-Volkonskoye","alternatenames":"Knjaze-Volkonskoe,Knjaze-Volkonskoje,Knyaze-Volkonka,Knyaze-Volkonskoye,Князе-Волконское","latitude":"48.46547","longitude":"135.45582","feature_class":"P","feature_code":"PPL","country_code":"RU","cc2":"","admin1_code":"30","admin2_code":"","admin3_code":"","admin4_code":"","population":"8936","elevation":"","dem":"52","timezone":"Asia/Vladivostok","modification_date":"2012-10-06"},{"geonameid":"2021956","name":"Knevichi","asciiname":"Knevichi","alternatenames":"Knevichi,Knevitsji,Кневичи","latitude":"43.39975","longitude":"132.18808","feature_class":"P","feature_code":"PPL","country_code":"RU","cc2":"","admin1_code":"59","admin2_code":"","admin3_code":"","admin4_code":"","population":"4605","elevation":"","dem":"15","timezone":"Asia/Vladivostok","modification_date":"2012-10-06"},{"geonameid":"2021980","name":"Klyuchevskiy","asciiname":"Klyuchevskiy","alternatenames":"Kljuchevskij,Kljutsjevskij,Klyuchevskiy,Klyuchevskoy,Klyuchi,Ключевский","latitude":"53.5336","longitude":"119.45269","feature_class":"P","feature_code":"PPL","country_code":"RU","cc2":"","admin1_code":"93","admin2_code":"","admin3_code":"","admin4_code":"","population":"1621","elevation":"","dem":"717","timezone":"Asia/Yakutsk","modification_date":"2013-01-10"},{"geonameid":"2021992","name":"Klichka","asciiname":"Klichka","alternatenames":"Klichka,Klichki,Klitsjka,Кличка","latitude":"50.4457","longitude":"117.996","feature_class":"P","feature_code":"PPL","country_code":"RU","cc2":"","admin1_code":"93","admin2_code":"","admin3_code":"","admin4_code":"","population":"2514","elevation":"","dem":"751","timezone":"Asia/Yakutsk","modification_date":"2012-01-17"},{"geonameid":"2022003","name":"Kizhinga","asciiname":"Kizhinga","alternatenames":"Kizhinga,Kizjinga,Кижинга","latitude":"51.8476","longitude":"109.90795","feature_class":"P","feature_code":"PPL","country_code":"RU","cc2":"","admin1_code":"11","admin2_code":"","admin3_code":"","admin4_code":"","population":"6459","elevation":"","dem":"718","timezone":"Asia/Irkutsk","modification_date":"2013-01-10"},{"geonameid":"2022024","name":"Kitoy","asciiname":"Kitoy","alternatenames":"Kitoi,Kitoj,Kitoy,Китой","latitude":"52.6","longitude":"103.9","feature_class":"P","feature_code":"PPL","country_code":"RU","cc2":"","admin1_code":"20","admin2_code":"","admin3_code":"","admin4_code":"","population":"3953","elevation":"","dem":"422","timezone":"Asia/Irkutsk","modification_date":"2012-01-17"},{"geonameid":"2022064","name":"Kirovskiy","asciiname":"Kirovskiy","alternatenames":"Kirovskij,Kirovskiy,Uspenka,Uspenovka,Usupenka,Кировский","latitude":"45.09272","longitude":"133.50084","feature_class":"P","feature_code":"PPL","country_code":"RU","cc2":"","admin1_code":"59","admin2_code":"","admin3_code":"","admin4_code":"","population":"9467","elevation":"","dem":"104","timezone":"Asia/Vladivostok","modification_date":"2012-10-06"},{"geonameid":"2022083","name":"Kirensk","asciiname":"Kirensk","alternatenames":"Gorad Kirehnsk,KCK,Kirensk,Kirenskaj,Kirenszk,Kireńsk,Kírensk,ji lian si ke,kilenseukeu,kirensuku,kyrnsk,kyrynsk,Горад Кірэнск,Киренск,Киренскай,كيرينسك,کیرنسک,キレンスク,基廉斯克,키렌스크","latitude":"57.78528","longitude":"108.11194","feature_class":"P","feature_code":"PPL","country_code":"RU","cc2":"","admin1_code":"20","admin2_code":"","admin3_code":"","admin4_code":"","population":"13308","elevation":"","dem":"254","timezone":"Asia/Irkutsk","modification_date":"2012-05-13"},{"geonameid":"2022105","name":"Kimil’tey","asciiname":"Kimil'tey","alternatenames":"Kimil'tej,Kimil'tey,Kimiltei,Kimiltej,Kimil’tey,Кимильтей","latitude":"54.1337","longitude":"101.9811","feature_class":"P","feature_code":"PPL","country_code":"RU","cc2":"","admin1_code":"20","admin2_code":"","admin3_code":"","admin4_code":"","population":"1850","elevation":"","dem":"432","timezone":"Asia/Irkutsk","modification_date":"2013-08-08"},{"geonameid":"2022129","name":"Kichera","asciiname":"Kichera","alternatenames":"Kichera,Kitsjera,Кичера","latitude":"55.93874","longitude":"110.10122","feature_class":"P","feature_code":"PPL","country_code":"RU","cc2":"","admin1_code":"11","admin2_code":"","admin3_code":"","admin4_code":"","population":"1593","elevation":"","dem":"489","timezone":"Asia/Irkutsk","modification_date":"2012-09-05"},{"geonameid":"2022143","name":"Khuzhir","asciiname":"Khuzhir","alternatenames":"Khoujir,Khuzhir,Khuzhirtuy,Khuzhirtuyskiy,Mal.Khuzhir,Мал.Хужир,Хужир","latitude":"53.19389","longitude":"107.33972","feature_class":"P","feature_code":"PPL","country_code":"RU","cc2":"","admin1_code":"20","admin2_code":"","admin3_code":"","admin4_code":"","population":"1118","elevation":"","dem":"471","timezone":"Asia/Irkutsk","modification_date":"2015-01-19"},{"geonameid":"2022174","name":"Khurba","asciiname":"Khurba","alternatenames":"Khurba,Хурба","latitude":"50.40657","longitude":"136.88276","feature_class":"P","feature_code":"PPL","country_code":"RU","cc2":"","admin1_code":"30","admin2_code":"","admin3_code":"","admin4_code":"","population":"5537","elevation":"","dem":"45","timezone":"Asia/Vladivostok","modification_date":"2012-10-06"},{"geonameid":"2022232","name":"Khrebtovaya","asciiname":"Khrebtovaya","alternatenames":"Izbushechnaya,Khrebtovaja,Khrebtovaya,Verkhnyaya Khrebtovaya,Хребтовая","latitude":"56.7032","longitude":"104.2494","feature_class":"P","feature_code":"PPL","country_code":"RU","cc2":"","admin1_code":"20","admin2_code":"","admin3_code":"","admin4_code":"","population":"2017","elevation":"","dem":"579","timezone":"Asia/Irkutsk","modification_date":"2012-01-17"},{"geonameid":"2022289","name":"Khorol’","asciiname":"Khorol'","alternatenames":"Khoral,Khorel,Khorol,Khorol',Khorol'sk,Khorol'skaya,Khorol'sko,Khorol’,Khorol’sk,Khorol’skaya,Khorol’sko,Хороль","latitude":"44.42631","longitude":"132.07638","feature_class":"P","feature_code":"PPL","country_code":"RU","cc2":"","admin1_code":"59","admin2_code":"","admin3_code":"","admin4_code":"","population":"11245","elevation":"","dem":"110","timezone":"Asia/Vladivostok","modification_date":"2014-04-26"},{"geonameid":"2022304","name":"Khorinsk","asciiname":"Khorinsk","alternatenames":"Khorinsk,Khorinskoye,Хоринск","latitude":"52.16631","longitude":"109.77626","feature_class":"P","feature_code":"PPL","country_code":"RU","cc2":"","admin1_code":"11","admin2_code":"","admin3_code":"","admin4_code":"","population":"7986","elevation":"","dem":"663","timezone":"Asia/Irkutsk","modification_date":"2013-01-10"},{"geonameid":"2022317","name":"Khor","asciiname":"Khor","alternatenames":"Khor,Khorskiy,Хор","latitude":"47.88696","longitude":"134.9463","feature_class":"P","feature_code":"PPL","country_code":"RU","cc2":"","admin1_code":"30","admin2_code":"","admin3_code":"","admin4_code":"","population":"11503","elevation":"","dem":"59","timezone":"Asia/Vladivostok","modification_date":"2012-10-06"},{"geonameid":"2022331","name":"Khonkholoy","asciiname":"Khonkholoy","alternatenames":"Khonkhaloy,Khonkholoj,Khonkholoy,Konkholoi,Хонхолой","latitude":"51.13186","longitude":"108.22515","feature_class":"P","feature_code":"PPL","country_code":"RU","cc2":"","admin1_code":"11","admin2_code":"","admin3_code":"","admin4_code":"","population":"1539","elevation":"","dem":"805","timezone":"Asia/Irkutsk","modification_date":"2015-08-14"},{"geonameid":"2022342","name":"Khomutovo","asciiname":"Khomutovo","alternatenames":"Khomutovo,Хомутово","latitude":"52.46583","longitude":"104.4025","feature_class":"P","feature_code":"PPL","country_code":"RU","cc2":"","admin1_code":"20","admin2_code":"","admin3_code":"","admin4_code":"","population":"4918","elevation":"","dem":"445","timezone":"Asia/Irkutsk","modification_date":"2012-01-17"},{"geonameid":"2022369","name":"Kholtoson","asciiname":"Kholtoson","alternatenames":"Kholtoson,Nizhniy Kholtoson,Холтосон","latitude":"50.2981","longitude":"103.3097","feature_class":"P","feature_code":"PPL","country_code":"RU","cc2":"","admin1_code":"11","admin2_code":"","admin3_code":"","admin4_code":"","population":"1040","elevation":"","dem":"1220","timezone":"Asia/Irkutsk","modification_date":"2012-01-17"},{"geonameid":"2022394","name":"Kholbon","asciiname":"Kholbon","alternatenames":"Kholbon,Холбон","latitude":"51.88333","longitude":"116.25","feature_class":"P","feature_code":"PPL","country_code":"RU","cc2":"","admin1_code":"93","admin2_code":"","admin3_code":"","admin4_code":"","population":"2537","elevation":"","dem":"482","timezone":"Asia/Yakutsk","modification_date":"2012-01-17"},{"geonameid":"2022454","name":"Khingansk","asciiname":"Khingansk","alternatenames":"Khingansk,Mikoyanovsk,Хинганск","latitude":"49.12821","longitude":"131.19322","feature_class":"P","feature_code":"PPL","country_code":"RU","cc2":"","admin1_code":"89","admin2_code":"","admin3_code":"","admin4_code":"","population":"2093","elevation":"","dem":"445","timezone":"Asia/Vladivostok","modification_date":"2012-10-06"},{"geonameid":"2022463","name":"Khilok","asciiname":"Khilok","alternatenames":"Chilok,Chilokas,Gorad Khilok,Hilok,Jilok,Khilok,hylwq,khylwk,xi luo ke,Ĥilok,Горад Хілок,Хилок,Хілок,חילוק,خيلوك,خیلوک,希洛克","latitude":"51.36777","longitude":"110.46804","feature_class":"P","feature_code":"PPL","country_code":"RU","cc2":"","admin1_code":"93","admin2_code":"","admin3_code":"","admin4_code":"","population":"10627","elevation":"","dem":"839","timezone":"Asia/Yakutsk","modification_date":"2013-01-10"},{"geonameid":"2022564","name":"Khatassy","asciiname":"Khatassy","alternatenames":"Khatassy,Khatssy,Хатассы","latitude":"61.90638","longitude":"129.63302","feature_class":"P","feature_code":"PPL","country_code":"RU","cc2":"","admin1_code":"63","admin2_code":"","admin3_code":"","admin4_code":"","population":"3676","elevation":"","dem":"104","timezone":"Asia/Yakutsk","modification_date":"2012-10-06"},{"geonameid":"2022572","name":"Khatanga","asciiname":"Khatanga","alternatenames":"Chatanga,HTG,Khatanga,Khatenga,Хатанга","latitude":"71.98002","longitude":"102.47111","feature_class":"P","feature_code":"PPL","country_code":"RU","cc2":"","admin1_code":"91","admin2_code":"","admin3_code":"","admin4_code":"","population":"3205","elevation":"","dem":"42","timezone":"Asia/Krasnoyarsk","modification_date":"2013-10-29"},{"geonameid":"2022773","name":"Khandyga","asciiname":"Khandyga","alternatenames":"KDY,Khandyga,Хандыга","latitude":"62.65333","longitude":"135.5667","feature_class":"P","feature_code":"PPL","country_code":"RU","cc2":"","admin1_code":"63","admin2_code":"Tomponskiy District (undefined)","admin3_code":"","admin4_code":"","population":"6796","elevation":"","dem":"125","timezone":"Asia/Vladivostok","modification_date":"2014-02-08"},{"geonameid":"2022890","name":"Khabarovsk","asciiname":"Khabarovsk","alternatenames":"Chabarofsk,Chabarovsk,Chabarovskas,Chabarowsk,Champarofsk,Gorad Khabarausk,Habarovsk,Habarovska,Habarovszk,Jabarovsk,Jabárovsk,KHV,Khabarovka,Khabarovs'k,Khabarovsk,Khabarovskaj,Khabàrovsk,Khbarovsk,Xabarovsk,bo li,habalobseukeu,habarofusuku,hbrwbsq,khabarovska,khabarwfsk,khabarwwsk,Ĥabarovsk,Χαμπάροφσκ,Горад Хабараўск,Хабаровск,Хабаровскай,Хабаровськ,Խաբարովսկ,חברובסק,خاباروفسك,خاباروفسک,خابارووسک,ہابروسک,खबारोव्स्क,ख़ाबारोव्स्क,ハバロフスク,伯力,하바롭스크","latitude":"48.48271","longitude":"135.08379","feature_class":"P","feature_code":"PPLA","country_code":"RU","cc2":"","admin1_code":"30","admin2_code":"2022887","admin3_code":"","admin4_code":"","population":"579000","elevation":"","dem":"76","timezone":"Asia/Vladivostok","modification_date":"2012-12-24"},{"geonameid":"2023029","name":"Kazachinskoye","asciiname":"Kazachinskoye","alternatenames":"Kazachinskaye,Kazachinskoe,Kazachinskoye,Kazatsjinskoje,Казачинское","latitude":"56.26974","longitude":"107.57624","feature_class":"P","feature_code":"PPL","country_code":"RU","cc2":"","admin1_code":"20","admin2_code":"","admin3_code":"","admin4_code":"","population":"2581","elevation":"","dem":"354","timezone":"Asia/Irkutsk","modification_date":"2012-11-08"},{"geonameid":"2023058","name":"Kavalerovo","asciiname":"Kavalerovo","alternatenames":"Kavalerovo,Kavaletovo,Kawalerowo,Kovalerovo,Kovalevo,Кавалерово","latitude":"44.27221","longitude":"135.05227","feature_class":"P","feature_code":"PPL","country_code":"RU","cc2":"","admin1_code":"59","admin2_code":"","admin3_code":"","admin4_code":"","population":"16945","elevation":"","dem":"210","timezone":"Asia/Vladivostok","modification_date":"2012-10-06"},{"geonameid":"2023094","name":"Karymskoye","asciiname":"Karymskoye","alternatenames":"Karomskaya,Karymskaya,Karymskoe,Karymskoje,Karymskoye,Karömskaya,Карымское","latitude":"51.61667","longitude":"114.35","feature_class":"P","feature_code":"PPL","country_code":"RU","cc2":"","admin1_code":"93","admin2_code":"","admin3_code":"","admin4_code":"","population":"11901","elevation":"","dem":"594","timezone":"Asia/Yakutsk","modification_date":"2013-11-07"},{"geonameid":"2023190","name":"Kangalassy","asciiname":"Kangalassy","alternatenames":"Kangalasskiye Kopi,Kangalassy,Kangalastsy,Kangalasy,Namtogor,Odey Vtoroy,Кангалассы","latitude":"62.34824","longitude":"129.96471","feature_class":"P","feature_code":"PPL","country_code":"RU","cc2":"","admin1_code":"63","admin2_code":"","admin3_code":"","admin4_code":"","population":"1721","elevation":"","dem":"85","timezone":"Asia/Yakutsk","modification_date":"2012-10-06"},{"geonameid":"2023226","name":"Kamen’-Rybolov","asciiname":"Kamen'-Rybolov","alternatenames":"Kamen,Kamen'-Rybolov,Kamen-Rybolov,Kamen’-Rybolov,Камень-Рыболов","latitude":"44.7452","longitude":"132.0465","feature_class":"P","feature_code":"PPL","country_code":"RU","cc2":"","admin1_code":"59","admin2_code":"","admin3_code":"","admin4_code":"","population":"11489","elevation":"","dem":"95","timezone":"Asia/Vladivostok","modification_date":"2012-04-05"},{"geonameid":"2023249","name":"Kamenka","asciiname":"Kamenka","alternatenames":"Kamenka,Каменка","latitude":"44.45865","longitude":"136.01403","feature_class":"P","feature_code":"PPL","country_code":"RU","cc2":"","admin1_code":"59","admin2_code":"","admin3_code":"","admin4_code":"","population":"1693","elevation":"","dem":"9","timezone":"Asia/Vladivostok","modification_date":"2012-10-06"},{"geonameid":"2023286","name":"Kalga","asciiname":"Kalga","alternatenames":"Kalga,Калга","latitude":"50.92538","longitude":"118.89958","feature_class":"P","feature_code":"PPL","country_code":"RU","cc2":"","admin1_code":"93","admin2_code":"","admin3_code":"","admin4_code":"","population":"3573","elevation":"","dem":"628","timezone":"Asia/Yakutsk","modification_date":"2013-01-10"},{"geonameid":"2023298","name":"Kalanguy","asciiname":"Kalanguy","alternatenames":"Kalangui,Kalanguj,Kalanguy,Kolanguy,Kolonduy,Калангуй","latitude":"51.01667","longitude":"116.51667","feature_class":"P","feature_code":"PPL","country_code":"RU","cc2":"","admin1_code":"93","admin2_code":"","admin3_code":"","admin4_code":"","population":"2679","elevation":"","dem":"784","timezone":"Asia/Yakutsk","modification_date":"2012-01-17"},{"geonameid":"2023324","name":"Kadaya","asciiname":"Kadaya","alternatenames":"Kadai,Kadaja,Kaday,Kadaya,Kadaya Pervaya,Кадая","latitude":"50.93254","longitude":"119.29468","feature_class":"P","feature_code":"PPL","country_code":"RU","cc2":"","admin1_code":"93","admin2_code":"","admin3_code":"","admin4_code":"","population":"1167","elevation":"","dem":"625","timezone":"Asia/Yakutsk","modification_date":"2013-01-10"},{"geonameid":"2023333","name":"Kachug","asciiname":"Kachug","alternatenames":"Kachug,Kachuga,Kachurga,Katsjug,Качуг","latitude":"53.96056","longitude":"105.88167","feature_class":"P","feature_code":"PPL","country_code":"RU","cc2":"","admin1_code":"20","admin2_code":"","admin3_code":"","admin4_code":"","population":"6971","elevation":"533","dem":"515","timezone":"Asia/Irkutsk","modification_date":"2014-05-04"},{"geonameid":"2023350","name":"Kabansk","asciiname":"Kabansk","alternatenames":"Kabansk,Кабанск","latitude":"52.04861","longitude":"106.65278","feature_class":"P","feature_code":"PPL","country_code":"RU","cc2":"","admin1_code":"11","admin2_code":"","admin3_code":"","admin4_code":"","population":"6257","elevation":"","dem":"467","timezone":"Asia/Irkutsk","modification_date":"2012-01-17"},{"geonameid":"2023360","name":"Izvestkovyy","asciiname":"Izvestkovyy","alternatenames":"Izvestkovaya,Izvestkovyj,Izvestkovyy,Известковый","latitude":"48.98043","longitude":"131.55274","feature_class":"P","feature_code":"PPL","country_code":"RU","cc2":"","admin1_code":"89","admin2_code":"","admin3_code":"","admin4_code":"","population":"2159","elevation":"","dem":"270","timezone":"Asia/Vladivostok","modification_date":"2012-10-06"},{"geonameid":"2023377","name":"Ivolginsk","asciiname":"Ivolginsk","alternatenames":"Ivolga,Ivolginsk,Ivologinsk,Иволгинск","latitude":"51.74919","longitude":"107.28374","feature_class":"P","feature_code":"PPL","country_code":"RU","cc2":"","admin1_code":"11","admin2_code":"","admin3_code":"","admin4_code":"","population":"7109","elevation":"","dem":"544","timezone":"Asia/Irkutsk","modification_date":"2012-01-17"},{"geonameid":"2023408","name":"Ivanovka","asciiname":"Ivanovka","alternatenames":"Ivanovka,Ивановка","latitude":"43.96879","longitude":"132.48331","feature_class":"P","feature_code":"PPL","country_code":"RU","cc2":"","admin1_code":"59","admin2_code":"","admin3_code":"","admin4_code":"","population":"2170","elevation":"","dem":"123","timezone":"Asia/Vladivostok","modification_date":"2013-10-25"},{"geonameid":"2023427","name":"Istok","asciiname":"Istok","alternatenames":"Istok,Исток","latitude":"52.09528","longitude":"106.2475","feature_class":"P","feature_code":"PPL","country_code":"RU","cc2":"","admin1_code":"11","admin2_code":"","admin3_code":"","admin4_code":"","population":"3072","elevation":"","dem":"453","timezone":"Asia/Irkutsk","modification_date":"2012-01-17"},{"geonameid":"2023469","name":"Irkutsk","asciiname":"Irkutsk","alternatenames":"Ehrkhүү khot,Ehrkhүү khoto,Gorad Irkuck,IKT,Ircutia,Irkoetsk,Irkotsk,Irkoutsk,Irkuck,Irkutk,Irkuts'k,Irkutsc,Irkutsk,Irkutska,Irkutskaj,Irkutskas,Irkutszk,Irkuțk,Irkùck,ayrktsk,ayrkwtsk,ileukucheukeu,irakutska,irukutsuku,xir khut skh,yi er ku ci ke,İrkutsk,Ιρκούτσκ,Іркутськ,Горад Іркуцк,Иркутск,Иркутскай,Иркуцк,Эрхүү хот,Эрхүү хото,Өrket,Өркет,אירקוטסק,אירקוצק,إيركوتسك,ارکٹسک,ایرکتسک,ایرکوتسک,इरकुत्स्क,อีร์คุตสค์,ირკუტსკი,イルクーツク,伊爾庫茨克,이르쿠츠크","latitude":"52.29778","longitude":"104.29639","feature_class":"P","feature_code":"PPLA","country_code":"RU","cc2":"","admin1_code":"20","admin2_code":"2023464","admin3_code":"","admin4_code":"","population":"586695","elevation":"","dem":"428","timezone":"Asia/Irkutsk","modification_date":"2013-12-01"},{"geonameid":"2023584","name":"Imeni Poliny Osipenko","asciiname":"Imeni Poliny Osipenko","alternatenames":"Imeni Poliny Osipenko,Kerbi,Kerbinsk,Osipenko,Poselok Imeni Poliny Osipenko,im.Poliny Osipenko,imeni Poliny Osipenko,Имени Полины Осипенко,им.Полины Осипенко,имени Полины Осипенко","latitude":"52.4227","longitude":"136.48692","feature_class":"P","feature_code":"PPL","country_code":"RU","cc2":"","admin1_code":"30","admin2_code":"","admin3_code":"","admin4_code":"","population":"2479","elevation":"","dem":"69","timezone":"Asia/Vladivostok","modification_date":"2012-10-06"},{"geonameid":"2023634","name":"Il’ka","asciiname":"Il'ka","alternatenames":"Il'ka,Ilka,Il’ka,Илька","latitude":"51.72114","longitude":"108.52169","feature_class":"P","feature_code":"PPL","country_code":"RU","cc2":"","admin1_code":"11","admin2_code":"","admin3_code":"","admin4_code":"","population":"2100","elevation":"","dem":"613","timezone":"Asia/Irkutsk","modification_date":"2013-08-07"},{"geonameid":"2023638","name":"Ilir","asciiname":"Ilir","alternatenames":"Ilir,Илир","latitude":"55.22473","longitude":"100.68498","feature_class":"P","feature_code":"PPL","country_code":"RU","cc2":"","admin1_code":"20","admin2_code":"","admin3_code":"","admin4_code":"","population":"1150","elevation":"","dem":"418","timezone":"Asia/Irkutsk","modification_date":"2013-09-08"},{"geonameid":"2023655","name":"Il’inka","asciiname":"Il'inka","alternatenames":"Il'inka,Il'inskiy,Il'inskoye,Il'inskyi Istochnik,Ilinka,Ilyinskoye,Il’inka,Il’inskiy,Il’inskoye,Il’inskyi Istochnik,Ильинка","latitude":"52.11944","longitude":"107.27083","feature_class":"P","feature_code":"PPL","country_code":"RU","cc2":"","admin1_code":"11","admin2_code":"","admin3_code":"","admin4_code":"","population":"4200","elevation":"","dem":"487","timezone":"Asia/Irkutsk","modification_date":"2015-04-14"},{"geonameid":"2023704","name":"Ikey","asciiname":"Ikey","alternatenames":"Ikej,Ikey,Икей","latitude":"54.19194","longitude":"100.08111","feature_class":"P","feature_code":"PPL","country_code":"RU","cc2":"","admin1_code":"20","admin2_code":"","admin3_code":"","admin4_code":"","population":"1500","elevation":"","dem":"525","timezone":"Asia/Irkutsk","modification_date":"2013-07-01"},{"geonameid":"2023778","name":"Gusinoye Ozero","asciiname":"Gusinoye Ozero","alternatenames":"Gusinoe Ozero,Gusinoje-Ozero,Gusinoozerskiy Datsan,Gusinoozyorskiy Monastery,Gusinoye Ozero,Гусиное Озеро","latitude":"51.11444","longitude":"106.26139","feature_class":"P","feature_code":"PPL","country_code":"RU","cc2":"","admin1_code":"11","admin2_code":"","admin3_code":"","admin4_code":"","population":"3208","elevation":"","dem":"563","timezone":"Asia/Irkutsk","modification_date":"2012-01-17"},{"geonameid":"2023782","name":"Gusinoozyorsk","asciiname":"Gusinoozyorsk","alternatenames":"Bestuzhev,Gusinoozerak,Gusinoozersk,Gusinoozjorsk,Gusinoozyorsk,Gusinoozërsk,Gusnooversk,Shakhty,Yelanovskiy,Гусиноозёрск","latitude":"51.28333","longitude":"106.5","feature_class":"P","feature_code":"PPL","country_code":"RU","cc2":"","admin1_code":"11","admin2_code":"","admin3_code":"","admin4_code":"","population":"24083","elevation":"","dem":"548","timezone":"Asia/Irkutsk","modification_date":"2014-04-26"},{"geonameid":"2023804","name":"Guran","asciiname":"Guran","alternatenames":"Guran,Гуран","latitude":"54.76127","longitude":"100.64399","feature_class":"P","feature_code":"PPL","country_code":"RU","cc2":"","admin1_code":"20","admin2_code":"","admin3_code":"","admin4_code":"","population":"1500","elevation":"","dem":"528","timezone":"Asia/Irkutsk","modification_date":"2013-07-01"},{"geonameid":"2023918","name":"Gornyye Klyuchi","asciiname":"Gornyye Klyuchi","alternatenames":"Gornye Kljuchi,Gornye-Kljutsji,Gornyye Klyuchi,Горные Ключи","latitude":"45.24221","longitude":"133.50601","feature_class":"P","feature_code":"PPL","country_code":"RU","cc2":"","admin1_code":"59","admin2_code":"","admin3_code":"","admin4_code":"","population":"5146","elevation":"","dem":"80","timezone":"Asia/Vladivostok","modification_date":"2012-10-06"},{"geonameid":"2023920","name":"Gornyy","asciiname":"Gornyy","alternatenames":"Gornyj,Gornyy,Solnechnoye,Solnechnyy,Горный","latitude":"50.76344","longitude":"136.44951","feature_class":"P","feature_code":"PPL","country_code":"RU","cc2":"","admin1_code":"30","admin2_code":"","admin3_code":"","admin4_code":"","population":"1625","elevation":"","dem":"471","timezone":"Asia/Vladivostok","modification_date":"2012-10-06"},{"geonameid":"2023929","name":"Gornorechenskiy","asciiname":"Gornorechenskiy","alternatenames":"Gornorechenskij,Gornorechenskiy,Gornoretsjenskij,Горнореченский","latitude":"44.26555","longitude":"135.11465","feature_class":"P","feature_code":"PPL","country_code":"RU","cc2":"","admin1_code":"59","admin2_code":"","admin3_code":"","admin4_code":"","population":"3409","elevation":"","dem":"182","timezone":"Asia/Vladivostok","modification_date":"2012-10-06"},{"geonameid":"2023943","name":"Gorin","asciiname":"Gorin","alternatenames":"Gorin,Горин","latitude":"51.19861","longitude":"136.66216","feature_class":"P","feature_code":"PPL","country_code":"RU","cc2":"","admin1_code":"30","admin2_code":"","admin3_code":"","admin4_code":"","population":"3695","elevation":"","dem":"71","timezone":"Asia/Vladivostok","modification_date":"2012-10-06"},{"geonameid":"2024122","name":"Gazimurskiy Zavod","asciiname":"Gazimurskiy Zavod","alternatenames":"Gazimurskij Zavod,Gazimurskiy Zavod,Gazimurskizavod,Газимурский Завод","latitude":"51.55352","longitude":"118.3446","feature_class":"P","feature_code":"PPL","country_code":"RU","cc2":"","admin1_code":"93","admin2_code":"","admin3_code":"","admin4_code":"","population":"2358","elevation":"","dem":"680","timezone":"Asia/Yakutsk","modification_date":"2013-01-10"},{"geonameid":"2024221","name":"Gadaley","asciiname":"Gadaley","alternatenames":"Gadalej,Gadaley,Гадалей","latitude":"54.40318","longitude":"100.74093","feature_class":"P","feature_code":"PPL","country_code":"RU","cc2":"","admin1_code":"20","admin2_code":"","admin3_code":"","admin4_code":"","population":"1500","elevation":"","dem":"469","timezone":"Asia/Irkutsk","modification_date":"2013-07-02"},{"geonameid":"2024461","name":"Ekimchan","asciiname":"Ekimchan","alternatenames":"Ehkimchan,Ekimchan,Ekimtsjan,Экимчан","latitude":"53.06972","longitude":"132.94011","feature_class":"P","feature_code":"PPL","country_code":"RU","cc2":"","admin1_code":"05","admin2_code":"","admin3_code":"","admin4_code":"","population":"1177","elevation":"","dem":"497","timezone":"Asia/Yakutsk","modification_date":"2012-10-06"},{"geonameid":"2024579","name":"Dzhida","asciiname":"Dzhida","alternatenames":"Dzhida,Dzjida,Джида","latitude":"50.67722","longitude":"106.18056","feature_class":"P","feature_code":"PPL","country_code":"RU","cc2":"","admin1_code":"11","admin2_code":"","admin3_code":"","admin4_code":"","population":"4913","elevation":"","dem":"574","timezone":"Asia/Irkutsk","modification_date":"2012-01-17"},{"geonameid":"2024626","name":"Dzhebariki-Khaya","asciiname":"Dzhebariki-Khaya","alternatenames":"Dzhebariki-Khaja,Dzhebariki-Khaya,Dzjebariki-Khaja,Джебарики-Хая","latitude":"62.21084","longitude":"135.84876","feature_class":"P","feature_code":"PPL","country_code":"RU","cc2":"","admin1_code":"63","admin2_code":"Tomponskiy District (undefined)","admin3_code":"","admin4_code":"","population":"2056","elevation":"","dem":"114","timezone":"Asia/Vladivostok","modification_date":"2014-02-08"},{"geonameid":"2024800","name":"Dunay","asciiname":"Dunay","alternatenames":"Dunai,Dunaj,Dunay,Shkotovo-22,Дунай","latitude":"42.87881","longitude":"132.33521","feature_class":"P","feature_code":"PPL","country_code":"RU","cc2":"","admin1_code":"59","admin2_code":"","admin3_code":"","admin4_code":"","population":"8394","elevation":"","dem":"17","timezone":"Asia/Vladivostok","modification_date":"2012-10-06"},{"geonameid":"2024812","name":"Dul’durga","asciiname":"Dul'durga","alternatenames":"Dul'durga,Duldurga,Duldurgh,Dul’durga,Дульдурга","latitude":"50.67611","longitude":"113.59306","feature_class":"P","feature_code":"PPL","country_code":"RU","cc2":"","admin1_code":"93","admin2_code":"","admin3_code":"","admin4_code":"","population":"6382","elevation":"","dem":"753","timezone":"Asia/Yakutsk","modification_date":"2012-01-17"},{"geonameid":"2024848","name":"Drovyanaya","asciiname":"Drovyanaya","alternatenames":"Drouyanaya,Drovjanaja,Drovyanaya,Дровяная","latitude":"51.5762","longitude":"113.04078","feature_class":"P","feature_code":"PPL","country_code":"RU","cc2":"","admin1_code":"93","admin2_code":"","admin3_code":"","admin4_code":"","population":"3090","elevation":"","dem":"705","timezone":"Asia/Yakutsk","modification_date":"2012-02-28"},{"geonameid":"2024858","name":"Dostoyevka","asciiname":"Dostoyevka","alternatenames":"Dostoevka,Dostojevka,Dostoyevka,Достоевка","latitude":"44.32554","longitude":"133.48134","feature_class":"P","feature_code":"PPL","country_code":"RU","cc2":"","admin1_code":"59","admin2_code":"","admin3_code":"","admin4_code":"","population":"1700","elevation":"","dem":"158","timezone":"Asia/Vladivostok","modification_date":"2012-10-06"},{"geonameid":"2024893","name":"Domna","asciiname":"Domna","alternatenames":"Demninskoye,Dominskoye,Domna,Domninskoye,Domno,Домна","latitude":"51.89712","longitude":"113.1573","feature_class":"P","feature_code":"PPL","country_code":"RU","cc2":"","admin1_code":"93","admin2_code":"","admin3_code":"","admin4_code":"","population":"6576","elevation":"","dem":"667","timezone":"Asia/Yakutsk","modification_date":"2012-01-17"},{"geonameid":"2025099","name":"Dauriya","asciiname":"Dauriya","alternatenames":"Dauria,Daurija,Dauriya,Daurskoye,Даурия","latitude":"49.93333","longitude":"116.86667","feature_class":"P","feature_code":"PPL","country_code":"RU","cc2":"","admin1_code":"93","admin2_code":"","admin3_code":"","admin4_code":"","population":"4058","elevation":"","dem":"677","timezone":"Asia/Yakutsk","modification_date":"2012-01-17"},{"geonameid":"2025121","name":"Darasun","asciiname":"Darasun","alternatenames":"Darasun,Дарасун","latitude":"51.6594","longitude":"113.97515","feature_class":"P","feature_code":"PPL","country_code":"RU","cc2":"","admin1_code":"93","admin2_code":"","admin3_code":"","admin4_code":"","population":"7755","elevation":"","dem":"603","timezone":"Asia/Yakutsk","modification_date":"2012-02-28"},{"geonameid":"2025159","name":"Dal’nerechensk","asciiname":"Dal'nerechensk","alternatenames":"Dal'nerechensk,Dalneretsjensk,Dal’nerechensk,Iman,Дальнереченск","latitude":"45.93149","longitude":"133.73906","feature_class":"P","feature_code":"PPL","country_code":"RU","cc2":"","admin1_code":"59","admin2_code":"","admin3_code":"","admin4_code":"","population":"28300","elevation":"","dem":"59","timezone":"Asia/Vladivostok","modification_date":"2012-09-05"},{"geonameid":"2025241","name":"Churapcha","asciiname":"Churapcha","alternatenames":"Churapcha,Tsjuraptsja,Чурапча","latitude":"61.99858","longitude":"132.43341","feature_class":"P","feature_code":"PPL","country_code":"RU","cc2":"","admin1_code":"63","admin2_code":"","admin3_code":"","admin4_code":"","population":"7280","elevation":"","dem":"166","timezone":"Asia/Yakutsk","modification_date":"2012-10-06"},{"geonameid":"2025256","name":"Chumikan","asciiname":"Chumikan","alternatenames":"Chumikan,Chumukan,Tsjumikan,Чумикан","latitude":"54.71857","longitude":"135.3163","feature_class":"P","feature_code":"PPL","country_code":"RU","cc2":"","admin1_code":"30","admin2_code":"","admin3_code":"","admin4_code":"","population":"1305","elevation":"","dem":"6","timezone":"Asia/Vladivostok","modification_date":"2012-10-06"},{"geonameid":"2025261","name":"Chul’man","asciiname":"Chul'man","alternatenames":"Chul'man,Chul’man,NER,Tsjulman,Utesnaya,Чульман","latitude":"56.84735","longitude":"124.90812","feature_class":"P","feature_code":"PPL","country_code":"RU","cc2":"","admin1_code":"63","admin2_code":"","admin3_code":"","admin4_code":"","population":"10220","elevation":"","dem":"716","timezone":"Asia/Yakutsk","modification_date":"2013-04-02"},{"geonameid":"2025286","name":"Chuguyevka","asciiname":"Chuguyevka","alternatenames":"Chuguevka,Chuguyevka,Tsjugujevka,Чугуевка","latitude":"44.16652","longitude":"133.86495","feature_class":"P","feature_code":"PPL","country_code":"RU","cc2":"","admin1_code":"59","admin2_code":"","admin3_code":"","admin4_code":"","population":"13354","elevation":"","dem":"266","timezone":"Asia/Vladivostok","modification_date":"2012-10-06"},{"geonameid":"2025325","name":"Chkalovskoye","asciiname":"Chkalovskoye","alternatenames":"Chkalovskoe,Chkalovskoye,Tsjkalovskoje,Zen'kovka,Zen’kovka,Чкаловское","latitude":"44.83808","longitude":"133.04332","feature_class":"P","feature_code":"PPL","country_code":"RU","cc2":"","admin1_code":"59","admin2_code":"","admin3_code":"","admin4_code":"","population":"3606","elevation":"","dem":"91","timezone":"Asia/Vladivostok","modification_date":"2012-10-06"},{"geonameid":"2025339","name":"Chita","asciiname":"Chita","alternatenames":"Chita,Chitá,HTA,Tchita,Tschita,Tsita,Tsjita,Tšita,chi ta,chita,Чита,チタ,赤塔","latitude":"52.03171","longitude":"113.50087","feature_class":"P","feature_code":"PPLA","country_code":"RU","cc2":"","admin1_code":"93","admin2_code":"","admin3_code":"","admin4_code":"","population":"308500","elevation":"","dem":"668","timezone":"Asia/Yakutsk","modification_date":"2015-03-10"},{"geonameid":"2025456","name":"Chernyshevskiy","asciiname":"Chernyshevskiy","alternatenames":"Chernyshevskij,Chernyshevskiy,Tsjernysjevskij,Чернышевский","latitude":"63.01601","longitude":"112.46901","feature_class":"P","feature_code":"PPL","country_code":"RU","cc2":"","admin1_code":"63","admin2_code":"","admin3_code":"","admin4_code":"","population":"5137","elevation":"","dem":"378","timezone":"Asia/Yakutsk","modification_date":"2012-09-05"},{"geonameid":"2025458","name":"Chernyshevsk","asciiname":"Chernyshevsk","alternatenames":"Chernyshevsk,Imeni Kaganovicha,Poselok Imeni Kaganovicha,Posëlok Imeni Kaganovicha,Tsjernysjevsk,Чернышевск","latitude":"52.52209","longitude":"117.01712","feature_class":"P","feature_code":"PPL","country_code":"RU","cc2":"","admin1_code":"93","admin2_code":"","admin3_code":"","admin4_code":"","population":"12466","elevation":"","dem":"536","timezone":"Asia/Yakutsk","modification_date":"2013-01-10"},{"geonameid":"2025460","name":"Chernyshëvka","asciiname":"Chernyshevka","alternatenames":"Chernyshevka,Chernyshjovka,Chernyshëvka,Tsjernysjevka,Чернышевка,Чернышёвка","latitude":"44.19971","longitude":"133.13193","feature_class":"P","feature_code":"PPL","country_code":"RU","cc2":"","admin1_code":"59","admin2_code":"","admin3_code":"","admin4_code":"","population":"3319","elevation":"","dem":"153","timezone":"Asia/Vladivostok","modification_date":"2012-10-06"},{"geonameid":"2025489","name":"Chernigovka","asciiname":"Chernigovka","alternatenames":"Chernigovka,Tsjernigovka,Черниговка","latitude":"44.34216","longitude":"132.56937","feature_class":"P","feature_code":"PPL","country_code":"RU","cc2":"","admin1_code":"59","admin2_code":"","admin3_code":"","admin4_code":"","population":"13969","elevation":"","dem":"82","timezone":"Asia/Vladivostok","modification_date":"2012-10-06"},{"geonameid":"2025527","name":"Cheremkhovo","asciiname":"Cheremkhovo","alternatenames":"Cheremkhovo,Tsjeremkhovo,Черемхово","latitude":"53.15611","longitude":"103.0675","feature_class":"P","feature_code":"PPL","country_code":"RU","cc2":"","admin1_code":"20","admin2_code":"","admin3_code":"","admin4_code":"","population":"57395","elevation":"","dem":"573","timezone":"Asia/Irkutsk","modification_date":"2012-01-17"},{"geonameid":"2025579","name":"Chegdomyn","asciiname":"Chegdomyn","alternatenames":"Chagdamin,Chagdamyn,Chegdomyn,Tsjegdomyn,Чегдомын","latitude":"51.12853","longitude":"133.00827","feature_class":"P","feature_code":"PPL","country_code":"RU","cc2":"","admin1_code":"30","admin2_code":"","admin3_code":"","admin4_code":"","population":"14855","elevation":"","dem":"426","timezone":"Asia/Vladivostok","modification_date":"2012-10-06"},{"geonameid":"2025630","name":"Chara","asciiname":"Chara","alternatenames":"Char,Chara,Staraja Chara,Старая Чара,Чара","latitude":"56.90639","longitude":"118.26306","feature_class":"P","feature_code":"PPL","country_code":"RU","cc2":"","admin1_code":"93","admin2_code":"","admin3_code":"","admin4_code":"","population":"1974","elevation":"","dem":"708","timezone":"Asia/Yakutsk","modification_date":"2012-01-17"},{"geonameid":"2025917","name":"Bureya","asciiname":"Bureya","alternatenames":"Bureia,Bureja,Bureya,Бурея","latitude":"49.81212","longitude":"129.81278","feature_class":"P","feature_code":"PPL","country_code":"RU","cc2":"","admin1_code":"05","admin2_code":"","admin3_code":"","admin4_code":"","population":"5383","elevation":"","dem":"133","timezone":"Asia/Yakutsk","modification_date":"2012-10-06"},{"geonameid":"2026023","name":"Bukachacha","asciiname":"Bukachacha","alternatenames":"Bukachacha,Bukatsjatsja,Букачача","latitude":"52.98333","longitude":"116.91667","feature_class":"P","feature_code":"PPL","country_code":"RU","cc2":"","admin1_code":"93","admin2_code":"","admin3_code":"","admin4_code":"","population":"3372","elevation":"","dem":"675","timezone":"Asia/Yakutsk","modification_date":"2012-01-17"},{"geonameid":"2026057","name":"Budagovo","asciiname":"Budagovo","alternatenames":"Budagovo,Будагово","latitude":"54.6255","longitude":"100.13109","feature_class":"P","feature_code":"PPL","country_code":"RU","cc2":"","admin1_code":"20","admin2_code":"","admin3_code":"","admin4_code":"","population":"2000","elevation":"","dem":"549","timezone":"Asia/Irkutsk","modification_date":"2013-07-02"},{"geonameid":"2026126","name":"Borzya","asciiname":"Borzya","alternatenames":"Bolzhia,Borzia,Borzja,Borzya,Борзя","latitude":"50.38333","longitude":"116.51667","feature_class":"P","feature_code":"PPL","country_code":"RU","cc2":"","admin1_code":"93","admin2_code":"","admin3_code":"","admin4_code":"","population":"30421","elevation":"","dem":"687","timezone":"Asia/Yakutsk","modification_date":"2012-01-17"},{"geonameid":"2026160","name":"Borogontsy","asciiname":"Borogontsy","alternatenames":"Borogoncy,Borogontsi,Borogontsy,Борогонцы","latitude":"62.6706","longitude":"131.16344","feature_class":"P","feature_code":"PPL","country_code":"RU","cc2":"","admin1_code":"63","admin2_code":"","admin3_code":"","admin4_code":"","population":"5280","elevation":"","dem":"124","timezone":"Asia/Yakutsk","modification_date":"2012-10-06"},{"geonameid":"2026278","name":"Bol’shoy Kunaley","asciiname":"Bol'shoy Kunaley","alternatenames":"Bol'shoj Kunalej,Bol'shoy Kunaley,Bolsjoj Kunalej,Bol’shoy Kunaley,Kunaleiskoye,Kunaley,Kunaleyskoye,Большой Куналей","latitude":"51.43203","longitude":"107.6089","feature_class":"P","feature_code":"PPL","country_code":"RU","cc2":"","admin1_code":"11","admin2_code":"","admin3_code":"","admin4_code":"","population":"1250","elevation":"","dem":"659","timezone":"Asia/Irkutsk","modification_date":"2013-08-12"},{"geonameid":"2026303","name":"Bol’shoy Kamen’","asciiname":"Bol'shoy Kamen'","alternatenames":"Bol'shoj Kamen',Bol'shoy Kamen',Bol’shoy Kamen’,Большой Камень","latitude":"43.11283","longitude":"132.354","feature_class":"P","feature_code":"PPL","country_code":"RU","cc2":"","admin1_code":"59","admin2_code":"","admin3_code":"","admin4_code":"","population":"38100","elevation":"","dem":"45","timezone":"Asia/Vladivostok","modification_date":"2012-10-06"},{"geonameid":"2026427","name":"Bol’shaya Rechka","asciiname":"Bol'shaya Rechka","alternatenames":"Bol'shaja Rechka,Bol'shaya Rechka,Bolsjaja Retsjka,Bol’shaya Rechka,Большая Речка","latitude":"51.9536","longitude":"104.7335","feature_class":"P","feature_code":"PPL","country_code":"RU","cc2":"","admin1_code":"20","admin2_code":"","admin3_code":"","admin4_code":"","population":"2600","elevation":"","dem":"499","timezone":"Asia/Irkutsk","modification_date":"2013-08-07"},{"geonameid":"2026544","name":"Bokhan","asciiname":"Bokhan","alternatenames":"Bokhan,Бохан","latitude":"53.153","longitude":"103.7714","feature_class":"P","feature_code":"PPL","country_code":"RU","cc2":"","admin1_code":"20","admin2_code":"","admin3_code":"","admin4_code":"","population":"5387","elevation":"","dem":"443","timezone":"Asia/Irkutsk","modification_date":"2012-01-17"},{"geonameid":"2026583","name":"Bodaybo","asciiname":"Bodaybo","alternatenames":"Bodaibo,Bodajbo,Bodaybo,ODO,Бодайбо","latitude":"57.85056","longitude":"114.19333","feature_class":"P","feature_code":"PPL","country_code":"RU","cc2":"","admin1_code":"20","admin2_code":"","admin3_code":"","admin4_code":"","population":"15933","elevation":"","dem":"301","timezone":"Asia/Irkutsk","modification_date":"2012-01-17"},{"geonameid":"2026609","name":"Blagoveshchensk","asciiname":"Blagoveshchensk","alternatenames":"Blagovechtchensk,Blagovescensk,Blagovescenska,Blagovescenskas,Blagoveschensk,Blagovescsenszk,Blagoveshchensk,Blagoveshensk,Blagoveshhens'k,Blagoveshhensk,Blagoveshhensk shaary,Blagovesjtjensk,Blagovesjtsjensk,Blagovestsensk,Blagovesxensk,Blagovextxensk,Blagoveŝĉensk,Blagoveşçensk,Blagoveštšensk,Blagoveščensk,Blagoveščenska,Blagoveščenskas,Blagoveșcensk,Blagovjescensk,Blagovjeshchensk,Blagovješčensk,Blagovyeshchensk,Blagovéshchensk,Blagovésxensk,Blagověščensk,Blagoweschtschensk,Blagowesjtsjensk,Blagowieszczensk,Blagowjeschtschensk,Blаgоvеsjtsjеnsk,Błagowieszczeńsk,Gorad Blagaveshchansk,Hailanpao,b la ko wech chen skh,beullagobesyenseukeu,blaghwfyshtshynsk,blagwwshchnsk,blagwwyshchnsk,blagwwyshchynsk,blʼgwbsznsq,buragovu~eshichensuku,hai lan pao,Благовешенск,Благовешченск,Благовещенск,Благовещенск шаары,Благовєщенськ,Благовјешченск,Горад Благавешчанск,Բլագովեշչենսկ,בלאגובשצנסק,بلاغوفيشتشينسك,بلاگووشچنسک,بلاگوویشچنسک,بلاگوویشچینسک,บลาโกเวชเชนสค์,ბლაგოვეშჩენსკი,ブラゴヴェシチェンスク,海兰泡,海蘭泡,블라고베셴스크","latitude":"50.27961","longitude":"127.5405","feature_class":"P","feature_code":"PPLA","country_code":"RU","cc2":"","admin1_code":"05","admin2_code":"","admin3_code":"","admin4_code":"","population":"221296","elevation":"","dem":"131","timezone":"Asia/Yakutsk","modification_date":"2013-07-04"},{"geonameid":"2026618","name":"Blagodatnoye","asciiname":"Blagodatnoye","alternatenames":"Blagodatnoe,Blagodatnoje,Blagodatnoye,Blagodatny,Благодатное","latitude":"44.32285","longitude":"132.0905","feature_class":"P","feature_code":"PPL","country_code":"RU","cc2":"","admin1_code":"59","admin2_code":"","admin3_code":"","admin4_code":"","population":"2443","elevation":"","dem":"112","timezone":"Asia/Vladivostok","modification_date":"2013-10-25"},{"geonameid":"2026643","name":"Birobidzhan","asciiname":"Birobidzhan","alternatenames":"Birabidzhan,Birobican,Birobidjan,Birobidschan,Birobidshansk,Birobidzan,Birobidzana,Birobidzanas,Birobidzhan,Birobidzhán,Birobidzjan,Birobidzsan,Birobidżan,Birobidžan,Birobidžana,Birobidžanas,Birobigano,Birobijan,Birobiĝano,Bîrobîcan,Gorad Birabidzhan,Tikhon'kaya Stantsiya,Tikhon’kaya Stantsiya,Tikhou'kaya Stantsiya,Tikhou’kaya Stantsiya,bi luo bi zhan,bilobijan,birobijan,byrwbygn,byrwbyjan,Биробиджан,Биробиџан,Біробіджан,Горад Бірабіджан,ביראבידזשאן,בירוביגן,بيروبيجان,بیروبیجان,ビロビジャン,比罗比詹,비로비잔","latitude":"48.79284","longitude":"132.92386","feature_class":"P","feature_code":"PPLA","country_code":"RU","cc2":"","admin1_code":"89","admin2_code":"","admin3_code":"","admin4_code":"","population":"76146","elevation":"","dem":"86","timezone":"Asia/Vladivostok","modification_date":"2012-10-06"},{"geonameid":"2026657","name":"Birakan","asciiname":"Birakan","alternatenames":"Birakan,Birokan,Биракан","latitude":"48.99302","longitude":"131.72026","feature_class":"P","feature_code":"PPL","country_code":"RU","cc2":"","admin1_code":"89","admin2_code":"","admin3_code":"","admin4_code":"","population":"2463","elevation":"","dem":"231","timezone":"Asia/Vladivostok","modification_date":"2012-10-06"},{"geonameid":"2026659","name":"Bira","asciiname":"Bira","alternatenames":"Bira,Birskij,Birskiye,Бира,Бирский","latitude":"49.00135","longitude":"132.46826","feature_class":"P","feature_code":"PPL","country_code":"RU","cc2":"","admin1_code":"89","admin2_code":"","admin3_code":"","admin4_code":"","population":"4176","elevation":"","dem":"166","timezone":"Asia/Vladivostok","modification_date":"2012-10-06"},{"geonameid":"2026696","name":"Bikin","asciiname":"Bikin","alternatenames":"Bikin,Bikinas,Bikine,Bikín,Gorad Bikin,bi jin,bikin,bykyn,Бикин,Горад Бікін,بيكين,بیکین,ビキン,比金,비킨","latitude":"46.81293","longitude":"134.25012","feature_class":"P","feature_code":"PPL","country_code":"RU","cc2":"","admin1_code":"30","admin2_code":"","admin3_code":"","admin4_code":"","population":"19659","elevation":"","dem":"58","timezone":"Asia/Vladivostok","modification_date":"2013-11-02"},{"geonameid":"2026708","name":"Bichura","asciiname":"Bichura","alternatenames":"Bichura,Bichurskoye,Bitsjura,Бичура","latitude":"50.58806","longitude":"107.60222","feature_class":"P","feature_code":"PPL","country_code":"RU","cc2":"","admin1_code":"11","admin2_code":"","admin3_code":"","admin4_code":"","population":"9559","elevation":"","dem":"653","timezone":"Asia/Irkutsk","modification_date":"2012-01-17"},{"geonameid":"2026777","name":"Berkakit","asciiname":"Berkakit","alternatenames":"Berhakit,Berkakit,Berkokit,Беркакит","latitude":"56.57456","longitude":"124.77635","feature_class":"P","feature_code":"PPL","country_code":"RU","cc2":"","admin1_code":"63","admin2_code":"","admin3_code":"","admin4_code":"","population":"4764","elevation":"","dem":"812","timezone":"Asia/Yakutsk","modification_date":"2012-10-06"},{"geonameid":"2026786","name":"Berëzovyy","asciiname":"Berezovyy","alternatenames":"Berezovyj,Berezovyy,Berjozovyj,Berëzovyy,Veli,Берёзовый","latitude":"51.66897","longitude":"135.66584","feature_class":"P","feature_code":"PPL","country_code":"RU","cc2":"","admin1_code":"30","admin2_code":"","admin3_code":"","admin4_code":"","population":"5633","elevation":"","dem":"163","timezone":"Asia/Vladivostok","modification_date":"2012-10-06"},{"geonameid":"2026861","name":"Berdigestyakh","asciiname":"Berdigestyakh","alternatenames":"Berdigestjakh,Berdigestyakh,Berdigistyakh,Berdigyastyakh,Бердигестях","latitude":"62.09842","longitude":"126.69573","feature_class":"P","feature_code":"PPL","country_code":"RU","cc2":"","admin1_code":"63","admin2_code":"","admin3_code":"","admin4_code":"","population":"5948","elevation":"","dem":"212","timezone":"Asia/Yakutsk","modification_date":"2012-10-06"},{"geonameid":"2026895","name":"Belogorsk","asciiname":"Belogorsk","alternatenames":"Aleksandrovka,Aleksandrovsk,Beletorsk,Belogors'k,Belogorsk,Belogorsk i Amur oblast,Belogorskas,Beloqorsk,Bielogorsk,Biełogorsk,Gorad Belagorsk,Kuibyshevka,Kuybyshevka,Kuybyshevka-Vostochnaya,Svobodnyy-18,bellogoleuseukeu,berogorusuku,bie luo ge er si ke,blwgwrsk  astan amwr,bylwghwrsk,bylwgwrsk,bylwgwrsk  amwr awblast,Белогорск,Бєлогорськ,Горад Белагорск,بلوگورسک، استان آمور,بيلوغورسك,بیلوگورسک,بیلوگورسک، آمور اوبلاست,ベロゴルスク,别洛戈尔斯克,벨로고르스크","latitude":"50.91644","longitude":"128.47726","feature_class":"P","feature_code":"PPL","country_code":"RU","cc2":"","admin1_code":"05","admin2_code":"","admin3_code":"","admin4_code":"","population":"67911","elevation":"","dem":"169","timezone":"Asia/Yakutsk","modification_date":"2012-09-05"},{"geonameid":"2026979","name":"Baykal’sk","asciiname":"Baykal'sk","alternatenames":"Bajkal'sk,Bajkalsk,Baykal'sk,Baykal’sk,Байкальск","latitude":"51.5151","longitude":"104.1402","feature_class":"P","feature_code":"PPL","country_code":"RU","cc2":"","admin1_code":"20","admin2_code":"","admin3_code":"","admin4_code":"","population":"15600","elevation":"","dem":"495","timezone":"Asia/Irkutsk","modification_date":"2012-01-17"},{"geonameid":"2027002","name":"Bayangol","asciiname":"Bayangol","alternatenames":"Bajangol,Bayangol,Баянгол","latitude":"50.6977","longitude":"103.4656","feature_class":"P","feature_code":"PPL","country_code":"RU","cc2":"","admin1_code":"11","admin2_code":"","admin3_code":"","admin4_code":"","population":"1432","elevation":"","dem":"1238","timezone":"Asia/Irkutsk","modification_date":"2012-01-17"},{"geonameid":"2027004","name":"Bayanday","asciiname":"Bayanday","alternatenames":"Baindai,Bainday,Bajandaj,Bayanday,Баяндай","latitude":"53.06611","longitude":"105.51389","feature_class":"P","feature_code":"PPL","country_code":"RU","cc2":"","admin1_code":"20","admin2_code":"","admin3_code":"","admin4_code":"","population":"2854","elevation":"","dem":"653","timezone":"Asia/Irkutsk","modification_date":"2012-01-17"},{"geonameid":"2027042","name":"Batagay-Alyta","asciiname":"Batagay-Alyta","alternatenames":"Alytay-Bataga,Batagai-Alyta,Batagaj-Alyta,Batagay-Alyta,SUK,Sakkyryr,Батагай-Алыта,Саккырыр","latitude":"67.79846","longitude":"130.40119","feature_class":"P","feature_code":"PPL","country_code":"RU","cc2":"","admin1_code":"63","admin2_code":"Eveno-Bytantaysky National District (undefined)","admin3_code":"","admin4_code":"","population":"1666","elevation":"","dem":"494","timezone":"Asia/Yakutsk","modification_date":"2013-10-04"},{"geonameid":"2027044","name":"Batagay","asciiname":"Batagay","alternatenames":"BQJ,Batagaj,Batagay,Батагай","latitude":"67.65653","longitude":"134.63962","feature_class":"P","feature_code":"PPL","country_code":"RU","cc2":"","admin1_code":"63","admin2_code":"Verkhoyansky District (undefined)","admin3_code":"","admin4_code":"","population":"4266","elevation":"","dem":"138","timezone":"Asia/Vladivostok","modification_date":"2013-08-06"},{"geonameid":"2027109","name":"Barguzin","asciiname":"Barguzin","alternatenames":"Barguzin,Баргузин","latitude":"53.61875","longitude":"109.63904","feature_class":"P","feature_code":"PPL","country_code":"RU","cc2":"","admin1_code":"11","admin2_code":"","admin3_code":"","admin4_code":"","population":"6052","elevation":"","dem":"487","timezone":"Asia/Irkutsk","modification_date":"2012-09-05"},{"geonameid":"2027142","name":"Barabash","asciiname":"Barabash","alternatenames":"Barabash,Barabasj,Барабаш","latitude":"43.19948","longitude":"131.49185","feature_class":"P","feature_code":"PPL","country_code":"RU","cc2":"","admin1_code":"59","admin2_code":"","admin3_code":"","admin4_code":"","population":"3603","elevation":"","dem":"34","timezone":"Asia/Vladivostok","modification_date":"2013-11-02"},{"geonameid":"2027173","name":"Balyaga","asciiname":"Balyaga","alternatenames":"Baljaga,Balyaga,Баляга","latitude":"51.15293","longitude":"108.92767","feature_class":"P","feature_code":"PPL","country_code":"RU","cc2":"","admin1_code":"93","admin2_code":"","admin3_code":"","admin4_code":"","population":"3559","elevation":"","dem":"738","timezone":"Asia/Yakutsk","modification_date":"2013-01-10"},{"geonameid":"2027184","name":"Baley","asciiname":"Baley","alternatenames":"Balei,Balej,Baley,Batey,Novo-Troitskiy Promysel,Nowo Troizkoje,Балей","latitude":"51.58166","longitude":"116.63395","feature_class":"P","feature_code":"PPL","country_code":"RU","cc2":"","admin1_code":"93","admin2_code":"","admin3_code":"","admin4_code":"","population":"13404","elevation":"","dem":"640","timezone":"Asia/Yakutsk","modification_date":"2013-11-02"},{"geonameid":"2027196","name":"Balakhninskiy","asciiname":"Balakhninskiy","alternatenames":"Balakhninskij,Balakhninskiy,Балахнинский","latitude":"58.01056","longitude":"114.27694","feature_class":"P","feature_code":"PPL","country_code":"RU","cc2":"","admin1_code":"20","admin2_code":"","admin3_code":"","admin4_code":"","population":"1675","elevation":"","dem":"373","timezone":"Asia/Irkutsk","modification_date":"2012-01-17"},{"geonameid":"2027198","name":"Balagansk","asciiname":"Balagansk","alternatenames":"Baiagansk,Balagansk,Balaganski,Балаганск","latitude":"54.0057","longitude":"103.05234","feature_class":"P","feature_code":"PPL","country_code":"RU","cc2":"","admin1_code":"20","admin2_code":"","admin3_code":"","admin4_code":"","population":"4195","elevation":"","dem":"433","timezone":"Asia/Irkutsk","modification_date":"2013-11-02"},{"geonameid":"2027221","name":"Baklashi","asciiname":"Baklashi","alternatenames":"Akinino-Baklashi,Baklashi,Baklasji,Баклаши","latitude":"52.22556","longitude":"104.04861","feature_class":"P","feature_code":"PPL","country_code":"RU","cc2":"","admin1_code":"20","admin2_code":"","admin3_code":"","admin4_code":"","population":"3000","elevation":"","dem":"443","timezone":"Asia/Irkutsk","modification_date":"2013-08-07"},{"geonameid":"2027244","name":"Bagdarin","asciiname":"Bagdarin","alternatenames":"Bagdarin,Bogdarin,Багдарин","latitude":"54.43333","longitude":"113.6","feature_class":"P","feature_code":"PPL","country_code":"RU","cc2":"","admin1_code":"11","admin2_code":"","admin3_code":"","admin4_code":"","population":"4676","elevation":"","dem":"898","timezone":"Asia/Irkutsk","modification_date":"2012-01-17"},{"geonameid":"2027270","name":"Badar","asciiname":"Badar","alternatenames":"Badar,Bodarskoye,Бадар","latitude":"54.39948","longitude":"100.59436","feature_class":"P","feature_code":"PPL","country_code":"RU","cc2":"","admin1_code":"20","admin2_code":"","admin3_code":"","admin4_code":"","population":"1600","elevation":"","dem":"488","timezone":"Asia/Irkutsk","modification_date":"2013-07-02"},{"geonameid":"2027275","name":"Bada","asciiname":"Bada","alternatenames":"Bada,Бада","latitude":"51.391","longitude":"109.86145","feature_class":"P","feature_code":"PPL","country_code":"RU","cc2":"","admin1_code":"93","admin2_code":"","admin3_code":"","admin4_code":"","population":"5149","elevation":"","dem":"769","timezone":"Asia/Yakutsk","modification_date":"2013-01-10"},{"geonameid":"2027276","name":"Babushkin","asciiname":"Babushkin","alternatenames":"Babushkin,Mosovsk,Mysovaya,Mysovsk,Mösovsk,Бабушкин","latitude":"51.71222","longitude":"105.86472","feature_class":"P","feature_code":"PPL","country_code":"RU","cc2":"","admin1_code":"11","admin2_code":"","admin3_code":"","admin4_code":"","population":"4578","elevation":"","dem":"471","timezone":"Asia/Irkutsk","modification_date":"2012-01-17"},{"geonameid":"2027277","name":"Babstovo","asciiname":"Babstovo","alternatenames":"Babetova,Babetovskiy,Babetovskoye,Babstova,Babstovo,Babstovskoye,Babstvo,Babstwo,Babustowa,Babustōwa,Babusutowa,Babusutōwa,Бабстово","latitude":"48.11853","longitude":"132.47913","feature_class":"P","feature_code":"PPL","country_code":"RU","cc2":"","admin1_code":"89","admin2_code":"","admin3_code":"","admin4_code":"","population":"3685","elevation":"","dem":"92","timezone":"Asia/Vladivostok","modification_date":"2012-10-06"},{"geonameid":"2027296","name":"Aykhal","asciiname":"Aykhal","alternatenames":"Aikhal,Ajkhal,Aykhal,Айхал","latitude":"65.93381","longitude":"111.4834","feature_class":"P","feature_code":"PPL","country_code":"RU","cc2":"","admin1_code":"63","admin2_code":"","admin3_code":"","admin4_code":"","population":"15267","elevation":"","dem":"514","timezone":"Asia/Yakutsk","modification_date":"2013-06-26"},{"geonameid":"2027316","name":"Ayan","asciiname":"Ayan","alternatenames":"Ajan,Ayan,Аян","latitude":"56.46314","longitude":"138.17777","feature_class":"P","feature_code":"PPL","country_code":"RU","cc2":"","admin1_code":"30","admin2_code":"","admin3_code":"","admin4_code":"","population":"1286","elevation":"","dem":"25","timezone":"Asia/Vladivostok","modification_date":"2012-10-06"},{"geonameid":"2027373","name":"Atamanovka","asciiname":"Atamanovka","alternatenames":"Atamanovka,Atamanskaja,Atamanskaya,Атамановка,Атаманская","latitude":"51.93333","longitude":"113.63333","feature_class":"P","feature_code":"PPL","country_code":"RU","cc2":"","admin1_code":"93","admin2_code":"","admin3_code":"","admin4_code":"","population":"9053","elevation":"","dem":"652","timezone":"Asia/Yakutsk","modification_date":"2012-02-28"},{"geonameid":"2027456","name":"Artëm","asciiname":"Artem","alternatenames":"Artem,Artjom,Artëm,Артем,Артём","latitude":"43.3595","longitude":"132.18887","feature_class":"P","feature_code":"PPL","country_code":"RU","cc2":"","admin1_code":"59","admin2_code":"","admin3_code":"","admin4_code":"","population":"102300","elevation":"","dem":"49","timezone":"Asia/Vladivostok","modification_date":"2014-06-26"},{"geonameid":"2027468","name":"Arsen’yev","asciiname":"Arsen'yev","alternatenames":"Arsen'ev,Arsen'yev,Arsen’yev,Semenovka,Арсеньев","latitude":"44.15254","longitude":"133.27791","feature_class":"P","feature_code":"PPL","country_code":"RU","cc2":"","admin1_code":"59","admin2_code":"","admin3_code":"","admin4_code":"","population":"58700","elevation":"","dem":"179","timezone":"Asia/Vladivostok","modification_date":"2012-10-06"},{"geonameid":"2027487","name":"Arkhara","asciiname":"Arkhara","alternatenames":"Arkhara,Архара","latitude":"49.42447","longitude":"130.08569","feature_class":"P","feature_code":"PPL","country_code":"RU","cc2":"","admin1_code":"05","admin2_code":"","admin3_code":"","admin4_code":"","population":"10430","elevation":"","dem":"161","timezone":"Asia/Yakutsk","modification_date":"2012-10-06"},{"geonameid":"2027596","name":"Anuchino","asciiname":"Anuchino","alternatenames":"Akuchino,Anuchino,Anutsjino,Анучино","latitude":"43.96571","longitude":"133.05846","feature_class":"P","feature_code":"PPL","country_code":"RU","cc2":"","admin1_code":"59","admin2_code":"","admin3_code":"","admin4_code":"","population":"4658","elevation":"","dem":"187","timezone":"Asia/Vladivostok","modification_date":"2012-10-06"},{"geonameid":"2027667","name":"Angarsk","asciiname":"Angarsk","alternatenames":"Angars'k,Angarsk,Angarska,Angarskas,Angarskiy,Angarszk,Anqarsk,Gorad Angarsk,agarasaka,an jia er si ke,angaleuseukeu,angarsk,angarusuku,angharsk,Ангарск,Ангарськ,Горад Ангарск,آنگارسک,أنغارسك,انگارسک,ਅੰਗਾਰਸਕ,アンガルスク,安加尔斯克,안가르스크","latitude":"52.53667","longitude":"103.88639","feature_class":"P","feature_code":"PPL","country_code":"RU","cc2":"","admin1_code":"20","admin2_code":"","admin3_code":"","admin4_code":"","population":"243158","elevation":"","dem":"437","timezone":"Asia/Irkutsk","modification_date":"2014-10-01"},{"geonameid":"2027740","name":"Amurzet","asciiname":"Amurzet","alternatenames":"Amurzet,Амурзет","latitude":"47.69541","longitude":"131.09493","feature_class":"P","feature_code":"PPL","country_code":"RU","cc2":"","admin1_code":"89","admin2_code":"","admin3_code":"","admin4_code":"","population":"5213","elevation":"","dem":"70","timezone":"Asia/Vladivostok","modification_date":"2012-10-06"},{"geonameid":"2027749","name":"Amursk","asciiname":"Amursk","alternatenames":"Amoursk,Amurs'k,Amursk,Amurskas,Amursko,Gorad Amursk,Padali,a mu er si ke,amuleuseukeu,amurasaka,amurusuku,amwrsk,Αμούρσκ,Амурск,Амурськ,Горад Амурск,آمورسک,أمورسك,ਅਮੁਰਸਕ,アムールスク,阿穆尔斯克,아무르스크","latitude":"50.23685","longitude":"136.88136","feature_class":"P","feature_code":"PPL","country_code":"RU","cc2":"","admin1_code":"30","admin2_code":"","admin3_code":"","admin4_code":"","population":"46993","elevation":"","dem":"45","timezone":"Asia/Vladivostok","modification_date":"2012-10-06"},{"geonameid":"2027786","name":"Amga","asciiname":"Amga","alternatenames":"Amga,Amia,Amma,Sjalo Amga,amgha,Амга,Амма,Сяло Амга,Ամգա,أمغا","latitude":"60.90009","longitude":"131.97882","feature_class":"P","feature_code":"PPL","country_code":"RU","cc2":"","admin1_code":"63","admin2_code":"","admin3_code":"","admin4_code":"","population":"6151","elevation":"","dem":"159","timezone":"Asia/Yakutsk","modification_date":"2012-10-06"},{"geonameid":"2027806","name":"Amazar","asciiname":"Amazar","alternatenames":"Amazar,Амазар","latitude":"53.86033","longitude":"120.87925","feature_class":"P","feature_code":"PPL","country_code":"RU","cc2":"","admin1_code":"93","admin2_code":"","admin3_code":"","admin4_code":"","population":"2527","elevation":"","dem":"468","timezone":"Asia/Yakutsk","modification_date":"2012-09-05"},{"geonameid":"2027859","name":"Almaznyy","asciiname":"Almaznyy","alternatenames":"Almaznyj,Almaznyy,Алмазный","latitude":"62.44917","longitude":"114.32778","feature_class":"P","feature_code":"PPL","country_code":"RU","cc2":"","admin1_code":"63","admin2_code":"","admin3_code":"","admin4_code":"","population":"1699","elevation":"","dem":"262","timezone":"Asia/Yakutsk","modification_date":"2012-01-17"},{"geonameid":"2027911","name":"Alekseyevskaya","asciiname":"Alekseyevskaya","alternatenames":"Alekseevka,Alekseevsk,Alekseevskaja,Alekseyevka,Alekseyevsk,Alekseyevskaya,Алексеевка,Алексеевск,Алексеевская","latitude":"57.85","longitude":"108.4","feature_class":"P","feature_code":"PPL","country_code":"RU","cc2":"","admin1_code":"20","admin2_code":"","admin3_code":"","admin4_code":"","population":"3082","elevation":"","dem":"431","timezone":"Asia/Irkutsk","modification_date":"2014-06-26"},{"geonameid":"2027933","name":"Aleksandrovskiy Zavod","asciiname":"Aleksandrovskiy Zavod","alternatenames":"Aleksandrovski Zavod,Aleksandrovskij Zavod,Aleksandrovskiy Zavod,Alexsandrovskiy Zavod,Александровский Завод","latitude":"50.92525","longitude":"117.93773","feature_class":"P","feature_code":"PPL","country_code":"RU","cc2":"","admin1_code":"93","admin2_code":"","admin3_code":"","admin4_code":"","population":"2516","elevation":"","dem":"795","timezone":"Asia/Yakutsk","modification_date":"2013-01-10"},{"geonameid":"2027968","name":"Aldan","asciiname":"Aldan","alternatenames":"ADH,Aldan,Aldanas,Ałdan,Nezametnyy,aldan,Алдан,알단","latitude":"58.61021","longitude":"125.39613","feature_class":"P","feature_code":"PPL","country_code":"RU","cc2":"","admin1_code":"63","admin2_code":"","admin3_code":"","admin4_code":"","population":"24426","elevation":"","dem":"655","timezone":"Asia/Yakutsk","modification_date":"2012-10-06"},{"geonameid":"2028028","name":"Aksha","asciiname":"Aksha","alternatenames":"Aksha,Aksja,Акша","latitude":"50.28139","longitude":"113.28667","feature_class":"P","feature_code":"PPL","country_code":"RU","cc2":"","admin1_code":"93","admin2_code":"","admin3_code":"","admin4_code":"","population":"3950","elevation":"","dem":"732","timezone":"Asia/Yakutsk","modification_date":"2012-01-17"},{"geonameid":"2028078","name":"Aginskoye","asciiname":"Aginskoye","alternatenames":"Aginskoe,Aginskoje,Aginskoye,Agińskoje,aginseukoye,Агинское,Агинскоје,아긴스코예","latitude":"51.1","longitude":"114.53","feature_class":"P","feature_code":"PPLA2","country_code":"RU","cc2":"","admin1_code":"93","admin2_code":"","admin3_code":"","admin4_code":"","population":"11491","elevation":"","dem":"675","timezone":"Asia/Yakutsk","modification_date":"2011-09-25"},{"geonameid":"2028098","name":"Afanas’yeva","asciiname":"Afanas'yeva","alternatenames":"Afanas'eva,Afanas'evo,Afanas'yeva,Afanas'yevo,Afanas’yeva,Afanas’yevo,Afonas'yevo,Afonas’yevo,Афанасьева,Афанасьево","latitude":"54.63958","longitude":"100.61755","feature_class":"P","feature_code":"PPL","country_code":"RU","cc2":"","admin1_code":"20","admin2_code":"","admin3_code":"","admin4_code":"","population":"1100","elevation":"","dem":"476","timezone":"Asia/Irkutsk","modification_date":"2013-07-02"},{"geonameid":"2028164","name":"Deputatsky","asciiname":"Deputatsky","alternatenames":"DPT,Deputatskij,Deputatskiy,Deputatsky,Депутатский","latitude":"69.30958","longitude":"139.97571","feature_class":"P","feature_code":"PPL","country_code":"RU","cc2":"","admin1_code":"63","admin2_code":"2013847","admin3_code":"","admin4_code":"","population":"3484","elevation":"","dem":"409","timezone":"Asia/Vladivostok","modification_date":"2013-08-06"},{"geonameid":"2047258","name":"Novyy Urgal","asciiname":"Novyy Urgal","alternatenames":"Novyj Urgal,Novyy Urgal,Новый Ургал","latitude":"51.07089","longitude":"132.60075","feature_class":"P","feature_code":"PPL","country_code":"RU","cc2":"","admin1_code":"30","admin2_code":"","admin3_code":"","admin4_code":"","population":"7061","elevation":"","dem":"317","timezone":"Asia/Vladivostok","modification_date":"2012-10-07"},{"geonameid":"2051471","name":"Dal'negorsk","asciiname":"Dal'negorsk","alternatenames":"Dal'negorsk,Dalnegorsk,Дальнегорск","latitude":"44.56039","longitude":"135.57009","feature_class":"P","feature_code":"PPL","country_code":"RU","cc2":"","admin1_code":"59","admin2_code":"","admin3_code":"","admin4_code":"","population":"38424","elevation":"","dem":"208","timezone":"Asia/Vladivostok","modification_date":"2010-07-04"},{"geonameid":"2051523","name":"Bratsk","asciiname":"Bratsk","alternatenames":"Brack,Brats'k,Bratsk,Bratska,Bratskas,Gorad Brack,beulacheukeu,bratsk,bu la ci ke,buratsuku,Братск,Братськ,Горад Брацк,براتسك,براتسک,ブラーツク,布拉茨克,브라츠크","latitude":"56.1325","longitude":"101.61417","feature_class":"P","feature_code":"PPL","country_code":"RU","cc2":"","admin1_code":"20","admin2_code":"","admin3_code":"","admin4_code":"","population":"256600","elevation":"","dem":"443","timezone":"Asia/Irkutsk","modification_date":"2012-10-23"},{"geonameid":"2055166","name":"Sayansk","asciiname":"Sayansk","alternatenames":"Sajansk,Sayansk,Саянск","latitude":"54.1088","longitude":"102.1648","feature_class":"P","feature_code":"PPL","country_code":"RU","cc2":"","admin1_code":"20","admin2_code":"","admin3_code":"","admin4_code":"","population":"43949","elevation":"","dem":"549","timezone":"Asia/Irkutsk","modification_date":"2012-01-20"},{"geonameid":"2055815","name":"Kuanda","asciiname":"Kuanda","alternatenames":"Kuanda,Куанда","latitude":"56.31611","longitude":"116.08056","feature_class":"P","feature_code":"PPL","country_code":"RU","cc2":"","admin1_code":"93","admin2_code":"","admin3_code":"","admin4_code":"","population":"9601","elevation":"","dem":"506","timezone":"Asia/Yakutsk","modification_date":"2012-01-20"},{"geonameid":"2055822","name":"Novaya Chara","asciiname":"Novaya Chara","alternatenames":"Novaja Chara,Novaja Tsjara,Novaya Chara,Новая Чара","latitude":"56.81639","longitude":"118.29861","feature_class":"P","feature_code":"PPL","country_code":"RU","cc2":"","admin1_code":"93","admin2_code":"","admin3_code":"","admin4_code":"","population":"4365","elevation":"","dem":"722","timezone":"Asia/Yakutsk","modification_date":"2012-01-20"},{"geonameid":"2055868","name":"Yantal’","asciiname":"Yantal'","alternatenames":"Jantal,Jantal',Yantal',Yantal’,Янталь","latitude":"56.8471","longitude":"105.2542","feature_class":"P","feature_code":"PPL","country_code":"RU","cc2":"","admin1_code":"20","admin2_code":"","admin3_code":"","admin4_code":"","population":"2383","elevation":"","dem":"373","timezone":"Asia/Irkutsk","modification_date":"2012-01-20"},{"geonameid":"2056752","name":"Khabarovsk Vtoroy","asciiname":"Khabarovsk Vtoroy","alternatenames":"Khabarovsk Vtoroj,Khabarovsk Vtoroy,Хабаровск Второй","latitude":"48.43776","longitude":"135.13329","feature_class":"P","feature_code":"PPLX","country_code":"RU","cc2":"","admin1_code":"30","admin2_code":"","admin3_code":"","admin4_code":"","population":"578303","elevation":"","dem":"59","timezone":"Asia/Vladivostok","modification_date":"2012-10-07"},{"geonameid":"2056861","name":"Dzerzhinsk","asciiname":"Dzerzhinsk","alternatenames":"Dzerzhinsk,Дзержинск","latitude":"52.28028","longitude":"104.38694","feature_class":"P","feature_code":"PPL","country_code":"RU","cc2":"","admin1_code":"20","admin2_code":"","admin3_code":"","admin4_code":"","population":"1100","elevation":"","dem":"465","timezone":"Asia/Irkutsk","modification_date":"2013-08-07"},{"geonameid":"2056881","name":"Markova","asciiname":"Markova","alternatenames":"Markova,Markovo,Маркова,Марково","latitude":"52.20889","longitude":"104.21083","feature_class":"P","feature_code":"PPL","country_code":"RU","cc2":"","admin1_code":"20","admin2_code":"","admin3_code":"","admin4_code":"","population":"17756","elevation":"","dem":"456","timezone":"Asia/Irkutsk","modification_date":"2015-08-23"},{"geonameid":"2115627","name":"Ust’-Kamchatsk Staryy","asciiname":"Ust'-Kamchatsk Staryy","alternatenames":"","latitude":"56.22778","longitude":"162.47778","feature_class":"P","feature_code":"PPLQ","country_code":"RU","cc2":"","admin1_code":"92","admin2_code":"","admin3_code":"","admin4_code":"","population":"4939","elevation":"","dem":"0","timezone":"Asia/Kamchatka","modification_date":"2006-01-17"},{"geonameid":"2118647","name":"Vilyuchinsk","asciiname":"Vilyuchinsk","alternatenames":"Gorad Viljuchynsk,Petropavlovsk-Kamchatskiy-50,Vilioutchinsk,Viljoetsjinsk,Viljuchins'k,Viljuchinsk,Viljucinsk,Viljucsinszk,Viljutsinsk,Viljutsjinsk,Viljutšinsk,Viljučinsk,Viluchinsk,Vilucinsk,Viluecinsk,Viluĉinsk,Vilyuchinsk,Vilüčinsk,Wiljutschinsk,Wiluczinsk,billyuchinseukeu,fylwtshnsk,vu~iryuchinsuku,wei liu qin si ke,wylywchnsk,wylywchynsk,Бүлүүчинскэй,Вилючинск,Виључинск,Вілючинськ,Горад Вілючынск,فيلوتشنسك,ویلیوچنسک,ویلیوچینسک,ヴィリュチンスク,维柳钦斯克,빌류친스크","latitude":"52.9311","longitude":"158.40469","feature_class":"P","feature_code":"PPL","country_code":"RU","cc2":"","admin1_code":"92","admin2_code":"","admin3_code":"","admin4_code":"","population":"25204","elevation":"","dem":"15","timezone":"Asia/Kamchatka","modification_date":"2012-10-06"},{"geonameid":"2119283","name":"Zyryanka","asciiname":"Zyryanka","alternatenames":"Novaya Zyryanka,ZKP,Zyrjanka,Zyryanka,Зырянка","latitude":"65.73489","longitude":"150.89429","feature_class":"P","feature_code":"PPL","country_code":"RU","cc2":"","admin1_code":"63","admin2_code":"2119872","admin3_code":"","admin4_code":"","population":"3627","elevation":"","dem":"45","timezone":"Asia/Magadan","modification_date":"2013-08-06"},{"geonameid":"2119370","name":"Zavety Il’icha","asciiname":"Zavety Il'icha","alternatenames":"Ibyche,Li'ichi,Li’ichi,Zavety Il'icha,Zavety Il’icha","latitude":"49.03737","longitude":"140.26989","feature_class":"P","feature_code":"PPL","country_code":"RU","cc2":"","admin1_code":"30","admin2_code":"","admin3_code":"","admin4_code":"","population":"9144","elevation":"","dem":"61","timezone":"Asia/Vladivostok","modification_date":"2012-10-06"},{"geonameid":"2119441","name":"Yuzhno-Sakhalinsk","asciiname":"Yuzhno-Sakhalinsk","alternatenames":"Gorad Juzhna-Sakhalinsk,Ioujno-Sakhalinsk,Iujno-Sahalinsk,Iujno-Sakhalinsk,Joezjno-Sachalinsk,Jujno-Sahalinsk,Juschno-Sachalinsk,Juzhno-Sakhalins'k,Juzhno-Sakhalinsk,Juzhnosakhalinsk,Juzjno-Sachalinsk,Juzjno-Sakhalinsk,Juzno Sachalinskas,Juzno-Sachalinsk,Juzno-Sahalinsk,Juzno-Sahhalinsk,Juznosachalinsk,Juznosahalinska,Juzsno-Szahalinszk,Juĵno-Saĥalinsk,Jużnosachalińsk,Južno Sachalinskas,Južno-Sachalinsk,Južno-Sahalinsk,Južno-Sahhalinsk,Južnosahaļinska,Suvisahalinsk,Toekhara,Toyohara,Toyokhara,Toëkhara,UUS,Urajimirofuka,Yujno-Sahalinsk,Yujno-Saxalinsk,Yuzhno-Sajalinsk,Yuzhno-Sakhalinsk,nan sa ha lin si ke,yujeunosahallinseukeu,yujhno-sakhalinska,yujinosaharinsuku,ywjnw-sakhalynsk,ywzhnw-sakhalynsk,ywzhnw-skhalnsk,ywzhnwskhalynsk,ywznw-shlynsq,Јужно-Сахалинск,Горад Южна-Сахалінск,Южно-Сахалинск,Южно-Сахалінськ,Южносахалинск,יוזנו-סחלינסק,يوجنو-ساخالينسك,یوژنو-ساخالینسک,یوژنو-سخالنسک,یوژنوسخالینسک,युझ्नो-साखालिन्स्क,ユジノサハリンスク,南萨哈林斯克,유즈노사할린스크","latitude":"46.95407","longitude":"142.73603","feature_class":"P","feature_code":"PPLA","country_code":"RU","cc2":"","admin1_code":"64","admin2_code":"","admin3_code":"","admin4_code":"","population":"176484","elevation":"","dem":"48","timezone":"Asia/Sakhalin","modification_date":"2012-10-06"},{"geonameid":"2119447","name":"Yuzhno-Kurilsk","asciiname":"Yuzhno-Kurilsk","alternatenames":"DEE,Furukamappu,Furukamapu,Hurukamappu,Hurukamapu,Iujno-Kurilsk,Joezjno-Koerilsk,Juschno-Kurilsk,Juzhno-Kuril'sk,Juzjno-Kurilsk,Juzno-Kurilsk,Jużno-Kurilsk,Južno-Kurilsk,Kokamappu,Yuzhno-Kuril'skoye,Yuzhno-Kurilsk,Yuzhno-Kuril’skoye,Yuzhno-Kurl'sk,Yuzhno-Kurl’sk,gu fu bu,nan ku li er si ke,yujeunokulilseukeu,Южно-Курильск,南庫里爾斯克,古釜布,유즈노쿠릴스크","latitude":"44.02734","longitude":"145.86146","feature_class":"P","feature_code":"PPL","country_code":"RU","cc2":"JP","admin1_code":"64","admin2_code":"2119443","admin3_code":"","admin4_code":"","population":"6465","elevation":"","dem":"41","timezone":"Asia/Sakhalin","modification_date":"2015-04-04"},{"geonameid":"2119538","name":"Yelizovo","asciiname":"Yelizovo","alternatenames":"Elizovo,Jelizovo,PKC,Yelizovo,Елизово","latitude":"53.18909","longitude":"158.38135","feature_class":"P","feature_code":"PPL","country_code":"RU","cc2":"","admin1_code":"92","admin2_code":"","admin3_code":"","admin4_code":"","population":"40692","elevation":"","dem":"25","timezone":"Asia/Kamchatka","modification_date":"2016-02-06"},{"geonameid":"2119626","name":"Yagodnoye","asciiname":"Yagodnoye","alternatenames":"Jagodnoe,Jagodnoje,Yagodnoy,Yagodnoye,Yagodnyy,Yagodnöy,Ягодное","latitude":"62.52406","longitude":"149.62827","feature_class":"P","feature_code":"PPL","country_code":"RU","cc2":"","admin1_code":"44","admin2_code":"","admin3_code":"","admin4_code":"","population":"3921","elevation":"","dem":"480","timezone":"Asia/Magadan","modification_date":"2012-10-06"},{"geonameid":"2119640","name":"Yablochnyy","asciiname":"Yablochnyy","alternatenames":"Jablochnyj,Jablotsjnyj,Randomari,Rantomari,Yablochnyy,Яблочный","latitude":"47.152","longitude":"142.05678","feature_class":"P","feature_code":"PPL","country_code":"RU","cc2":"","admin1_code":"64","admin2_code":"","admin3_code":"","admin4_code":"","population":"2062","elevation":"","dem":"6","timezone":"Asia/Sakhalin","modification_date":"2014-06-27"},{"geonameid":"2119701","name":"Vostok","asciiname":"Vostok","alternatenames":"","latitude":"48.97715","longitude":"142.91556","feature_class":"P","feature_code":"PPL","country_code":"RU","cc2":"","admin1_code":"64","admin2_code":"","admin3_code":"","admin4_code":"","population":"2779","elevation":"","dem":"27","timezone":"Asia/Sakhalin","modification_date":"2013-01-19"},{"geonameid":"2119932","name":"Vanino","asciiname":"Vanino","alternatenames":"Vakino,Vaninas,Vanino,Wanino,banino,fanynw,wa ni nuo,wanino,Ванино,Ваніно,فانينو,ワニノ,瓦尼诺,바니노","latitude":"49.09848","longitude":"140.25313","feature_class":"P","feature_code":"PPL","country_code":"RU","cc2":"","admin1_code":"30","admin2_code":"","admin3_code":"","admin4_code":"","population":"18618","elevation":"","dem":"80","timezone":"Asia/Vladivostok","modification_date":"2014-06-27"},{"geonameid":"2119964","name":"Vakhrushev","asciiname":"Vakhrushev","alternatenames":"Tomarigishi,Tomarikishi,Tomarikisi,Vakhrushev,Vakhrusjev,Вахрушев","latitude":"48.99035","longitude":"142.95303","feature_class":"P","feature_code":"PPL","country_code":"RU","cc2":"","admin1_code":"64","admin2_code":"","admin3_code":"","admin4_code":"","population":"2884","elevation":"","dem":"14","timezone":"Asia/Sakhalin","modification_date":"2014-06-26"},{"geonameid":"2120047","name":"Ust’-Omchug","asciiname":"Ust'-Omchug","alternatenames":"Ust'-Omchug,Ust'-Omchuk,Ust-Omtsjug,Ust’-Omchug,Ust’-Omchuk,Усть-Омчуг","latitude":"61.13336","longitude":"149.63283","feature_class":"P","feature_code":"PPL","country_code":"RU","cc2":"","admin1_code":"44","admin2_code":"","admin3_code":"","admin4_code":"","population":"4515","elevation":"","dem":"580","timezone":"Asia/Magadan","modification_date":"2012-10-06"},{"geonameid":"2120048","name":"Ust-Nera","asciiname":"Ust-Nera","alternatenames":"Nera,Oest-Nera,Oust-Nera,USR,Ust Nera,Ust'-Nera,Ust'-Niera,Ust-Nera,Ust´-Niera,Usť-Něra,Uus N'ara,Yuryakh-Terde,usuchi=nera,Уст-Нера,Усть-Нера,Уус Ньара,ウスチ＝ネラ","latitude":"64.56968","longitude":"143.237","feature_class":"P","feature_code":"PPLA2","country_code":"RU","cc2":"","admin1_code":"63","admin2_code":"Oymyakonskiy District (undefined)","admin3_code":"","admin4_code":"","population":"9148","elevation":"","dem":"492","timezone":"Asia/Magadan","modification_date":"2013-08-05"},{"geonameid":"2120129","name":"Uptar","asciiname":"Uptar","alternatenames":"Uptar,Уптар","latitude":"59.89923","longitude":"150.87376","feature_class":"P","feature_code":"PPL","country_code":"RU","cc2":"","admin1_code":"44","admin2_code":"","admin3_code":"","admin4_code":"","population":"2144","elevation":"","dem":"217","timezone":"Asia/Magadan","modification_date":"2014-06-26"},{"geonameid":"2120257","name":"Uglezavodsk","asciiname":"Uglezavodsk","alternatenames":"Higashi-Naibuchi,Khigasi-Naybut,Uglezavodsk,Углезаводск","latitude":"47.32332","longitude":"142.63317","feature_class":"P","feature_code":"PPL","country_code":"RU","cc2":"","admin1_code":"64","admin2_code":"","admin3_code":"","admin4_code":"","population":"1610","elevation":"","dem":"31","timezone":"Asia/Sakhalin","modification_date":"2014-06-26"},{"geonameid":"2120261","name":"Uglegorsk","asciiname":"Uglegorsk","alternatenames":"Esutoru,Esutoru-Hamashigai,Gorad Ugljagorsk,Hama-shigai,Ouglegorsk,Uglegorsk,Uqleqorsk,awghlyghwrsk,awglgwrsk  sakhalyn,awlygwrsk  skhaln awblast,ugeullegoleuseukeu,uguregorusuku,wu ge lie ge er si ke,Горад Углягорск,Углегорск,Угљегорск,أوغليغورسك,اولیگورسک، سخالن اوبلاست,اوگلگورسک، ساخالین,ウグレゴルスク,乌格列戈尔斯克,우글레고르스크","latitude":"49.08047","longitude":"142.06449","feature_class":"P","feature_code":"PPL","country_code":"RU","cc2":"","admin1_code":"64","admin2_code":"","admin3_code":"","admin4_code":"","population":"12669","elevation":"","dem":"8","timezone":"Asia/Sakhalin","modification_date":"2014-06-26"},{"geonameid":"2120334","name":"Tymovskoye","asciiname":"Tymovskoye","alternatenames":"Derbinsk,Derbinskoye,Tymovskoe,Tymovskoje,Tymovskoye,Тымовское","latitude":"50.84925","longitude":"142.6652","feature_class":"P","feature_code":"PPL","country_code":"RU","cc2":"","admin1_code":"64","admin2_code":"","admin3_code":"","admin4_code":"","population":"8030","elevation":"","dem":"117","timezone":"Asia/Sakhalin","modification_date":"2014-06-27"},{"geonameid":"2120400","name":"Tungor","asciiname":"Tungor","alternatenames":"Tungor,Тунгор","latitude":"53.39121","longitude":"142.95755","feature_class":"P","feature_code":"PPL","country_code":"RU","cc2":"","admin1_code":"64","admin2_code":"","admin3_code":"","admin4_code":"","population":"1322","elevation":"","dem":"41","timezone":"Asia/Sakhalin","modification_date":"2014-06-26"},{"geonameid":"2120452","name":"Troitskoye","asciiname":"Troitskoye","alternatenames":"Namikawa,Toroetsukoe,Troickoe,Troitskoje,Troitskoye,Troytskoye,Троицкое","latitude":"46.92493","longitude":"142.64532","feature_class":"P","feature_code":"PPL","country_code":"RU","cc2":"","admin1_code":"64","admin2_code":"","admin3_code":"","admin4_code":"","population":"3176","elevation":"","dem":"46","timezone":"Asia/Sakhalin","modification_date":"2012-10-06"},{"geonameid":"2120530","name":"Tomari","asciiname":"Tomari","alternatenames":"Tomari,Tomarioro,Tomarioru,Томари","latitude":"47.76482","longitude":"142.07106","feature_class":"P","feature_code":"PPL","country_code":"RU","cc2":"","admin1_code":"64","admin2_code":"","admin3_code":"","admin4_code":"","population":"4910","elevation":"","dem":"10","timezone":"Asia/Sakhalin","modification_date":"2014-05-08"},{"geonameid":"2120591","name":"Tilichiki","asciiname":"Tilichiki","alternatenames":"Telichiki,Tilichiki,Tilichiky,Tilighiki,Tilitsjiki,Тиличики","latitude":"60.42795","longitude":"166.05764","feature_class":"P","feature_code":"PPL","country_code":"RU","cc2":"","admin1_code":"92","admin2_code":"","admin3_code":"","admin4_code":"","population":"1968","elevation":"","dem":"12","timezone":"Asia/Kamchatka","modification_date":"2012-10-06"},{"geonameid":"2120612","name":"Tigil’","asciiname":"Tigil'","alternatenames":"Tigil,Tigil',Tigil’,Тигиль","latitude":"57.75979","longitude":"158.68161","feature_class":"P","feature_code":"PPL","country_code":"RU","cc2":"","admin1_code":"92","admin2_code":"","admin3_code":"","admin4_code":"","population":"1993","elevation":"","dem":"21","timezone":"Asia/Kamchatka","modification_date":"2012-10-06"},