{"nextFile":null,"rows":[{"geonameid":"76930","name":"As Sūq al Jadīd","asciiname":"As Suq al Jadid","alternatenames":"As Suq al Jadid,As Sūq al Jadīd,Bayt Hirash,Bayt Hirāsh,Suq Bayt Harrash,Sūq Bayt Harrāsh,alswq aljdyd,السوق الجديد","latitude":"15.82496","longitude":"44.06204","feature_class":"P","feature_code":"PPLA2","country_code":"YE","cc2":"","admin1_code":"19","admin2_code":"2910","admin3_code":"","admin4_code":"","population":"0","elevation":"","dem":"2190","timezone":"Asia/Aden","modification_date":"2012-01-16"},{"geonameid":"76991","name":"Bayt al Faqīh","asciiname":"Bayt al Faqih","alternatenames":"Bait al Faqih,Bait al Faqīh,Bayt al Fakih Ibn `Udjayl,Bayt al Fakih al-Saghir,Bayt al Fakīh Ibn ‘Udjayl,Bayt al Fakīh al-Saghīr,Bayt al Faqih,Bayt al Faqīh,Bayt al-Fakih,Bayt al-Fakīh,Beit Faqih,Beit el-Faqih,Beit el-Faqīh,Beit-el-Fakih,byt alfqyh,بيت الفقيه","latitude":"14.51635","longitude":"43.32446","feature_class":"P","feature_code":"PPLA2","country_code":"YE","cc2":"","admin1_code":"08","admin2_code":"1817","admin3_code":"","admin4_code":"","population":"34204","elevation":"","dem":"151","timezone":"Asia/Aden","modification_date":"2012-01-16"},{"geonameid":"77017","name":"Bayḩān","asciiname":"Bayhan","alternatenames":"Al-Kasab,Al-Kaṣāb,Baihan al-Qasab,Baiḥān al-Qaṣāb,Bayhan,Bayhan Qasab,Bayhan al Qasab,Bayhan al Qisab,Bayhan al Quisab,Bayḩān,Bayḩān al Qaşāb,Bayḩān al Qişāb,Beiha al Qasab,Beihan,Beihan Qasab,Beihā al Qasāb,Beuhan,Hisn `Abd Allah,Suq `Abd Allab,Sūq ‘Abd Allāb,byhan,بيحان,Ḥiṣn ‘Abd Allāh","latitude":"14.80067","longitude":"45.71889","feature_class":"P","feature_code":"PPLA2","country_code":"YE","cc2":"","admin1_code":"05","admin2_code":"2107","admin3_code":"","admin4_code":"","population":"0","elevation":"2","dem":"1127","timezone":"Asia/Aden","modification_date":"2012-01-16"},{"geonameid":"77278","name":"Banī Ḩujjāj","asciiname":"Bani Hujjaj","alternatenames":"Bani Hajjaj,Bani Hujjaj,Banī Ḩajjāj,Banī Ḩujjāj","latitude":"15.41683","longitude":"43.3193","feature_class":"P","feature_code":"PPLA2","country_code":"YE","cc2":"","admin1_code":"10","admin2_code":"2705","admin3_code":"","admin4_code":"","population":"0","elevation":"","dem":"745","timezone":"Asia/Aden","modification_date":"2016-01-07"},{"geonameid":"77307","name":"Banī Bakr","asciiname":"Bani Bakr","alternatenames":"Bani Bakk,Bani Bakr,Bani Baq,Banī Bakk,Banī Bakr,Banī Baq,bny bkr,بني بكر","latitude":"13.93333","longitude":"45.26667","feature_class":"P","feature_code":"PPLA2","country_code":"YE","cc2":"","admin1_code":"24","admin2_code":"2501","admin3_code":"","admin4_code":"","population":"0","elevation":"","dem":"2154","timezone":"Asia/Aden","modification_date":"2012-01-16"},{"geonameid":"77408","name":"Bājil","asciiname":"Bajil","alternatenames":"Badjil,Bagil,Bajil,Bâdjil,Bāgil,Bājil,bajl,باجل","latitude":"15.05898","longitude":"43.28731","feature_class":"P","feature_code":"PPLA2","country_code":"YE","cc2":"","admin1_code":"08","admin2_code":"1810","admin3_code":"","admin4_code":"","population":"48218","elevation":"","dem":"191","timezone":"Asia/Aden","modification_date":"2016-01-07"},{"geonameid":"77504","name":"Az Zuhrah","asciiname":"Az Zuhrah","alternatenames":"Az Zuhrah,Az Zurah,Ez-Zohrah,Zahira,Zahire,Zohra,alzhrt,الزهرة","latitude":"15.72377","longitude":"42.99582","feature_class":"P","feature_code":"PPLA2","country_code":"YE","cc2":"","admin1_code":"08","admin2_code":"1801","admin3_code":"","admin4_code":"","population":"0","elevation":"","dem":"70","timezone":"Asia/Aden","modification_date":"2012-01-16"},{"geonameid":"77515","name":"Az Zaydīyah","asciiname":"Az Zaydiyah","alternatenames":"Az Zadiyah,Az Zadīyah,Az Zaydiyah,Az Zaydīyah,Ez-Zaidiyyah,Zaida,Zaidiya,Zaidīya,Zaydiyah,Zaydīyah,Zeidie,Zeidiya,alzydyt,الزيدية","latitude":"15.33049","longitude":"43.00633","feature_class":"P","feature_code":"PPLA2","country_code":"YE","cc2":"","admin1_code":"08","admin2_code":"1807","admin3_code":"","admin4_code":"","population":"0","elevation":"","dem":"59","timezone":"Asia/Aden","modification_date":"2016-01-07"},{"geonameid":"77529","name":"Az Zāhir","asciiname":"Az Zahir","alternatenames":"Al Zahir,Az Zahir,Az Zāhir,alzahr,الزاهر","latitude":"16.31733","longitude":"44.49505","feature_class":"P","feature_code":"PPLA2","country_code":"YE","cc2":"","admin1_code":"21","admin2_code":"1604","admin3_code":"","admin4_code":"","population":"0","elevation":"","dem":"1206","timezone":"Asia/Aden","modification_date":"2015-02-05"},{"geonameid":"77594","name":"Al Ḩajab","asciiname":"Al Hajab","alternatenames":"Ain,Al Hajab,Al Ḩajab,`Ayn,alhjb,الحجب,عين,‘Ayn","latitude":"14.85192","longitude":"45.52904","feature_class":"P","feature_code":"PPLA2","country_code":"YE","cc2":"","admin1_code":"05","admin2_code":"2106","admin3_code":"","admin4_code":"","population":"0","elevation":"2","dem":"1203","timezone":"Asia/Aden","modification_date":"2012-01-16"},{"geonameid":"77636","name":"Al ‘Awābil","asciiname":"Al `Awabil","alternatenames":"Abawil,Al `Awabil,Al ‘Awābil,`Awabil,العوابل,عوابل,‘Awābil","latitude":"13.83755","longitude":"44.86431","feature_class":"P","feature_code":"PPLA2","country_code":"YE","cc2":"","admin1_code":"18","admin2_code":"3004","admin3_code":"","admin4_code":"","population":"0","elevation":"","dem":"2058","timezone":"Asia/Aden","modification_date":"2012-01-16"},{"geonameid":"77646","name":"At Turbah","asciiname":"At Turbah","alternatenames":"At Turbah,altrbt,التربة","latitude":"13.2127","longitude":"44.12415","feature_class":"P","feature_code":"PPLA2","country_code":"YE","cc2":"","admin1_code":"25","admin2_code":"1515","admin3_code":"","admin4_code":"","population":"0","elevation":"","dem":"1877","timezone":"Asia/Aden","modification_date":"2012-01-16"},{"geonameid":"77655","name":"Al Tuḩaytā’","asciiname":"Al Tuhayta'","alternatenames":"Al Tuhayta',Al Tuḩaytā’,At Tahaytha,At Taḩaythā,At Tuhayta,At Tuhaytah,At Tuhaytha,At Tuḩayta,At Tuḩaytah,At Tuḩaythā,Tahaite,التحيتاء","latitude":"14.18356","longitude":"43.22637","feature_class":"P","feature_code":"PPLA2","country_code":"YE","cc2":"","admin1_code":"08","admin2_code":"1826","admin3_code":"","admin4_code":"","population":"0","elevation":"","dem":"64","timezone":"Asia/Aden","modification_date":"2012-01-16"},{"geonameid":"77662","name":"At Tawāhī","asciiname":"At Tawahi","alternatenames":"At Tawahi,At Tawāhī,Steamer Point,Streamer Point,Tawahi,Tawajih,Tawayih,Tawayih Town,Tawāhī,Tawāyih,altwahy,التواهي","latitude":"12.78471","longitude":"44.9802","feature_class":"P","feature_code":"PPLA2","country_code":"YE","cc2":"","admin1_code":"02","admin2_code":"2405","admin3_code":"","admin4_code":"","population":"0","elevation":"","dem":"33","timezone":"Asia/Aden","modification_date":"2012-01-16"},{"geonameid":"77726","name":"Ataq","asciiname":"Ataq","alternatenames":"'Ataq,AXK,Ataq,Attak,Attaq,`Ataq,عتق,‘Ataq,‘Atāq","latitude":"14.53767","longitude":"46.83187","feature_class":"P","feature_code":"PPLA","country_code":"YE","cc2":"","admin1_code":"05","admin2_code":"2113","admin3_code":"","admin4_code":"","population":"37315","elevation":"","dem":"1148","timezone":"Asia/Aden","modification_date":"2013-08-08"},{"geonameid":"77772","name":"As Sūdah","asciiname":"As Sudah","alternatenames":"As Sauda,As Sawda',As Sawdā’,As Sudah,As Sūdah,Es-Sudah,Es-Sūdah,Sawda',Sawdā’,Suda,Sudah,Sūdah,alswdt,السودة","latitude":"15.95861","longitude":"43.78083","feature_class":"P","feature_code":"PPLA2","country_code":"YE","cc2":"","admin1_code":"19","admin2_code":"2913","admin3_code":"","admin4_code":"","population":"0","elevation":"","dem":"2035","timezone":"Asia/Aden","modification_date":"2012-01-16"},{"geonameid":"77791","name":"As Sayyānī","asciiname":"As Sayyani","alternatenames":"Al Sayyan`,Al Sayyan‘,As Sayamin,As Sayani,As Sayyani,As Sayyānī,As Sayāmin,As Sayānī,alsyany,السياني","latitude":"13.84266","longitude":"44.17395","feature_class":"P","feature_code":"PPLA2","country_code":"YE","cc2":"","admin1_code":"23","admin2_code":"1115","admin3_code":"","admin4_code":"","population":"0","elevation":"","dem":"1865","timezone":"Asia/Aden","modification_date":"2012-01-16"},{"geonameid":"77800","name":"Aş Şawma‘ah","asciiname":"As Sawma`ah","alternatenames":"Al-Sauma'ah,Al-Sauma’ah,As Sawma`ah,Aş Şawma‘ah,Saum'a,Saum’a,الصومعة","latitude":"14.08505","longitude":"45.80101","feature_class":"P","feature_code":"PPLA2","country_code":"YE","cc2":"","admin1_code":"20","admin2_code":"1404","admin3_code":"","admin4_code":"","population":"0","elevation":"","dem":"2040","timezone":"Asia/Aden","modification_date":"2012-01-16"},{"geonameid":"77803","name":"Al Bilād","asciiname":"Al Bilad","alternatenames":"Al Bilad,Al Bilād,Al-Saum,As Sawm,As Som,alblad,البلاد","latitude":"16.13806","longitude":"49.29167","feature_class":"P","feature_code":"PPLA2","country_code":"YE","cc2":"","admin1_code":"04","admin2_code":"1912","admin3_code":"","admin4_code":"","population":"0","elevation":"","dem":"561","timezone":"Asia/Aden","modification_date":"2012-01-16"},{"geonameid":"77809","name":"As Sawādīyah","asciiname":"As Sawadiyah","alternatenames":"Al Sawadiyyah,Al Sawādiyyah,As Sawadiyah,As Sawādīyah,As Suwadi,As Suwadiyah,As Suwādī,As Suwādīyah,Sawadi,Suwadi,alswadyt,السوادية","latitude":"14.30113","longitude":"45.22148","feature_class":"P","feature_code":"PPLA2","country_code":"YE","cc2":"","admin1_code":"20","admin2_code":"1411","admin3_code":"","admin4_code":"","population":"0","elevation":"","dem":"1962","timezone":"Asia/Aden","modification_date":"2012-01-16"},{"geonameid":"77843","name":"Aş Şalīf","asciiname":"As Salif","alternatenames":"As Salif,Aş Şalīf,Salif,Saliff,alslyf,Şalīf,الصليف","latitude":"15.30755","longitude":"42.67107","feature_class":"P","feature_code":"PPLA2","country_code":"YE","cc2":"","admin1_code":"08","admin2_code":"1804","admin3_code":"","admin4_code":"","population":"0","elevation":"","dem":"4","timezone":"Asia/Aden","modification_date":"2015-12-05"},{"geonameid":"77862","name":"Said","asciiname":"Said","alternatenames":"Al Said,As Sa`id,Aş Şa‘īd,Said,الصعيد","latitude":"14.33011","longitude":"46.87292","feature_class":"P","feature_code":"PPLA2","country_code":"YE","cc2":"","admin1_code":"05","admin2_code":"2112","admin3_code":"","admin4_code":"","population":"0","elevation":"","dem":"1253","timezone":"Asia/Aden","modification_date":"2012-01-16"},{"geonameid":"77872","name":"Aş Şafaqayn","asciiname":"As Safaqayn","alternatenames":"As Safaqayn,As Safqayn,Aş Şafaqayn,Aş Şafqayn,alsfqyn,الصفقين","latitude":"15.37922","longitude":"43.42046","feature_class":"P","feature_code":"PPLA2","country_code":"YE","cc2":"","admin1_code":"10","admin2_code":"2706","admin3_code":"","admin4_code":"","population":"0","elevation":"","dem":"2157","timezone":"Asia/Aden","modification_date":"2016-01-07"},{"geonameid":"77881","name":"As Saddah","asciiname":"As Saddah","alternatenames":"As Saddah,Sadda,Sauda,alsdt,السدة","latitude":"14.1221","longitude":"44.42139","feature_class":"P","feature_code":"PPLA2","country_code":"YE","cc2":"","admin1_code":"23","admin2_code":"1106","admin3_code":"","admin4_code":"","population":"0","elevation":"","dem":"2205","timezone":"Asia/Aden","modification_date":"2012-01-16"},{"geonameid":"77940","name":"Ash Shaykh ‘Uthmān","asciiname":"Ash Shaykh `Uthman","alternatenames":"Ash Shaykh `Uthman,Ash Shaykh ‘Uthmān,Shaikh Othman,Shakh `Uthman,Shakh ‘Uthman,Shaykh `Uthman,Shaykh ‘Uthmān,Sheikh `Othman,Sheikh ‘Othman,Shekh Othman,Shāikh Othmān,الشيخ عثمان","latitude":"12.87678","longitude":"44.99309","feature_class":"P","feature_code":"PPLA2","country_code":"YE","cc2":"","admin1_code":"02","admin2_code":"2402","admin3_code":"","admin4_code":"","population":"0","elevation":"","dem":"12","timezone":"Asia/Aden","modification_date":"2012-01-16"},{"geonameid":"77946","name":"Ash Shaţţ","asciiname":"Ash Shatt","alternatenames":"Am Shat,Am Shatt,Am Shaţţ,Ash Shatt,Ash Shaţţ,alsht,am sht,أم شط,الشط","latitude":"12.89357","longitude":"44.03571","feature_class":"P","feature_code":"PPLA2","country_code":"YE","cc2":"","admin1_code":"24","admin2_code":"2513","admin3_code":"","admin4_code":"","population":"0","elevation":"","dem":"237","timezone":"Asia/Aden","modification_date":"2012-01-16"},{"geonameid":"77980","name":"Ash Shāhil","asciiname":"Ash Shahil","alternatenames":"Ash Shahil,Ash Shāhil,alshahl,الشاهل","latitude":"15.86656","longitude":"43.40495","feature_class":"P","feature_code":"PPLA2","country_code":"YE","cc2":"","admin1_code":"22","admin2_code":"1721","admin3_code":"","admin4_code":"","population":"0","elevation":"","dem":"1596","timezone":"Asia/Aden","modification_date":"2012-01-16"},{"geonameid":"77985","name":"Ash Shaghādirah","asciiname":"Ash Shaghadirah","alternatenames":"Ash Sha`adirah,Ash Shafadirah,Ash Shafādirah,Ash Shaghadirah,Ash Shaghādirah,Ash Sha‘ādirah,alshghadrt,الشغادرة","latitude":"15.62","longitude":"43.52056","feature_class":"P","feature_code":"PPLA2","country_code":"YE","cc2":"","admin1_code":"22","admin2_code":"1725","admin3_code":"","admin4_code":"","population":"0","elevation":"","dem":"1283","timezone":"Asia/Aden","modification_date":"2012-01-16"},{"geonameid":"78019","name":"Asdās","asciiname":"Asdas","alternatenames":"Asdas,Asdās,asdas,أسداس","latitude":"15.76601","longitude":"45.08151","feature_class":"P","feature_code":"PPLA2","country_code":"YE","cc2":"","admin1_code":"14","admin2_code":"2602","admin3_code":"","admin4_code":"","population":"0","elevation":"","dem":"1102","timezone":"Asia/Aden","modification_date":"2014-06-04"},{"geonameid":"78112","name":"Marbāţ","asciiname":"Marbat","alternatenames":"Al Robat,Al-Rubat,Al-Rubāṭ,Ar Ribat,Ar Ribāţ,Ar Rubat,Ar Rubāţ,Marbat,Marbāţ,alrbat,mrbat,الرباط,مرباط","latitude":"14.20567","longitude":"46.38811","feature_class":"P","feature_code":"PPLA2","country_code":"YE","cc2":"","admin1_code":"05","admin2_code":"2111","admin3_code":"","admin4_code":"","population":"0","elevation":"","dem":"1547","timezone":"Asia/Aden","modification_date":"2012-01-16"},{"geonameid":"78137","name":"Ar Rawḑah","asciiname":"Ar Rawdah","alternatenames":"Ar Raudha,Ar Rawdah,Ar Rawḑah,Rauda,Raudha,Rauḍa,Rawdah,Rawḑah,alrwdt,الروضة","latitude":"15.43251","longitude":"44.22399","feature_class":"P","feature_code":"PPLA2","country_code":"YE","cc2":"","admin1_code":"26","admin2_code":"1310","admin3_code":"","admin4_code":"","population":"0","elevation":"","dem":"2219","timezone":"Asia/Aden","modification_date":"2014-03-14"},{"geonameid":"78141","name":"Ar Rawḑah","asciiname":"Ar Rawdah","alternatenames":"Al-Raudah,Ar Rawdah,Ar Rawḑah,alrwdt,الروضة","latitude":"14.46725","longitude":"47.27638","feature_class":"P","feature_code":"PPLA2","country_code":"YE","cc2":"","admin1_code":"05","admin2_code":"2115","admin3_code":"","admin4_code":"","population":"0","elevation":"","dem":"839","timezone":"Asia/Aden","modification_date":"2014-03-05"},{"geonameid":"78379","name":"An Nādirah","asciiname":"An Nadirah","alternatenames":"An Nadirah,An Nādirah,alnadrt,النادرة","latitude":"14.09628","longitude":"44.47559","feature_class":"P","feature_code":"PPLA2","country_code":"YE","cc2":"","admin1_code":"23","admin2_code":"1104","admin3_code":"","admin4_code":"","population":"0","elevation":"","dem":"2154","timezone":"Asia/Aden","modification_date":"2012-01-16"},{"geonameid":"78428","name":"‘Amrān","asciiname":"'Amran","alternatenames":"`Amran,`Umran,عمران,‘Amrān,‘Umrān","latitude":"15.6594","longitude":"43.94385","feature_class":"P","feature_code":"PPLA","country_code":"YE","cc2":"","admin1_code":"19","admin2_code":"2915","admin3_code":"","admin4_code":"","population":"90792","elevation":"","dem":"2239","timezone":"Asia/Aden","modification_date":"2013-08-08"},{"geonameid":"78448","name":"‘Amd","asciiname":"`Amd","alternatenames":"`Amd,عمد,‘Amd","latitude":"15.3","longitude":"47.98333","feature_class":"P","feature_code":"PPLA2","country_code":"YE","cc2":"","admin1_code":"04","admin2_code":"1921","admin3_code":"","admin4_code":"","population":"0","elevation":"","dem":"1270","timezone":"Asia/Aden","modification_date":"2012-01-16"},{"geonameid":"78471","name":"Al Wuday‘","asciiname":"Al Wuday`","alternatenames":"Al Wuday`,Al Wuday‘,Am Wuday`,Am Wuthia,Am Wuḑay‘,Umm Wuday`,Umm Wuḑay‘,أم وضيع,الوضيع","latitude":"13.7721","longitude":"46.01785","feature_class":"P","feature_code":"PPLA2","country_code":"YE","cc2":"","admin1_code":"01","admin2_code":"1208","admin3_code":"","admin4_code":"","population":"0","elevation":"","dem":"796","timezone":"Asia/Aden","modification_date":"2012-01-16"},{"geonameid":"78543","name":"Al ‘Udayn","asciiname":"Al `Udayn","alternatenames":"Al `Udain,Al `Udayn,Al ‘Udain,Al ‘Udayn,El-`Udein,El-‘Udein,Udain,`Udayn,العدين,‘Udayn","latitude":"13.96918","longitude":"43.99673","feature_class":"P","feature_code":"PPLA2","country_code":"YE","cc2":"","admin1_code":"23","admin2_code":"1111","admin3_code":"","admin4_code":"","population":"0","elevation":"","dem":"1282","timezone":"Asia/Aden","modification_date":"2012-01-16"},{"geonameid":"78566","name":"Al Qurḩ","asciiname":"Al Qurh","alternatenames":"Al Qurh,Al Qurḩ,alqrh,القرح","latitude":"16.73333","longitude":"51.48333","feature_class":"P","feature_code":"PPLA2","country_code":"YE","cc2":"","admin1_code":"03","admin2_code":"2805","admin3_code":"","admin4_code":"","population":"0","elevation":"","dem":"621","timezone":"Asia/Aden","modification_date":"2012-01-16"},{"geonameid":"78675","name":"Al Qanāwiş","asciiname":"Al Qanawis","alternatenames":"Al Qanawis,Al Qanāwiş,alqnaws,القناوص","latitude":"15.49285","longitude":"43.1343","feature_class":"P","feature_code":"PPLA2","country_code":"YE","cc2":"","admin1_code":"08","admin2_code":"1806","admin3_code":"","admin4_code":"","population":"0","elevation":"","dem":"96","timezone":"Asia/Aden","modification_date":"2016-01-07"},{"geonameid":"78699","name":"Al Qaflah","asciiname":"Al Qaflah","alternatenames":"Al Qaflah,Al Qiflah,alqflt,القفلة","latitude":"16.31897","longitude":"43.76792","feature_class":"P","feature_code":"PPLA2","country_code":"YE","cc2":"","admin1_code":"19","admin2_code":"2904","admin3_code":"","admin4_code":"","population":"0","elevation":"","dem":"1305","timezone":"Asia/Aden","modification_date":"2012-01-16"},{"geonameid":"78708","name":"Qaryat al Qābil","asciiname":"Qaryat al Qabil","alternatenames":"Al Qabil,Al Qābil,Qabil,Qaryat al Qabil,Qaryat al Qābil,Qābil,qryt alqabl,قرية القابل","latitude":"15.45033","longitude":"44.12768","feature_class":"P","feature_code":"PPLA2","country_code":"YE","cc2":"","admin1_code":"26","admin2_code":"1310","admin3_code":"","admin4_code":"","population":"0","elevation":"","dem":"2250","timezone":"Asia/Aden","modification_date":"2014-03-14"},{"geonameid":"78713","name":"Āl Ma‘ūdah","asciiname":"Al Ma`udah","alternatenames":"Al Hukumah,Al Hukūmah,Al Ma`udah,Al Qa`,Al Qā‘,At taffah,Aţ ţaffah,Qaryat Al Ma`udah,Qaryat Āl Ma‘ūdah,alhkwmt,altft,Āl Ma‘ūdah,ال معوضة,الحكومة,الطفة","latitude":"14.21055","longitude":"45.38732","feature_class":"P","feature_code":"PPLA2","country_code":"YE","cc2":"","admin1_code":"20","admin2_code":"1407","admin3_code":"","admin4_code":"","population":"0","elevation":"","dem":"2006","timezone":"Asia/Aden","modification_date":"2012-02-28"},{"geonameid":"78742","name":"Al Munīrah","asciiname":"Al Munirah","alternatenames":"Al Munayrah,Al Munirah,Al Munīrah,Manaru,Munayrah,Munera,almnyrt,المنيرة","latitude":"15.32251","longitude":"42.93005","feature_class":"P","feature_code":"PPLA2","country_code":"YE","cc2":"","admin1_code":"08","admin2_code":"1805","admin3_code":"","admin4_code":"","population":"0","elevation":"","dem":"39","timezone":"Asia/Aden","modification_date":"2015-12-05"},{"geonameid":"78754","name":"Al Mukallā","asciiname":"Al Mukalla","alternatenames":"Al Mukalla,Al Mukallā,Al'-Mukalla,Al-Mukalla,MKX,Mukalla,almkla,Аль-Мукалла,المكلا","latitude":"14.54248","longitude":"49.12424","feature_class":"P","feature_code":"PPLA","country_code":"YE","cc2":"","admin1_code":"04","admin2_code":"1929","admin3_code":"","admin4_code":"","population":"258132","elevation":"","dem":"39","timezone":"Asia/Aden","modification_date":"2015-06-05"},{"geonameid":"78776","name":"Al Misrākh","asciiname":"Al Misrakh","alternatenames":"Al Misrah,Al Misrakh,Al Misrākh,Al Misrākḩ,Al Misrāḩ,almsrakh,المسراخ","latitude":"13.46059","longitude":"44.02043","feature_class":"P","feature_code":"PPLA2","country_code":"YE","cc2":"","admin1_code":"25","admin2_code":"1512","admin3_code":"","admin4_code":"","population":"0","elevation":"","dem":"1354","timezone":"Asia/Aden","modification_date":"2012-01-16"},{"geonameid":"78814","name":"Al Milāḩ","asciiname":"Al Milah","alternatenames":"Al Milah,Al Milāḩ,almlah,الملاح","latitude":"13.42611","longitude":"44.82556","feature_class":"P","feature_code":"PPLA2","country_code":"YE","cc2":"","admin1_code":"24","admin2_code":"2508","admin3_code":"","admin4_code":"","population":"0","elevation":"","dem":"530","timezone":"Asia/Aden","modification_date":"2012-01-16"},{"geonameid":"78823","name":"Al Mighlāf","asciiname":"Al Mighlaf","alternatenames":"Al Mighlaf,Al Mighlāf,almghlaf,المغلاف","latitude":"15.28772","longitude":"43.1891","feature_class":"P","feature_code":"PPLA2","country_code":"YE","cc2":"","admin1_code":"08","admin2_code":"1808","admin3_code":"","admin4_code":"","population":"0","elevation":"","dem":"132","timezone":"Asia/Aden","modification_date":"2016-01-07"},{"geonameid":"78905","name":"Markaz al Marīr","asciiname":"Markaz al Marir","alternatenames":"Al Marir,Al Marīr,El-Marir,El-Marīr,Marir,Markaz al Marir,Markaz al Marīr,mrkz almryr,مركز المرير","latitude":"13.98178","longitude":"43.59547","feature_class":"P","feature_code":"PPLA2","country_code":"YE","cc2":"","admin1_code":"08","admin2_code":"1818","admin3_code":"","admin4_code":"","population":"0","elevation":"","dem":"328","timezone":"Asia/Aden","modification_date":"2012-01-16"},{"geonameid":"78909","name":"Al Marāwi‘ah","asciiname":"Al Marawi`ah","alternatenames":"Al Marawi`ah,Al Marāwi‘ah,El Marawa`ah,El Marāwa‘ah,Maraw'ah,Marawa,Marawa'ah,Marawi`ah,Marāwa’ah,Marāwi‘ah,Marāw’ah,Murawa`ah,Murāwa‘ah,المراوعة","latitude":"14.83069","longitude":"43.15391","feature_class":"P","feature_code":"PPLA2","country_code":"YE","cc2":"","admin1_code":"08","admin2_code":"1813","admin3_code":"","admin4_code":"","population":"0","elevation":"","dem":"77","timezone":"Asia/Aden","modification_date":"2012-01-16"},{"geonameid":"78929","name":"Al Manşūrīyah","asciiname":"Al Mansuriyah","alternatenames":"Al Mansuriah,Al Mansuriyah,Al Mansuriyyah,Al Manşūrīah,Al Manşūrīyah,Al Manşūrīyyah,El-Mansuriyyah,El-Manşūriyyah,Mansuriya,Mansuriyah,Manşurīyah,almnswryt,المنصورية","latitude":"14.6856","longitude":"43.29922","feature_class":"P","feature_code":"PPLA2","country_code":"YE","cc2":"","admin1_code":"08","admin2_code":"1816","admin3_code":"","admin4_code":"","population":"0","elevation":"","dem":"122","timezone":"Asia/Aden","modification_date":"2012-01-16"},{"geonameid":"78931","name":"Al Manşūrah","asciiname":"Al Mansurah","alternatenames":"Al Mansura,Al Mansurah,Al Mansuri,Al Manşūrah,Al Manşūrī,almnswrt,المنصورة","latitude":"12.86019","longitude":"44.98166","feature_class":"P","feature_code":"PPLA2","country_code":"YE","cc2":"","admin1_code":"02","admin2_code":"2403","admin3_code":"","admin4_code":"","population":"0","elevation":"","dem":"16","timezone":"Asia/Aden","modification_date":"2012-01-16"},{"geonameid":"78964","name":"Al Makhādir","asciiname":"Al Makhadir","alternatenames":"Al Makhadir,Al Makhādir,El-Makhadir,El-Makhādir,Makhadar,Mekhader,almkhadr,المخادر","latitude":"14.12224","longitude":"44.19797","feature_class":"P","feature_code":"PPLA2","country_code":"YE","cc2":"","admin1_code":"23","admin2_code":"1107","admin3_code":"","admin4_code":"","population":"0","elevation":"","dem":"1725","timezone":"Asia/Aden","modification_date":"2012-01-16"},{"geonameid":"78977","name":"Al Maḩwīt","asciiname":"Al Mahwit","alternatenames":"Al Mahwit,Al Maḩwīt,El-Mahwit,El-Maḩwīt,Mahwait,Mahweit,Mahwit,Maḩwīt,almhwyt,المحويت","latitude":"15.47007","longitude":"43.54481","feature_class":"P","feature_code":"PPLA","country_code":"YE","cc2":"","admin1_code":"10","admin2_code":"2708","admin3_code":"","admin4_code":"","population":"10593","elevation":"","dem":"2124","timezone":"Asia/Aden","modification_date":"2013-08-11"},{"geonameid":"78991","name":"Al Maḩfid","asciiname":"Al Mahfid","alternatenames":"Al Mahfaz,Al Mahfid,Al Mahfidh,Al Maḩfaz̧,Al Maḩfid,Al Maḩfidh,Al-Mahfad,Mahfad,Mahfid,Mahfidh,Maḥfid,almhfd,المحفد","latitude":"14.05847","longitude":"46.91329","feature_class":"P","feature_code":"PPLA2","country_code":"YE","cc2":"","admin1_code":"01","admin2_code":"1201","admin3_code":"","admin4_code":"","population":"0","elevation":"","dem":"660","timezone":"Asia/Aden","modification_date":"2012-02-01"},{"geonameid":"79006","name":"Al Maḩābishah","asciiname":"Al Mahabishah","alternatenames":"Al Mahabishah,Al Maḩābishah,El-Mahabishah,El-Maḥābishah,Mahabeshe","latitude":"15.94758","longitude":"43.43587","feature_class":"P","feature_code":"PPLA2","country_code":"YE","cc2":"","admin1_code":"22","admin2_code":"1715","admin3_code":"","admin4_code":"","population":"0","elevation":"","dem":"1570","timezone":"Asia/Aden","modification_date":"2012-01-16"},{"geonameid":"79050","name":"Al Luḩayyah","asciiname":"Al Luhayyah","alternatenames":"Al Luhayyah,Al Luḩayyah,Al-Luhayya,Al-Luḥayya,El-Loheyyah,El-Loḥeyyah,Lahiyah,Laḩīyah,Loheiya,Lohisa,Luhaiya,allhyt,اللحية","latitude":"15.70309","longitude":"42.69093","feature_class":"P","feature_code":"PPLA2","country_code":"YE","cc2":"","admin1_code":"08","admin2_code":"1802","admin3_code":"","admin4_code":"","population":"0","elevation":"","dem":"6","timezone":"Asia/Aden","modification_date":"2012-01-16"},{"geonameid":"79088","name":"Kirsh","asciiname":"Kirsh","alternatenames":"Al Kirsh,Kirsh,krsh,كرش","latitude":"13.36473","longitude":"44.49046","feature_class":"P","feature_code":"PPLA2","country_code":"YE","cc2":"","admin1_code":"24","admin2_code":"2510","admin3_code":"","admin4_code":"","population":"0","elevation":"","dem":"716","timezone":"Asia/Aden","modification_date":"2012-01-16"},{"geonameid":"79131","name":"Al Khawkhah","asciiname":"Al Khawkhah","alternatenames":"Al Khawhah,Al Khawkah,Al Khawkhah,Khauha,Khaukhan,Khokha,alkhwkht,الخوخة","latitude":"13.8071","longitude":"43.2493","feature_class":"P","feature_code":"PPLA2","country_code":"YE","cc2":"","admin1_code":"08","admin2_code":"1820","admin3_code":"","admin4_code":"","population":"0","elevation":"","dem":"10","timezone":"Asia/Aden","modification_date":"2012-01-16"},{"geonameid":"79219","name":"Al Jurbah","asciiname":"Al Jurbah","alternatenames":"Al Jurbah,Jurba,aljrbt,الجربة","latitude":"13.7915","longitude":"45.15894","feature_class":"P","feature_code":"PPLA2","country_code":"YE","cc2":"","admin1_code":"24","admin2_code":"2503","admin3_code":"","admin4_code":"","population":"0","elevation":"","dem":"2260","timezone":"Asia/Aden","modification_date":"2012-01-16"},{"geonameid":"79284","name":"Al Jarrāḩī","asciiname":"Al Jarrahi","alternatenames":"Al Jarrahi,Al Jarrāḩī,El-Giarrahi,El-Giarrāḥī,Jerahi,Suq al Jarrahi,Sūq al Jarrāḩī,aljrahy,الجراحي","latitude":"14.13254","longitude":"43.38845","feature_class":"P","feature_code":"PPLA2","country_code":"YE","cc2":"","admin1_code":"08","admin2_code":"1825","admin3_code":"","admin4_code":"","population":"0","elevation":"","dem":"163","timezone":"Asia/Aden","modification_date":"2012-01-16"},{"geonameid":"79384","name":"Al Ḩusayn","asciiname":"Al Husayn","alternatenames":"Al Husain,Al Husayn,Al Husen,Al Ḩusayn,alhsyn,الحصين","latitude":"13.79199","longitude":"44.76886","feature_class":"P","feature_code":"PPLA2","country_code":"YE","cc2":"","admin1_code":"18","admin2_code":"3005","admin3_code":"","admin4_code":"","population":"0","elevation":"","dem":"1386","timezone":"Asia/Aden","modification_date":"2012-01-16"},{"geonameid":"79393","name":"Ḩurayḑah","asciiname":"Huraydah","alternatenames":"Al Huraydah,Al Ḩurayḑah,Al-Huraidah,Huraidha,Huraydah,hrydt,حريضة,Ḩurayḑah","latitude":"15.59861","longitude":"48.18278","feature_class":"P","feature_code":"PPLA2","country_code":"YE","cc2":"","admin1_code":"04","admin2_code":"1928","admin3_code":"","admin4_code":"","population":"0","elevation":"","dem":"838","timezone":"Asia/Aden","modification_date":"2012-01-16"},{"geonameid":"79415","name":"Al Ḩudaydah","asciiname":"Al Hudaydah","alternatenames":"Al Hudaydah,Al Ḩudaydah,El-Hodeidah,El-Ḥodeidah,Hodaidah,Hodeida,Hudaida,Hudaydah,alhdydt,hdydh,الحديدة,حدیده,Ḩudaydah","latitude":"14.79781","longitude":"42.95452","feature_class":"P","feature_code":"PPLA","country_code":"YE","cc2":"","admin1_code":"08","admin2_code":"1821","admin3_code":"","admin4_code":"","population":"617871","elevation":"","dem":"10","timezone":"Asia/Aden","modification_date":"2014-01-04"},{"geonameid":"79455","name":"Al Ḩazm","asciiname":"Al Hazm","alternatenames":"Al Hazm,Al Ḩazm,El-Hazm,El-Ḥazm,Hazm,Hazm al Jawf,alhzm,الحزم,Ḩazm al Jawf","latitude":"16.16406","longitude":"44.77692","feature_class":"P","feature_code":"PPLA","country_code":"YE","cc2":"","admin1_code":"21","admin2_code":"1605","admin3_code":"","admin4_code":"","population":"18241","elevation":"","dem":"1116","timezone":"Asia/Aden","modification_date":"2013-08-11"},{"geonameid":"79478","name":"Al Qaţan","asciiname":"Al Qatan","alternatenames":"Al Hawtah,Al Qatan,Al Qatn,Al Qaţan,Al Qaţn,Al Ḩawţah,Al-Hautah,Hauta,Qatan,Qaţan,alqtn,القطن","latitude":"15.84056","longitude":"48.45556","feature_class":"P","feature_code":"PPLA2","country_code":"YE","cc2":"","admin1_code":"04","admin2_code":"1907","admin3_code":"","admin4_code":"","population":"0","elevation":"","dem":"684","timezone":"Asia/Aden","modification_date":"2016-02-06"},{"geonameid":"79531","name":"Al Ḩarf","asciiname":"Al Harf","alternatenames":"Al Harf,Al Ḩarf,alhrf,الحرف","latitude":"16.36395","longitude":"44.09421","feature_class":"P","feature_code":"PPLA2","country_code":"YE","cc2":"","admin1_code":"19","admin2_code":"2901","admin3_code":"","admin4_code":"","population":"0","elevation":"","dem":"1570","timezone":"Asia/Aden","modification_date":"2012-01-16"},{"geonameid":"79609","name":"Ḩajar al Mushā’ikh","asciiname":"Hajar al Musha'ikh","alternatenames":"Al Hajar,Al Hayr,Al Ḩajar,Al Ḩayr,Al-Hair,Al-Ḥair,Hajar al Musha'ikh,hjr almshaykh,حجر المشائخ,Ḩajar al Mushā’ikh","latitude":"16.13333","longitude":"47.83333","feature_class":"P","feature_code":"PPLA2","country_code":"YE","cc2":"","admin1_code":"04","admin2_code":"1905","admin3_code":"","admin4_code":"","population":"0","elevation":"","dem":"1236","timezone":"Asia/Aden","modification_date":"2012-01-16"},{"geonameid":"79700","name":"Al Ghayz̧ah","asciiname":"Al Ghayzah","alternatenames":"Al Ghaydah,Al Ghayzah,Al Ghayz̧ah,Al Ghayḑah,Ghaidha,al-Ghaida,alghydt,alghyzt,الغيضة,الغيظة","latitude":"16.20787","longitude":"52.17605","feature_class":"P","feature_code":"PPLA","country_code":"YE","cc2":"","admin1_code":"03","admin2_code":"2804","admin3_code":"","admin4_code":"","population":"10948","elevation":"","dem":"17","timezone":"Asia/Aden","modification_date":"2014-08-18"},{"geonameid":"79799","name":"Al Burayqah","asciiname":"Al Burayqah","alternatenames":"Al Burayqah,Bir Burayqah,Buraikha,Bureika,albryqt,البريقة","latitude":"12.73944","longitude":"44.88417","feature_class":"P","feature_code":"PPLA2","country_code":"YE","cc2":"","admin1_code":"02","admin2_code":"2404","admin3_code":"","admin4_code":"","population":"0","elevation":"","dem":"14","timezone":"Asia/Aden","modification_date":"2014-03-05"},{"geonameid":"79836","name":"Al Bayḑā’","asciiname":"Al Bayda'","alternatenames":"Al Bayda',Al Bayḑā’,Al Beidha,Al-Baida,Al-Baidhah,Al-Baidā,Beida,Beidha,البيضاء","latitude":"13.98523","longitude":"45.57272","feature_class":"P","feature_code":"PPLA","country_code":"YE","cc2":"","admin1_code":"20","admin2_code":"1409","admin3_code":"","admin4_code":"","population":"37821","elevation":"","dem":"2005","timezone":"Asia/Aden","modification_date":"2012-01-16"},{"geonameid":"79845","name":"Al Bāţinah","asciiname":"Al Batinah","alternatenames":"Al Batinah,Al Bāţinah,albatnt,الباطنة","latitude":"15.48333","longitude":"48.43333","feature_class":"P","feature_code":"PPLA2","country_code":"YE","cc2":"","admin1_code":"04","admin2_code":"1919","admin3_code":"","admin4_code":"","population":"0","elevation":"","dem":"948","timezone":"Asia/Aden","modification_date":"2012-01-16"},{"geonameid":"79967","name":"Al ‘Āqir","asciiname":"Al `Aqir","alternatenames":"Al `Aqir,Al ‘Āqir,Am `Aqir,Am ‘Āqir,العاقر","latitude":"14.56816","longitude":"45.91156","feature_class":"P","feature_code":"PPLA2","country_code":"YE","cc2":"","admin1_code":"05","admin2_code":"2108","admin3_code":"","admin4_code":"","population":"0","elevation":"2","dem":"1202","timezone":"Asia/Aden","modification_date":"2012-01-16"},{"geonameid":"80105","name":"Aḩwar","asciiname":"Ahwar","alternatenames":"Ahwar,Aḩwar,ahwr,أحور","latitude":"13.52019","longitude":"46.71367","feature_class":"P","feature_code":"PPLA2","country_code":"YE","cc2":"","admin1_code":"01","admin2_code":"1209","admin3_code":"","admin4_code":"","population":"0","elevation":"","dem":"36","timezone":"Asia/Aden","modification_date":"2014-06-04"},{"geonameid":"80309","name":"Ad Durayhimī","asciiname":"Ad Durayhimi","alternatenames":"Ad Dayr Bahmi,Ad Dayr Bahmī,Ad Dayr Fahmi,Ad Dayr Fahmī,Ad Durayhimi,Ad Durayhimī,Al Durayhami,aldryhmy,الدريهمي","latitude":"14.63702","longitude":"43.05505","feature_class":"P","feature_code":"PPLA2","country_code":"YE","cc2":"","admin1_code":"08","admin2_code":"1814","admin3_code":"","admin4_code":"","population":"0","elevation":"","dem":"25","timezone":"Asia/Aden","modification_date":"2012-01-16"},{"geonameid":"80331","name":"Ad Dīs ash Sharqīyah","asciiname":"Ad Dis ash Sharqiyah","alternatenames":"Ad Dis,Ad Dis ash Sharqiyah,Ad Dīs,Ad Dīs ash Sharqīyah,Dis,Dīs,aldys alshrqyt,الديس الشرقية","latitude":"14.9084","longitude":"49.94847","feature_class":"P","feature_code":"PPLA2","country_code":"YE","cc2":"","admin1_code":"04","admin2_code":"1914","admin3_code":"","admin4_code":"","population":"0","elevation":"","dem":"75","timezone":"Asia/Aden","modification_date":"2016-02-06"},{"geonameid":"80336","name":"Ad Dimnah","asciiname":"Ad Dimnah","alternatenames":"Ad Dimnah,aldmnt,الدمنة","latitude":"13.45398","longitude":"44.18168","feature_class":"P","feature_code":"PPLA2","country_code":"YE","cc2":"","admin1_code":"25","admin2_code":"1513","admin3_code":"","admin4_code":"","population":"0","elevation":"","dem":"1236","timezone":"Asia/Aden","modification_date":"2012-01-16"},{"geonameid":"80379","name":"Ad Dann","asciiname":"Ad Dann","alternatenames":"Ad Dan,Ad Dann,Dann,Dun,aldn,الدن","latitude":"14.3518","longitude":"43.85275","feature_class":"P","feature_code":"PPLA2","country_code":"YE","cc2":"","admin1_code":"11","admin2_code":"2006","admin3_code":"","admin4_code":"","population":"0","elevation":"","dem":"2480","timezone":"Asia/Aden","modification_date":"2012-01-16"},{"geonameid":"80383","name":"Az̧ Z̧alī‘ah","asciiname":"Az Zali`ah","alternatenames":"Ad Dali`ah,Ad Dalī‘ah,Al-Dali`ah,Al-Dalī‘ah,Az Zali`ah,Az̧ Z̧alī‘ah,Dhula,Dhula'a,Dhula’a,الظليعة","latitude":"15.01667","longitude":"48.01667","feature_class":"P","feature_code":"PPLA2","country_code":"YE","cc2":"","admin1_code":"04","admin2_code":"1922","admin3_code":"","admin4_code":"","population":"0","elevation":"","dem":"1398","timezone":"Asia/Aden","modification_date":"2012-01-16"},{"geonameid":"80384","name":"Dhalie","asciiname":"Dhalie","alternatenames":"Ad Dali`,Adh Dhala`,Adh Dhāla‘,Aḑ Ḑāli‘,Dali`,Dhala,Dhalie,الضالع,Ḑāli‘","latitude":"13.69572","longitude":"44.73137","feature_class":"P","feature_code":"PPLA","country_code":"YE","cc2":"","admin1_code":"18","admin2_code":"3006","admin3_code":"","admin4_code":"","population":"14760","elevation":"","dem":"1517","timezone":"Asia/Aden","modification_date":"2013-08-11"},{"geonameid":"80393","name":"Dhahi","asciiname":"Dhahi","alternatenames":"Ad Dahi,Aḑ Ḑaḩī,Dhahi,Ed-Dahi,Eḍ-Ḍaḥī,aldhy,الضحي","latitude":"15.21518","longitude":"43.0702","feature_class":"P","feature_code":"PPLA2","country_code":"YE","cc2":"","admin1_code":"08","admin2_code":"1809","admin3_code":"","admin4_code":"","population":"0","elevation":"","dem":"78","timezone":"Asia/Aden","modification_date":"2016-01-07"},{"geonameid":"400734","name":"Markaz Bilād aţ Ţa‘ām","asciiname":"Markaz Bilad at Ta`am","alternatenames":"Markaz Bilad at Ta`am,Markaz Bilād aţ Ţa‘ām,مركز بلاد الطعام","latitude":"14.83361","longitude":"43.53639","feature_class":"P","feature_code":"PPLA2","country_code":"YE","cc2":"","admin1_code":"27","admin2_code":"3101","admin3_code":"","admin4_code":"","population":"0","elevation":"","dem":"1689","timezone":"Asia/Aden","modification_date":"2012-02-02"},{"geonameid":"401000","name":"Al Jum‘ah","asciiname":"Al Jum`ah","alternatenames":"Al Jum`ah,Al Jum‘ah,الجمعة","latitude":"14.73779","longitude":"43.96489","feature_class":"P","feature_code":"PPLA2","country_code":"YE","cc2":"","admin1_code":"11","admin2_code":"2003","admin3_code":"","admin4_code":"","population":"0","elevation":"","dem":"2153","timezone":"Asia/Aden","modification_date":"2012-01-19"},{"geonameid":"401019","name":"Al Ḩadīyah","asciiname":"Al Hadiyah","alternatenames":"Al Hadiyah,Al Ḩadīyah,alhdyt,الحدية","latitude":"14.52638","longitude":"43.57045","feature_class":"P","feature_code":"PPLA2","country_code":"YE","cc2":"","admin1_code":"27","admin2_code":"3105","admin3_code":"","admin4_code":"","population":"0","elevation":"","dem":"672","timezone":"Asia/Aden","modification_date":"2012-01-19"},{"geonameid":"401023","name":"Kusmah","asciiname":"Kusmah","alternatenames":"Kusmah,ksmt,كسمة","latitude":"14.58175","longitude":"43.63676","feature_class":"P","feature_code":"PPLA2","country_code":"YE","cc2":"","admin1_code":"27","admin2_code":"3104","admin3_code":"","admin4_code":"","population":"0","elevation":"","dem":"2696","timezone":"Asia/Aden","modification_date":"2012-01-19"},{"geonameid":"401043","name":"Al Jabīn","asciiname":"Al Jabin","alternatenames":"","latitude":"14.70389","longitude":"43.59917","feature_class":"P","feature_code":"PPLA","country_code":"YE","cc2":"","admin1_code":"27","admin2_code":"3102","admin3_code":"","admin4_code":"","population":"0","elevation":"","dem":"2427","timezone":"Asia/Aden","modification_date":"2015-04-04"},{"geonameid":"401653","name":"Riqāb","asciiname":"Riqab","alternatenames":"Riqab,Riqāb,rqab,رقاب","latitude":"14.88597","longitude":"43.46491","feature_class":"P","feature_code":"PPLA2","country_code":"YE","cc2":"","admin1_code":"08","admin2_code":"1812","admin3_code":"","admin4_code":"","population":"0","elevation":"","dem":"1949","timezone":"Asia/Aden","modification_date":"2012-01-19"},{"geonameid":"401672","name":"As Sukhnah","asciiname":"As Sukhnah","alternatenames":"As Sukhnah,Sukhnah,alskhnt,السخنة","latitude":"14.79408","longitude":"43.4362","feature_class":"P","feature_code":"PPLA2","country_code":"YE","cc2":"","admin1_code":"08","admin2_code":"1815","admin3_code":"","admin4_code":"","population":"0","elevation":"","dem":"247","timezone":"Asia/Aden","modification_date":"2012-01-19"},{"geonameid":"402074","name":"Ar Rujum","asciiname":"Ar Rujum","alternatenames":"Ar Rujum,Rujum,alrjm,الرجم","latitude":"15.45776","longitude":"43.63226","feature_class":"P","feature_code":"PPLA2","country_code":"YE","cc2":"","admin1_code":"10","admin2_code":"2703","admin3_code":"","admin4_code":"","population":"0","elevation":"","dem":"1958","timezone":"Asia/Aden","modification_date":"2012-01-19"},{"geonameid":"402470","name":"Al Khamīs","asciiname":"Al Khamis","alternatenames":"Al Khamis,Al Khamīs,Khamis Bani Sa`d,Khamīs Banī Sa‘d,alkhmys,الخميس,خميس بني سعد","latitude":"15.18533","longitude":"43.51122","feature_class":"P","feature_code":"PPLA2","country_code":"YE","cc2":"","admin1_code":"10","admin2_code":"2707","admin3_code":"","admin4_code":"","population":"0","elevation":"","dem":"493","timezone":"Asia/Aden","modification_date":"2012-01-19"},{"geonameid":"402753","name":"Al ‘Urr","asciiname":"Al `Urr","alternatenames":"Al `Urr,Al ‘Urr,العر","latitude":"15.24648","longitude":"43.88836","feature_class":"P","feature_code":"PPLA2","country_code":"YE","cc2":"","admin1_code":"16","admin2_code":"2308","admin3_code":"","admin4_code":"","population":"0","elevation":"","dem":"2019","timezone":"Asia/Aden","modification_date":"2012-01-19"},{"geonameid":"403270","name":"Al Maghrabah","asciiname":"Al Maghrabah","alternatenames":"Al Maghrabah,almghrbt,المغربة","latitude":"15.87722","longitude":"43.66667","feature_class":"P","feature_code":"PPLA2","country_code":"YE","cc2":"","admin1_code":"22","admin2_code":"1717","admin3_code":"","admin4_code":"","population":"0","elevation":"","dem":"1252","timezone":"Asia/Aden","modification_date":"2012-01-19"},{"geonameid":"403271","name":"Aş Şarārah","asciiname":"As Sararah","alternatenames":"As Sararah,Aş Şarārah,alsrart,الصرارة","latitude":"15.79449","longitude":"43.86997","feature_class":"P","feature_code":"PPLA2","country_code":"YE","cc2":"","admin1_code":"19","admin2_code":"2912","admin3_code":"","admin4_code":"","population":"0","elevation":"","dem":"2720","timezone":"Asia/Aden","modification_date":"2012-01-19"},{"geonameid":"403272","name":"An Nāşirah","asciiname":"An Nasirah","alternatenames":"An Nasirah,An Nāşirah,alnasrt,الناصرة","latitude":"15.77277","longitude":"43.80902","feature_class":"P","feature_code":"PPLA2","country_code":"YE","cc2":"","admin1_code":"19","admin2_code":"2914","admin3_code":"","admin4_code":"","population":"0","elevation":"","dem":"2327","timezone":"Asia/Aden","modification_date":"2012-01-19"},{"geonameid":"403316","name":"Mabyan","asciiname":"Mabyan","alternatenames":"Mabyan,mbyn,مبين","latitude":"15.73773","longitude":"43.55701","feature_class":"P","feature_code":"PPLA2","country_code":"YE","cc2":"","admin1_code":"22","admin2_code":"1720","admin3_code":"","admin4_code":"","population":"0","elevation":"","dem":"1870","timezone":"Asia/Aden","modification_date":"2012-01-19"},{"geonameid":"403754","name":"Matnah","asciiname":"Matnah","alternatenames":"Matnah,mtnt,متنة","latitude":"15.25333","longitude":"44.02472","feature_class":"P","feature_code":"PPLA2","country_code":"YE","cc2":"","admin1_code":"16","admin2_code":"2307","admin3_code":"","admin4_code":"","population":"0","elevation":"","dem":"2791","timezone":"Asia/Aden","modification_date":"2012-01-19"},{"geonameid":"404914","name":"Al Ḩayfah","asciiname":"Al Hayfah","alternatenames":"Al Hayfah,Al Ḩayfah,alhyft,الحيفة","latitude":"15.73494","longitude":"44.23788","feature_class":"P","feature_code":"PPLA2","country_code":"YE","cc2":"","admin1_code":"16","admin2_code":"2302","admin3_code":"","admin4_code":"","population":"0","elevation":"","dem":"2415","timezone":"Asia/Aden","modification_date":"2012-01-19"},{"geonameid":"404915","name":"Bayt Marrān","asciiname":"Bayt Marran","alternatenames":"Bayt Marran,Bayt Marrān,Beit Marran","latitude":"15.69312","longitude":"44.2053","feature_class":"P","feature_code":"PPLA2","country_code":"YE","cc2":"","admin1_code":"16","admin2_code":"2302","admin3_code":"","admin4_code":"","population":"0","elevation":"","dem":"2473","timezone":"Asia/Aden","modification_date":"2012-01-19"},{"geonameid":"406072","name":"Al Nashmah","asciiname":"Al Nashmah","alternatenames":"Al Nashmah,Najd an Nashamah,alnshmt,njd alnshmt,النشمة,نجد النشمة","latitude":"13.39028","longitude":"43.96833","feature_class":"P","feature_code":"PPLA2","country_code":"YE","cc2":"","admin1_code":"25","admin2_code":"1521","admin3_code":"","admin4_code":"","population":"0","elevation":"","dem":"1320","timezone":"Asia/Aden","modification_date":"2012-01-19"},{"geonameid":"406635","name":"Al Ḩashwah","asciiname":"Al Hashwah","alternatenames":"Al Hashwah,Al Ḩashwah,alhshwt,الحشوة","latitude":"16.90641","longitude":"44.27622","feature_class":"P","feature_code":"PPLA2","country_code":"YE","cc2":"","admin1_code":"15","admin2_code":"2213","admin3_code":"","admin4_code":"","population":"0","elevation":"","dem":"1537","timezone":"Asia/Aden","modification_date":"2012-02-02"},{"geonameid":"406662","name":"Sāqayn","asciiname":"Saqayn","alternatenames":"Saqayn,Sāqayn,saqyn,ساقين","latitude":"16.877","longitude":"43.52499","feature_class":"P","feature_code":"PPLA2","country_code":"YE","cc2":"","admin1_code":"15","admin2_code":"2209","admin3_code":"","admin4_code":"","population":"41","elevation":"","dem":"2272","timezone":"Asia/Aden","modification_date":"2012-01-19"},{"geonameid":"406737","name":"Al Maḩjal","asciiname":"Al Mahjal","alternatenames":"Al Mahjal,Al Maḩjal,Mahjil,Maḩjil,almhjl,المحجل","latitude":"16.71169","longitude":"44.84769","feature_class":"P","feature_code":"PPLA2","country_code":"YE","cc2":"","admin1_code":"21","admin2_code":"1601","admin3_code":"","admin4_code":"","population":"0","elevation":"","dem":"1436","timezone":"Asia/Aden","modification_date":"2012-01-19"},{"geonameid":"406761","name":"Rajūzah","asciiname":"Rajuzah","alternatenames":"Rajuzah,Rajūzah,rjwzt,رجوزة","latitude":"16.70056","longitude":"44.41454","feature_class":"P","feature_code":"PPLA2","country_code":"YE","cc2":"","admin1_code":"21","admin2_code":"1611","admin3_code":"","admin4_code":"","population":"0","elevation":"","dem":"2077","timezone":"Asia/Aden","modification_date":"2012-01-19"},{"geonameid":"406845","name":"Al Khirāb","asciiname":"Al Khirab","alternatenames":"Al Khirab,Al Khirāb,Kharab al Marashi,Kharāb al Marāshī,alkhrab,khrab almrashy,الخراب,خراب المراشي","latitude":"16.5544","longitude":"44.29048","feature_class":"P","feature_code":"PPLA2","country_code":"YE","cc2":"","admin1_code":"21","admin2_code":"1612","admin3_code":"","admin4_code":"","population":"0","elevation":"","dem":"1380","timezone":"Asia/Aden","modification_date":"2012-01-19"},{"geonameid":"406884","name":"Al Ḩumaydāt","asciiname":"Al Humaydat","alternatenames":"Al Humaydat,Al Ḩumaydāt,alhmydat,الحميدات","latitude":"16.4844","longitude":"44.42934","feature_class":"P","feature_code":"PPLA2","country_code":"YE","cc2":"","admin1_code":"21","admin2_code":"1602","admin3_code":"","admin4_code":"","population":"0","elevation":"","dem":"1305","timezone":"Asia/Aden","modification_date":"2015-02-07"},{"geonameid":"407014","name":"Al Madān","asciiname":"Al Madan","alternatenames":"Al Madan,Al Madān,almdan,المدان","latitude":"16.22413","longitude":"43.64383","feature_class":"P","feature_code":"PPLA2","country_code":"YE","cc2":"","admin1_code":"19","admin2_code":"2906","admin3_code":"","admin4_code":"","population":"0","elevation":"","dem":"2112","timezone":"Asia/Aden","modification_date":"2012-01-19"},{"geonameid":"407024","name":"Al ‘Ashshah","asciiname":"Al `Ashshah","alternatenames":"Al `Ashshah,Al ‘Ashshah,العشة","latitude":"16.25652","longitude":"43.85476","feature_class":"P","feature_code":"PPLA2","country_code":"YE","cc2":"","admin1_code":"19","admin2_code":"2903","admin3_code":"","admin4_code":"","population":"0","elevation":"","dem":"1197","timezone":"Asia/Aden","modification_date":"2012-01-19"},{"geonameid":"407036","name":"Ḩişn Banī Sa‘d","asciiname":"Hisn Bani Sa`d","alternatenames":"Hasan Bini Sa`d,Haşan Binī Sa‘d,Hisn Bani Sa`d,Hisn Bin Sa`d,حصن بني سعد,Ḩişn Banī Sa‘d,Ḩişn Bin Sa‘d","latitude":"16.27293","longitude":"44.47728","feature_class":"P","feature_code":"PPLA2","country_code":"YE","cc2":"","admin1_code":"21","admin2_code":"1603","admin3_code":"","admin4_code":"","population":"0","elevation":"","dem":"1192","timezone":"Asia/Aden","modification_date":"2015-02-07"},{"geonameid":"407042","name":"Al Matūn","asciiname":"Al Matun","alternatenames":"Al Matun,Al Matūn,Matun,Matūn,almtwn,المتون","latitude":"16.23063","longitude":"44.58476","feature_class":"P","feature_code":"PPLA2","country_code":"YE","cc2":"","admin1_code":"21","admin2_code":"1606","admin3_code":"","admin4_code":"","population":"0","elevation":"","dem":"1164","timezone":"Asia/Aden","modification_date":"2012-01-19"},{"geonameid":"407048","name":"Al Maşlūb","asciiname":"Al Maslub","alternatenames":"Al Maslub,Al Maşlūb,Maslub,Maşlūb,almslwb,المصلوب","latitude":"16.18271","longitude":"44.62613","feature_class":"P","feature_code":"PPLA2","country_code":"YE","cc2":"","admin1_code":"21","admin2_code":"1607","admin3_code":"","admin4_code":"","population":"0","elevation":"","dem":"1152","timezone":"Asia/Aden","modification_date":"2012-01-19"},{"geonameid":"407049","name":"Al Ghayl","asciiname":"Al Ghayl","alternatenames":"Al Chalek,Al Ghayl,Ghayl,alghyl,الغيل","latitude":"16.10774","longitude":"44.68005","feature_class":"P","feature_code":"PPLA2","country_code":"YE","cc2":"","admin1_code":"21","admin2_code":"1608","admin3_code":"","admin4_code":"","population":"0","elevation":"","dem":"1137","timezone":"Asia/Aden","modification_date":"2012-01-19"},{"geonameid":"407094","name":"Al Jamīmah","asciiname":"Al Jamimah","alternatenames":"Al Jamimah,Al Jamīmah,aljmymt,الجميمة","latitude":"16.01787","longitude":"43.59647","feature_class":"P","feature_code":"PPLA2","country_code":"YE","cc2":"","admin1_code":"22","admin2_code":"1708","admin3_code":"","admin4_code":"","population":"0","elevation":"","dem":"1547","timezone":"Asia/Aden","modification_date":"2012-01-19"},{"geonameid":"407096","name":"Ḩabūr","asciiname":"Habur","alternatenames":"Habur,Habur Zulaymah,hbwr,حبور,Ḩabūr,Ḩabūr Z̧ulaymah","latitude":"16.05097","longitude":"43.70699","feature_class":"P","feature_code":"PPLA2","country_code":"YE","cc2":"","admin1_code":"19","admin2_code":"2908","admin3_code":"","admin4_code":"","population":"0","elevation":"","dem":"1764","timezone":"Asia/Aden","modification_date":"2012-01-19"},{"geonameid":"407129","name":"Ar Rawḑ","asciiname":"Ar Rawd","alternatenames":"Ar Rawd,Ar Rawdah,Ar Rawḑ,Ar Rawḑah,alrwd,alrwdt,الروض,الروضة","latitude":"16.06145","longitude":"44.81012","feature_class":"P","feature_code":"PPLA2","country_code":"YE","cc2":"","admin1_code":"21","admin2_code":"1609","admin3_code":"","admin4_code":"","population":"0","elevation":"","dem":"1099","timezone":"Asia/Aden","modification_date":"2012-01-19"},{"geonameid":"407690","name":"Ar Rubū‘","asciiname":"Ar Rubu`","alternatenames":"Ar Rubu`,Ar Rubū‘,Dar Yahud,Dār Yahūd,Rubu` Bani Sha`b,Rubū‘ Banī Sha‘b,الربوع","latitude":"13.78024","longitude":"43.86901","feature_class":"P","feature_code":"PPLA2","country_code":"YE","cc2":"","admin1_code":"25","admin2_code":"1503","admin3_code":"","admin4_code":"","population":"0","elevation":"","dem":"1358","timezone":"Asia/Aden","modification_date":"2012-01-19"},{"geonameid":"407716","name":"Maqbanah","asciiname":"Maqbanah","alternatenames":"Maqbanah,mqbnt,مقبنة","latitude":"13.66394","longitude":"43.6873","feature_class":"P","feature_code":"PPLA2","country_code":"YE","cc2":"","admin1_code":"25","admin2_code":"1505","admin3_code":"","admin4_code":"","population":"0","elevation":"","dem":"994","timezone":"Asia/Aden","modification_date":"2012-01-19"},{"geonameid":"408124","name":"Ḑubāh","asciiname":"Dubah","alternatenames":"Dubah,Zabah,Z̧abah,dbah,zbt,ضباه,ظبة,Ḑubah,Ḑubāh","latitude":"14.49052","longitude":"44.13108","feature_class":"P","feature_code":"PPLA2","country_code":"YE","cc2":"","admin1_code":"11","admin2_code":"2004","admin3_code":"","admin4_code":"","population":"0","elevation":"","dem":"2214","timezone":"Asia/Aden","modification_date":"2012-01-19"},{"geonameid":"408342","name":"Ar Raḑā‘ī","asciiname":"Ar Rada`i","alternatenames":"Ar Rada`i,Ar Raḑā‘ī,alrdayy,الرضائي","latitude":"14.01708","longitude":"44.39299","feature_class":"P","feature_code":"PPLA2","country_code":"YE","cc2":"","admin1_code":"23","admin2_code":"1105","admin3_code":"","admin4_code":"","population":"0","elevation":"","dem":"2287","timezone":"Asia/Aden","modification_date":"2012-01-19"},{"geonameid":"408801","name":"Al Mayfa’ah","asciiname":"Al Mayfa'ah","alternatenames":"Al Mayfa'ah,Al Mayfa’ah,الميفعة","latitude":"14.46392","longitude":"44.54866","feature_class":"P","feature_code":"PPLA2","country_code":"YE","cc2":"","admin1_code":"11","admin2_code":"2009","admin3_code":"","admin4_code":"","population":"0","elevation":"","dem":"2459","timezone":"Asia/Aden","modification_date":"2012-01-19"},{"geonameid":"408846","name":"Ar Raḑmah","asciiname":"Ar Radmah","alternatenames":"Ar Radmah,Ar Raḑmah,alrdmt,الرضمة","latitude":"14.21973","longitude":"44.58657","feature_class":"P","feature_code":"PPLA2","country_code":"YE","cc2":"","admin1_code":"23","admin2_code":"1103","admin3_code":"","admin4_code":"","population":"0","elevation":"","dem":"2199","timezone":"Asia/Aden","modification_date":"2012-01-19"},{"geonameid":"408866","name":"Ḩammām Damt","asciiname":"Hammam Damt","alternatenames":"Damt,Hammam Damt,dmt,hmam dmt,حمام دمت,دمت,Ḩammām Damt","latitude":"14.09031","longitude":"44.67006","feature_class":"P","feature_code":"PPLA2","country_code":"YE","cc2":"","admin1_code":"18","admin2_code":"3002","admin3_code":"","admin4_code":"","population":"0","elevation":"","dem":"1905","timezone":"Asia/Aden","modification_date":"2012-01-19"},{"geonameid":"408883","name":"Zakhim","asciiname":"Zakhim","alternatenames":"Zakhim,zkhm,زخم","latitude":"14.29496","longitude":"44.68504","feature_class":"P","feature_code":"PPLA2","country_code":"YE","cc2":"","admin1_code":"20","admin2_code":"1417","admin3_code":"","admin4_code":"","population":"0","elevation":"","dem":"2629","timezone":"Asia/Aden","modification_date":"2012-05-06"},{"geonameid":"408970","name":"Maswarah","asciiname":"Maswarah","alternatenames":"Maswarah,mswrt,مسورة","latitude":"14.34399","longitude":"45.72623","feature_class":"P","feature_code":"PPLA2","country_code":"YE","cc2":"","admin1_code":"20","admin2_code":"1403","admin3_code":"","admin4_code":"","population":"0","elevation":"","dem":"1926","timezone":"Asia/Aden","modification_date":"2012-01-19"},{"geonameid":"409051","name":"Ţawr al Bāḩah","asciiname":"Tawr al Bahah","alternatenames":"Tawr al Bahah,twr albaht,Ţawr al Bāḩah,طور الباحة","latitude":"13.18179","longitude":"44.29966","feature_class":"P","feature_code":"PPLA2","country_code":"YE","cc2":"","admin1_code":"24","admin2_code":"2511","admin3_code":"","admin4_code":"","population":"0","elevation":"","dem":"664","timezone":"Asia/Aden","modification_date":"2012-02-02"},{"geonameid":"410914","name":"Kushar","asciiname":"Kushar","alternatenames":"Kushar,kshr,كشر","latitude":"16.15523","longitude":"43.42102","feature_class":"P","feature_code":"PPLA2","country_code":"YE","cc2":"","admin1_code":"22","admin2_code":"1707","admin3_code":"","admin4_code":"","population":"0","elevation":"","dem":"1586","timezone":"Asia/Aden","modification_date":"2012-01-19"},{"geonameid":"410915","name":"Aslam","asciiname":"Aslam","alternatenames":"Aslam,aslm,أسلم","latitude":"16.05961","longitude":"43.32745","feature_class":"P","feature_code":"PPLA2","country_code":"YE","cc2":"","admin1_code":"22","admin2_code":"1712","admin3_code":"","admin4_code":"","population":"0","elevation":"","dem":"799","timezone":"Asia/Aden","modification_date":"2014-06-05"},{"geonameid":"411056","name":"Ḩaydān","asciiname":"Haydan","alternatenames":"Haydan,hydan,حيدان,Ḩaydān","latitude":"16.77899","longitude":"43.43372","feature_class":"P","feature_code":"PPLA2","country_code":"YE","cc2":"","admin1_code":"15","admin2_code":"2208","admin3_code":"","admin4_code":"","population":"0","elevation":"","dem":"2121","timezone":"Asia/Aden","modification_date":"2012-01-19"},{"geonameid":"413170","name":"Al Miftāḩ","asciiname":"Al Miftah","alternatenames":"Al Jubayl,Al Miftah,Al Miftāḩ,almftah,المفتاح","latitude":"15.97431","longitude":"43.46381","feature_class":"P","feature_code":"PPLA2","country_code":"YE","cc2":"","admin1_code":"22","admin2_code":"1716","admin3_code":"","admin4_code":"","population":"0","elevation":"","dem":"1976","timezone":"Asia/Aden","modification_date":"2012-01-19"},{"geonameid":"415189","name":"Aden","asciiname":"Aden","alternatenames":"ADE,Adan,Adem,Aden,Aden khot,Aden shaary,Adena,Adenas,Adeno,Adén,Aidin,Anten,Cadan,Gorad Adehn,`Adan,adana,aden,edana,xeden,ya ding,Áden,Áidin,Ədən,Ɛaden,Άντεν,Аден,Аден хот,Аден шаары,Горад Адэн,Ադեն,עדן,عدن,अदन,एडन,เอเดน,အေဒင်မြို့,‘Adan,アデン,亚丁,亞丁,아덴","latitude":"12.77944","longitude":"45.03667","feature_class":"P","feature_code":"PPLA","country_code":"YE","cc2":"","admin1_code":"02","admin2_code":"2407","admin3_code":"","admin4_code":"","population":"550602","elevation":"","dem":"16","timezone":"Asia/Aden","modification_date":"2012-01-19"},{"geonameid":"7341410","name":"Madghil","asciiname":"Madghil","alternatenames":"Madghil,Madghil al Jid`an,Madghil al Jid‘ān,mdghl,مدغل,مدغل الجدعان","latitude":"15.59858","longitude":"45.04013","feature_class":"P","feature_code":"PPLA2","country_code":"YE","cc2":"","admin1_code":"14","admin2_code":"2603","admin3_code":"","admin4_code":"","population":"0","elevation":"","dem":"1197","timezone":"Asia/Aden","modification_date":"2015-02-07"},{"geonameid":"7341563","name":"Al Ḩarjah","asciiname":"Al Harjah","alternatenames":"Al Harajah,Al Harjah,Al Ḩarajah,Al Ḩarjah,alhrjt,الحرجة","latitude":"15.48869","longitude":"44.66573","feature_class":"P","feature_code":"PPLA2","country_code":"YE","cc2":"","admin1_code":"14","admin2_code":"2604","admin3_code":"","admin4_code":"","population":"0","elevation":"","dem":"1708","timezone":"Asia/Aden","modification_date":"2015-06-08"},{"geonameid":"7344394","name":"Banī al ‘Awwām","asciiname":"Bani al `Awwam","alternatenames":"Bani al `Awwam,Banī al ‘Awwām,بني العوام","latitude":"15.58119","longitude":"43.58727","feature_class":"P","feature_code":"PPLA2","country_code":"YE","cc2":"","admin1_code":"22","admin2_code":"1727","admin3_code":"","admin4_code":"","population":"41","elevation":"","dem":"1528","timezone":"Asia/Aden","modification_date":"2012-01-21"},{"geonameid":"7344569","name":"Banī an Nahārī","asciiname":"Bani an Nahari","alternatenames":"Bani an Nahari,Banī an Nahārī,bny alnhary,بني النهاري","latitude":"15.63981","longitude":"43.55633","feature_class":"P","feature_code":"PPLA2","country_code":"YE","cc2":"","admin1_code":"22","admin2_code":"1726","admin3_code":"","admin4_code":"","population":"0","elevation":"","dem":"1703","timezone":"Asia/Aden","modification_date":"2012-01-21"},{"geonameid":"7345723","name":"Al Hijrah","asciiname":"Al Hijrah","alternatenames":"Al Hijrah,Hijrat Qatabir,Hijrat Qaţābir,alhjrt,الهجرة","latitude":"17.29788","longitude":"43.38718","feature_class":"P","feature_code":"PPLA2","country_code":"YE","cc2":"","admin1_code":"15","admin2_code":"2202","admin3_code":"","admin4_code":"","population":"0","elevation":"","dem":"2449","timezone":"Asia/Aden","modification_date":"2012-01-21"},{"geonameid":"7345827","name":"Sūq al Khamīs","asciiname":"Suq al Khamis","alternatenames":"Suq al Khamis,Sūq al Khamīs,swq alkhmys,سوق الخميس","latitude":"17.18126","longitude":"43.28811","feature_class":"P","feature_code":"PPLA2","country_code":"YE","cc2":"","admin1_code":"15","admin2_code":"2203","admin3_code":"","admin4_code":"","population":"0","elevation":"","dem":"1863","timezone":"Asia/Aden","modification_date":"2012-01-21"},{"geonameid":"7346082","name":"Al Mashāf","asciiname":"Al Mashaf","alternatenames":"Al Mashaf,Al Mashāf,almshaf,المشاف","latitude":"16.85836","longitude":"43.19781","feature_class":"P","feature_code":"PPLA2","country_code":"YE","cc2":"","admin1_code":"15","admin2_code":"2206","admin3_code":"","admin4_code":"","population":"0","elevation":"","dem":"359","timezone":"Asia/Aden","modification_date":"2012-02-29"},{"geonameid":"7346660","name":"Al Kharāb","asciiname":"Al Kharab","alternatenames":"Al Kharab,Al Kharāb,alkhrab,الخراب","latitude":"16.99129","longitude":"43.33888","feature_class":"P","feature_code":"PPLA2","country_code":"YE","cc2":"","admin1_code":"15","admin2_code":"2204","admin3_code":"","admin4_code":"","population":"0","elevation":"","dem":"1630","timezone":"Asia/Aden","modification_date":"2012-01-21"},{"geonameid":"7354697","name":"Al ‘Ayn","asciiname":"Al `Ayn","alternatenames":"Al `Ayn,Al ‘Ayn,العين","latitude":"13.33005","longitude":"44.09208","feature_class":"P","feature_code":"PPLA2","country_code":"YE","cc2":"","admin1_code":"25","admin2_code":"1522","admin3_code":"","admin4_code":"","population":"0","elevation":"","dem":"1467","timezone":"Asia/Aden","modification_date":"2012-01-21"},{"geonameid":"7356864","name":"Qaryat ad Da‘īs","asciiname":"Qaryat ad Da`is","alternatenames":"Qaryat ad Da`is,Qaryat ad Da‘īs","latitude":"13.9877","longitude":"44.2749","feature_class":"P","feature_code":"PPLA2","country_code":"YE","cc2":"","admin1_code":"23","admin2_code":"1113","admin3_code":"","admin4_code":"","population":"0","elevation":"","dem":"2426","timezone":"Asia/Aden","modification_date":"2012-01-21"},{"geonameid":"7360069","name":"Ḩazm al ‘Udayn","asciiname":"Hazm al `Udayn","alternatenames":"Hazm al `Udayn,Ḩazm al ‘Udayn","latitude":"14.02743","longitude":"44.00526","feature_class":"P","feature_code":"PPLA2","country_code":"YE","cc2":"","admin1_code":"23","admin2_code":"1109","admin3_code":"","admin4_code":"","population":"0","elevation":"","dem":"2099","timezone":"Asia/Aden","modification_date":"2012-01-21"},{"geonameid":"7363900","name":"An Najd","asciiname":"An Najd","alternatenames":"An Najd,alnjd,النجد","latitude":"14.42152","longitude":"45.29596","feature_class":"P","feature_code":"PPLA2","country_code":"YE","cc2":"","admin1_code":"20","admin2_code":"1412","admin3_code":"","admin4_code":"","population":"0","elevation":"","dem":"1996","timezone":"Asia/Aden","modification_date":"2012-01-21"},{"geonameid":"7364022","name":"Raḩabah al Kawlah","asciiname":"Rahabah al Kawlah","alternatenames":"Al Kawlah Rahabah,Al Kawlah Raḩabah,Rahabah,Rahabah al Kawlah,Raḩabah,Raḩabah al Kawlah,rhbt,rhbt alkwlt,رحبة,رحبة الكولة","latitude":"14.89574","longitude":"44.98918","feature_class":"P","feature_code":"PPLA2","country_code":"YE","cc2":"","admin1_code":"14","admin2_code":"2608","admin3_code":"","admin4_code":"","population":"0","elevation":"","dem":"1483","timezone":"Asia/Aden","modification_date":"2012-01-21"},{"geonameid":"7364546","name":"Al ‘Amūd","asciiname":"Al `Amud","alternatenames":"Al `Amud,Al ‘Amūd,العمود","latitude":"14.72103","longitude":"45.20676","feature_class":"P","feature_code":"PPLA2","country_code":"YE","cc2":"","admin1_code":"14","admin2_code":"2610","admin3_code":"","admin4_code":"","population":"0","elevation":"","dem":"1661","timezone":"Asia/Aden","modification_date":"2012-01-21"},{"geonameid":"7364784","name":"Al ‘Aqabah","asciiname":"Al `Aqabah","alternatenames":"Al `Aqabah,Al ‘Aqabah,العقبة","latitude":"14.27179","longitude":"44.78699","feature_class":"P","feature_code":"PPLA2","country_code":"YE","cc2":"","admin1_code":"20","admin2_code":"1418","admin3_code":"","admin4_code":"","population":"0","elevation":"","dem":"2672","timezone":"Asia/Aden","modification_date":"2012-02-02"},{"geonameid":"7364913","name":"Al Qurayshīyah","asciiname":"Al Qurayshiyah","alternatenames":"Al Qurayshiyah,Al Qurayshīyah,Sah al Qurayshiyah,Sāh al Qurayshīyah,alqryshyt,sah alqryshyt,القريشية,ساه القريشية","latitude":"14.5122","longitude":"44.85358","feature_class":"P","feature_code":"PPLA2","country_code":"YE","cc2":"","admin1_code":"20","admin2_code":"1414","admin3_code":"","admin4_code":"","population":"0","elevation":"","dem":"2169","timezone":"Asia/Aden","modification_date":"2012-01-21"},{"geonameid":"7367232","name":"Ḩawrah","asciiname":"Hawrah","alternatenames":"Az Zuhar Hawrah,Az̧ Z̧uhār Ḩawrah,Hawrah,hwrt,حورة,Ḩawrah","latitude":"13.35751","longitude":"44.1458","feature_class":"P","feature_code":"PPLA2","country_code":"YE","cc2":"","admin1_code":"25","admin2_code":"1523","admin3_code":"","admin4_code":"","population":"0","elevation":"","dem":"1780","timezone":"Asia/Aden","modification_date":"2012-01-21"},{"geonameid":"7683765","name":"Ash Shawātī","asciiname":"Ash Shawati","alternatenames":"Ash Shawati,Ash Shawātī,alshwaty,الشواتي","latitude":"16.78314","longitude":"43.81265","feature_class":"P","feature_code":"PPLA2","country_code":"YE","cc2":"","admin1_code":"15","admin2_code":"","admin3_code":"","admin4_code":"","population":"25","elevation":"","dem":"1992","timezone":"Asia/Aden","modification_date":"2012-01-21"},{"geonameid":"7792745","name":"Al Ḩamdī","asciiname":"Al Hamdi","alternatenames":"Al Hamdi,Al Ḩamdī,alhmdy,الحمدي","latitude":"15.94727","longitude":"48.77965","feature_class":"P","feature_code":"PPLX","country_code":"YE","cc2":"","admin1_code":"04","admin2_code":"","admin3_code":"","admin4_code":"","population":"1273","elevation":"","dem":"651","timezone":"Asia/Aden","modification_date":"2012-01-21"},{"geonameid":"7792748","name":"At Taḩāluf","asciiname":"At Tahaluf","alternatenames":"At Tahalif,At Tahaluf,At Taḩālif,At Taḩāluf,althalf,التحالف","latitude":"15.93786","longitude":"48.78641","feature_class":"P","feature_code":"PPLX","country_code":"YE","cc2":"","admin1_code":"04","admin2_code":"","admin3_code":"","admin4_code":"","population":"1281","elevation":"","dem":"663","timezone":"Asia/Aden","modification_date":"2016-01-08"},{"geonameid":"7792750","name":"Suḩayl Shibām","asciiname":"Suhayl Shibam","alternatenames":"Suhayl Shibam,Suḩayl Shibām,shyl shbam,سحيل شبام","latitude":"15.91448","longitude":"48.63864","feature_class":"P","feature_code":"PPLA2","country_code":"YE","cc2":"","admin1_code":"04","admin2_code":"","admin3_code":"","admin4_code":"","population":"645","elevation":"","dem":"680","timezone":"Asia/Aden","modification_date":"2012-01-21"},{"geonameid":"7890531","name":"Al Khāniq","asciiname":"Al Khaniq","alternatenames":"Al Khaniq,Al Khāniq,alkhanq,الخانق","latitude":"15.50253","longitude":"44.18158","feature_class":"P","feature_code":"PPLA2","country_code":"YE","cc2":"","admin1_code":"16","admin2_code":"","admin3_code":"","admin4_code":"","population":"2","elevation":"","dem":"2191","timezone":"Asia/Aden","modification_date":"2012-01-21"},{"geonameid":"7928383","name":"Bi’r Ḩāt","asciiname":"Bi'r Hat","alternatenames":"Bi'r Hat,Bi’r Ḩāt,byr hat,بئر حات","latitude":"17.32197","longitude":"52.09566","feature_class":"P","feature_code":"PPLA2","country_code":"YE","cc2":"","admin1_code":"03","admin2_code":"","admin3_code":"","admin4_code":"","population":"0","elevation":"","dem":"752","timezone":"Asia/Aden","modification_date":"2012-01-21"},{"geonameid":"7928384","name":"Ḩadādah","asciiname":"Hadadah","alternatenames":"Hadadah,hdadt,حدادة,Ḩadādah","latitude":"13.17535","longitude":"44.27461","feature_class":"P","feature_code":"PPLA2","country_code":"YE","cc2":"","admin1_code":"24","admin2_code":"","admin3_code":"","admin4_code":"","population":"0","elevation":"","dem":"714","timezone":"Asia/Aden","modification_date":"2012-01-21"},{"geonameid":"7930439","name":"Rimāh","asciiname":"Rimah","alternatenames":"Rimah,Rimāh,Rumah,Rumāh,rmah,rmat,رماة,رماه","latitude":"17.45532","longitude":"50.57789","feature_class":"P","feature_code":"PPLA2","country_code":"YE","cc2":"","admin1_code":"04","admin2_code":"","admin3_code":"","admin4_code":"","population":"0","elevation":"","dem":"697","timezone":"Asia/Aden","modification_date":"2015-08-08"},{"geonameid":"7930440","name":"Rumāh","asciiname":"Rumah","alternatenames":"Rumah,Rumāh,rmah,رماه","latitude":"17.45547","longitude":"50.5777","feature_class":"P","feature_code":"PPLA2","country_code":"YE","cc2":"","admin1_code":"04","admin2_code":"","admin3_code":"","admin4_code":"","population":"0","elevation":"","dem":"699","timezone":"Asia/Aden","modification_date":"2011-08-10"},{"geonameid":"7931038","name":"Al Shirūj","asciiname":"Al Shiruj","alternatenames":"Al Shiruj,Al Shirūj,alshrwj,الشروج","latitude":"14.68526","longitude":"47.76926","feature_class":"P","feature_code":"PPLA2","country_code":"YE","cc2":"","admin1_code":"04","admin2_code":"","admin3_code":"","admin4_code":"","population":"0","elevation":"","dem":"1011","timezone":"Asia/Aden","modification_date":"2012-02-02"},{"geonameid":"7931039","name":"Jawl al Majma‘","asciiname":"Jawl al Majma`","alternatenames":"Jawl al Majma`,Jawl al Majma‘,جول المجمع","latitude":"14.93278","longitude":"47.02763","feature_class":"P","feature_code":"PPLA2","country_code":"YE","cc2":"","admin1_code":"05","admin2_code":"","admin3_code":"","admin4_code":"","population":"0","elevation":"","dem":"1092","timezone":"Asia/Aden","modification_date":"2012-01-21"},{"geonameid":"7931040","name":"Sūq Sibāḩ","asciiname":"Suq Sibah","alternatenames":"Suq Sibah,Sūq Sibāḩ,swq sbah,سوق سباح","latitude":"13.81436","longitude":"45.39229","feature_class":"P","feature_code":"PPLA2","country_code":"YE","cc2":"","admin1_code":"01","admin2_code":"","admin3_code":"","admin4_code":"","population":"0","elevation":"","dem":"1278","timezone":"Asia/Aden","modification_date":"2012-01-21"},{"geonameid":"7931041","name":"Al Ḩazm","asciiname":"Al Hazm","alternatenames":"Al Hazm,Al Ḩazm,alhzm,الحزم","latitude":"14.68919","longitude":"45.60962","feature_class":"P","feature_code":"PPLA2","country_code":"YE","cc2":"","admin1_code":"20","admin2_code":"","admin3_code":"","admin4_code":"","population":"0","elevation":"","dem":"1259","timezone":"Asia/Aden","modification_date":"2012-01-21"},{"geonameid":"7931042","name":"Al Aqţa‘","asciiname":"Al Aqta`","alternatenames":"Al Aqta`,Al Aqţa‘,الأقطع","latitude":"14.66217","longitude":"45.35123","feature_class":"P","feature_code":"PPLA2","country_code":"YE","cc2":"","admin1_code":"14","admin2_code":"","admin3_code":"","admin4_code":"","population":"0","elevation":"","dem":"2066","timezone":"Asia/Aden","modification_date":"2014-06-06"},{"geonameid":"8015577","name":"Bāqim as Sūq","asciiname":"Baqim as Suq","alternatenames":"Baqim,Baqim as Suq,Bāqim,Bāqim as Sūq,baqm,baqm alswq,باقم,باقم السوق","latitude":"17.39713","longitude":"43.47743","feature_class":"P","feature_code":"PPLA2","country_code":"YE","cc2":"","admin1_code":"15","admin2_code":"","admin3_code":"","admin4_code":"","population":"0","elevation":"","dem":"2117","timezone":"Asia/Aden","modification_date":"2012-01-21"},{"geonameid":"8308191","name":"Maţarah","asciiname":"Matarah","alternatenames":"Matarah,Maţarah,mtrt,مطرة","latitude":"15.52591","longitude":"47.63339","feature_class":"P","feature_code":"PPLA2","country_code":"YE","cc2":"","admin1_code":"05","admin2_code":"","admin3_code":"","admin4_code":"","population":"0","elevation":"","dem":"838","timezone":"Asia/Aden","modification_date":"2012-06-07"},{"geonameid":"8308699","name":"Ḩabīl ar Raydah","asciiname":"Habil ar Raydah","alternatenames":"Habil ar Raydah,hbyl alrydt,حبيل الريدة,Ḩabīl ar Raydah","latitude":"13.6444","longitude":"44.85097","feature_class":"P","feature_code":"PPLA2","country_code":"YE","cc2":"","admin1_code":"24","admin2_code":"","admin3_code":"","admin4_code":"","population":"0","elevation":"","dem":"944","timezone":"Asia/Aden","modification_date":"2012-06-07"},{"geonameid":"8308729","name":"Al ‘Ulayb","asciiname":"Al `Ulayb","alternatenames":"Al `Ulayb,Al ‘Ulayb,العليب","latitude":"15.14747","longitude":"49.07325","feature_class":"P","feature_code":"PPLA2","country_code":"YE","cc2":"","admin1_code":"04","admin2_code":"","admin3_code":"","admin4_code":"","population":"0","elevation":"","dem":"1079","timezone":"Asia/Aden","modification_date":"2012-06-07"},{"geonameid":"8308730","name":"Aţ Ţalḩ","asciiname":"At Talh","alternatenames":"At Talh,Aţ Ţalḩ,altlh,الطلح","latitude":"15.156","longitude":"47.39903","feature_class":"P","feature_code":"PPLA2","country_code":"YE","cc2":"","admin1_code":"05","admin2_code":"","admin3_code":"","admin4_code":"","population":"0","elevation":"","dem":"1398","timezone":"Asia/Aden","modification_date":"2012-06-07"},{"geonameid":"8308731","name":"Sirār","asciiname":"Sirar","alternatenames":"Sirar,Sirār,srar,سرار","latitude":"13.63778","longitude":"45.31371","feature_class":"P","feature_code":"PPLA2","country_code":"YE","cc2":"","admin1_code":"01","admin2_code":"","admin3_code":"","admin4_code":"","population":"0","elevation":"","dem":"1490","timezone":"Asia/Aden","modification_date":"2012-06-07"},{"geonameid":"8356282","name":"Khayrān","asciiname":"Khayran","alternatenames":"Khayran,Khayrān,khyran,خيران","latitude":"16.02191","longitude":"43.37859","feature_class":"P","feature_code":"PPLA2","country_code":"YE","cc2":"","admin1_code":"22","admin2_code":"","admin3_code":"","admin4_code":"","population":"0","elevation":"","dem":"470","timezone":"Asia/Aden","modification_date":"2012-08-05"},{"geonameid":"8356686","name":"Al Ḩuşūn","asciiname":"Al Husun","alternatenames":"Al Husun,Al Markaz Al Jalal,Al Markaz Āl Jalāl,Al Ḩuşūn,alhswn,almrkz al jlal,الحصون,المركز ال جلال","latitude":"15.4739","longitude":"45.36691","feature_class":"P","feature_code":"PPLA2","country_code":"YE","cc2":"","admin1_code":"14","admin2_code":"","admin3_code":"","admin4_code":"","population":"0","elevation":"","dem":"1076","timezone":"Asia/Aden","modification_date":"2012-08-05"},{"geonameid":"8357700","name":"Jayshān","asciiname":"Jayshan","alternatenames":"Jayshan,Jayshān,jyshan,جيشان","latitude":"14.25204","longitude":"46.17905","feature_class":"P","feature_code":"PPLA2","country_code":"YE","cc2":"","admin1_code":"01","admin2_code":"","admin3_code":"","admin4_code":"","population":"0","elevation":"","dem":"1562","timezone":"Asia/Aden","modification_date":"2012-08-05"},{"geonameid":"8357701","name":"Aş Şalw","asciiname":"As Salw","alternatenames":"As Salw,Aş Şalw,alslw,الصلو","latitude":"13.32887","longitude":"44.21708","feature_class":"P","feature_code":"PPLA2","country_code":"YE","cc2":"","admin1_code":"25","admin2_code":"","admin3_code":"","admin4_code":"","population":"0","elevation":"","dem":"2304","timezone":"Asia/Aden","modification_date":"2012-08-05"},{"geonameid":"8357714","name":"Raşad","asciiname":"Rasad","alternatenames":"Rasad,Raşad,rsd,رصد","latitude":"13.71215","longitude":"45.30318","feature_class":"P","feature_code":"PPLA2","country_code":"YE","cc2":"","admin1_code":"01","admin2_code":"","admin3_code":"","admin4_code":"","population":"0","elevation":"","dem":"1657","timezone":"Asia/Aden","modification_date":"2012-08-05"},{"geonameid":"8357764","name":"Saḩḩab","asciiname":"Sahhab","alternatenames":"Sahab,Sahhab,Saḩab,Saḩḩab,Wadi Sahab,Wādī Saḩab,shb,سحب","latitude":"15.60223","longitude":"44.0242","feature_class":"P","feature_code":"PPLA2","country_code":"YE","cc2":"","admin1_code":"19","admin2_code":"","admin3_code":"","admin4_code":"","population":"0","elevation":"","dem":"2605","timezone":"Asia/Aden","modification_date":"2015-02-07"},{"geonameid":"8534038","name":"Majz","asciiname":"Majz","alternatenames":"Majadh,Majz,mjz,مجز","latitude":"17.06939","longitude":"43.57507","feature_class":"P","feature_code":"PPLA2","country_code":"YE","cc2":"","admin1_code":"15","admin2_code":"","admin3_code":"","admin4_code":"","population":"0","elevation":"","dem":"2001","timezone":"Asia/Aden","modification_date":"2013-06-05"},{"geonameid":"8534079","name":"Al Mirwāḩ","asciiname":"Al Mirwah","alternatenames":"Al Mirwah,Al Mirwāḩ,almrwah,المرواح","latitude":"15.47171","longitude":"43.42947","feature_class":"P","feature_code":"PPLA2","country_code":"YE","cc2":"","admin1_code":"10","admin2_code":"","admin3_code":"","admin4_code":"","population":"0","elevation":"","dem":"1207","timezone":"Asia/Aden","modification_date":"2013-06-05"},{"geonameid":"921707","name":"Pamandzi","asciiname":"Pamandzi","alternatenames":"DZA,Pamandzi","latitude":"-12.79674","longitude":"45.27938","feature_class":"P","feature_code":"PPLA","country_code":"YT","cc2":"","admin1_code":"97615","admin2_code":"","admin3_code":"","admin4_code":"","population":"9077","elevation":"","dem":"23","timezone":"Indian/Mayotte","modification_date":"2014-01-05"},{"geonameid":"921815","name":"Mamoudzou","asciiname":"Mamoudzou","alternatenames":"Mambutzou,Mamoudzou,Mamoutzou,Mamudzu,Mamutzu,Мамудзу","latitude":"-12.78234","longitude":"45.22878","feature_class":"P","feature_code":"PPLC","country_code":"YT","cc2":"","admin1_code":"97611","admin2_code":"","admin3_code":"","admin4_code":"","population":"54831","elevation":"","dem":"23","timezone":"Indian/Mayotte","modification_date":"2015-11-11"},{"geonameid":"921900","name":"Dzaoudzi","asciiname":"Dzaoudzi","alternatenames":"DZA,Dzaoudzi,Dzaoudzi-Labattoir,Zaudzi,zao de ji,zauji,ザウジ,藻德济","latitude":"-12.78339","longitude":"45.25693","feature_class":"P","feature_code":"PPLA","country_code":"YT","cc2":"","admin1_code":"97608","admin2_code":"","admin3_code":"","admin4_code":"","population":"15339","elevation":"","dem":"26","timezone":"Indian/Mayotte","modification_date":"2014-08-19"},{"geonameid":"921917","name":"Dembeni","asciiname":"Dembeni","alternatenames":"Debenay,Debeney","latitude":"-12.8436","longitude":"45.18436","feature_class":"P","feature_code":"PPLA","country_code":"YT","cc2":"","admin1_code":"97607","admin2_code":"","admin3_code":"","admin4_code":"","population":"10141","elevation":"","dem":"15","timezone":"Indian/Mayotte","modification_date":"2013-08-08"},{"geonameid":"922015","name":"Acoua","asciiname":"Acoua","alternatenames":"Accua,Acoua,Acua","latitude":"-12.72391","longitude":"45.05819","feature_class":"P","feature_code":"PPLA","country_code":"YT","cc2":"","admin1_code":"97601","admin2_code":"","admin3_code":"","admin4_code":"","population":"4622","elevation":"","dem":"10","timezone":"Indian/Mayotte","modification_date":"2013-08-08"},{"geonameid":"1090119","name":"Bandraboua","asciiname":"Bandraboua","alternatenames":"Bandraboua,M'Gombani","latitude":"-12.7044","longitude":"45.12231","feature_class":"P","feature_code":"PPLA","country_code":"YT","cc2":"","admin1_code":"97602","admin2_code":"","admin3_code":"","admin4_code":"","population":"7880","elevation":"","dem":"17","timezone":"Indian/Mayotte","modification_date":"2012-02-07"},{"geonameid":"1090126","name":"Mtsamboro","asciiname":"Mtsamboro","alternatenames":"M'Zamboro,Mtsamboro,M’Zamboro","latitude":"-12.69982","longitude":"45.06894","feature_class":"P","feature_code":"PPLA","country_code":"YT","cc2":"","admin1_code":"97612","admin2_code":"","admin3_code":"","admin4_code":"","population":"7724","elevation":"","dem":"26","timezone":"Indian/Mayotte","modification_date":"2012-02-07"},{"geonameid":"1090161","name":"M'Tsangamouji","asciiname":"M'Tsangamouji","alternatenames":"Mtsamgamouji","latitude":"-12.75944","longitude":"45.08361","feature_class":"P","feature_code":"PPLA","country_code":"YT","cc2":"","admin1_code":"97613","admin2_code":"","admin3_code":"","admin4_code":"","population":"5028","elevation":"","dem":"57","timezone":"Indian/Mayotte","modification_date":"2013-08-08"},{"geonameid":"1090177","name":"Tsingoni","asciiname":"Tsingoni","alternatenames":"Tsingoni","latitude":"-12.78722","longitude":"45.10278","feature_class":"P","feature_code":"PPLA","country_code":"YT","cc2":"","admin1_code":"97617","admin2_code":"","admin3_code":"","admin4_code":"","population":"7602","elevation":"","dem":"56","timezone":"Indian/Mayotte","modification_date":"2012-02-07"},{"geonameid":"1090225","name":"Koungou","asciiname":"Koungou","alternatenames":"Kongo,Koungou","latitude":"-12.73361","longitude":"45.20417","feature_class":"P","feature_code":"PPLA","country_code":"YT","cc2":"","admin1_code":"97610","admin2_code":"","admin3_code":"","admin4_code":"","population":"18118","elevation":"","dem":"40","timezone":"Indian/Mayotte","modification_date":"2012-02-07"},{"geonameid":"1090311","name":"Ouangani","asciiname":"Ouangani","alternatenames":"Ouangani","latitude":"-12.84639","longitude":"45.13611","feature_class":"P","feature_code":"PPLA","country_code":"YT","cc2":"","admin1_code":"97614","admin2_code":"","admin3_code":"","admin4_code":"","population":"7272","elevation":"","dem":"100","timezone":"Indian/Mayotte","modification_date":"2012-02-07"},{"geonameid":"1090322","name":"Chiconi","asciiname":"Chiconi","alternatenames":"Chiconi","latitude":"-12.83333","longitude":"45.11056","feature_class":"P","feature_code":"PPLA","country_code":"YT","cc2":"","admin1_code":"97605","admin2_code":"","admin3_code":"","admin4_code":"","population":"7204","elevation":"","dem":"109","timezone":"Indian/Mayotte","modification_date":"2012-02-07"},{"geonameid":"1090340","name":"Sada","asciiname":"Sada","alternatenames":"Sada","latitude":"-12.85055","longitude":"45.10205","feature_class":"P","feature_code":"PPLA","country_code":"YT","cc2":"","admin1_code":"97616","admin2_code":"","admin3_code":"","admin4_code":"","population":"9832","elevation":"","dem":"82","timezone":"Indian/Mayotte","modification_date":"2012-02-07"},{"geonameid":"1090397","name":"Bandrélé","asciiname":"Bandrele","alternatenames":"Bandrele,Bandrélé","latitude":"-12.90667","longitude":"45.19139","feature_class":"P","feature_code":"PPLA","country_code":"YT","cc2":"","admin1_code":"97603","admin2_code":"","admin3_code":"","admin4_code":"","population":"6350","elevation":"","dem":"37","timezone":"Indian/Mayotte","modification_date":"2012-02-07"},{"geonameid":"1090415","name":"Chirongui","asciiname":"Chirongui","alternatenames":"Chirongui","latitude":"-12.93194","longitude":"45.14833","feature_class":"P","feature_code":"PPLA","country_code":"YT","cc2":"","admin1_code":"97606","admin2_code":"","admin3_code":"","admin4_code":"","population":"6173","elevation":"","dem":"13","timezone":"Indian/Mayotte","modification_date":"2012-02-07"},{"geonameid":"1090467","name":"Bouéni","asciiname":"Boueni","alternatenames":"Boueni,Bouéni","latitude":"-12.9025","longitude":"45.07611","feature_class":"P","feature_code":"PPLA","country_code":"YT","cc2":"","admin1_code":"97604","admin2_code":"","admin3_code":"","admin4_code":"","population":"5334","elevation":"","dem":"40","timezone":"Indian/Mayotte","modification_date":"2012-02-07"},{"geonameid":"1090476","name":"Kani Kéli","asciiname":"Kani Keli","alternatenames":"Kani Keli,Kani Kéli","latitude":"-12.95361","longitude":"45.10333","feature_class":"P","feature_code":"PPLA","country_code":"YT","cc2":"","admin1_code":"97609","admin2_code":"","admin3_code":"","admin4_code":"","population":"4854","elevation":"","dem":"95","timezone":"Indian/Mayotte","modification_date":"2012-02-07"},{"geonameid":"936374","name":"Roodepoort","asciiname":"Roodepoort","alternatenames":"Roodepoort,Roodeport-Maraisburg","latitude":"-26.1625","longitude":"27.8725","feature_class":"P","feature_code":"PPL","country_code":"ZA","cc2":"ZA","admin1_code":"06","admin2_code":"JHB","admin3_code":"JHB","admin4_code":"","population":"225000","elevation":"","dem":"1738","timezone":"Africa/Johannesburg","modification_date":"2012-07-12"},{"geonameid":"936953","name":"Zoar","asciiname":"Zoar","alternatenames":"Zoar","latitude":"-33.4956","longitude":"21.44373","feature_class":"P","feature_code":"PPL","country_code":"ZA","cc2":"","admin1_code":"11","admin2_code":"DC4","admin3_code":"WC041","admin4_code":"","population":"4659","elevation":"","dem":"504","timezone":"Africa/Johannesburg","modification_date":"2016-03-09"},{"geonameid":"937136","name":"Zeerust","asciiname":"Zeerust","alternatenames":"Zeerust","latitude":"-25.53695","longitude":"26.07512","feature_class":"P","feature_code":"PPLA3","country_code":"ZA","cc2":"","admin1_code":"10","admin2_code":"DC38","admin3_code":"NW385","admin4_code":"","population":"17708","elevation":"","dem":"1213","timezone":"Africa/Johannesburg","modification_date":"2012-07-12"},{"geonameid":"937246","name":"Zastron","asciiname":"Zastron","alternatenames":"Zastron","latitude":"-30.30225","longitude":"27.08395","feature_class":"P","feature_code":"PPLA3","country_code":"ZA","cc2":"","admin1_code":"03","admin2_code":"DC16","admin3_code":"FS163","admin4_code":"","population":"12449","elevation":"","dem":"1668","timezone":"Africa/Johannesburg","modification_date":"2012-07-12"},{"geonameid":"938457","name":"Wolmaransstad","asciiname":"Wolmaransstad","alternatenames":"Wolmaransstad,Wolmaranstad","latitude":"-27.1974","longitude":"25.98311","feature_class":"P","feature_code":"PPLA3","country_code":"ZA","cc2":"","admin1_code":"10","admin2_code":"DC40","admin3_code":"NW404","admin4_code":"","population":"49366","elevation":"","dem":"1357","timezone":"Africa/Johannesburg","modification_date":"2012-07-12"},{"geonameid":"938694","name":"White River","asciiname":"White River","alternatenames":"White River,Witrivier","latitude":"-25.33177","longitude":"31.01166","feature_class":"P","feature_code":"PPL","country_code":"ZA","cc2":"","admin1_code":"07","admin2_code":"DC32","admin3_code":"MP322","admin4_code":"","population":"15954","elevation":"","dem":"944","timezone":"Africa/Johannesburg","modification_date":"2012-07-12"},{"geonameid":"939270","name":"Witbank","asciiname":"Witbank","alternatenames":"EMalahleni,Ehmalakhleni,Emalahleni,Gorad Ehmalakhleni,Vitbank,Vitbankas,Witbank,wei te ban ke,Вітбанк,Горад Эмалахлені,Эмалахлени,وٹبینک,威特班克","latitude":"-25.87133","longitude":"29.23323","feature_class":"P","feature_code":"PPLA3","country_code":"ZA","cc2":"","admin1_code":"07","admin2_code":"DC31","admin3_code":"MP312","admin4_code":"","population":"262491","elevation":"","dem":"1629","timezone":"Africa/Johannesburg","modification_date":"2012-07-12"},{"geonameid":"939608","name":"Winburg","asciiname":"Winburg","alternatenames":"Winburg","latitude":"-28.51805","longitude":"27.00933","feature_class":"P","feature_code":"PPL","country_code":"ZA","cc2":"","admin1_code":"03","admin2_code":"DC18","admin3_code":"FS181","admin4_code":"","population":"11072","elevation":"","dem":"1438","timezone":"Africa/Johannesburg","modification_date":"2012-07-12"},{"geonameid":"939676","name":"Willowmore","asciiname":"Willowmore","alternatenames":"","latitude":"-33.29265","longitude":"23.48954","feature_class":"P","feature_code":"PPLA3","country_code":"ZA","cc2":"","admin1_code":"05","admin2_code":"DC10","admin3_code":"EC107","admin4_code":"","population":"7100","elevation":"","dem":"828","timezone":"Africa/Johannesburg","modification_date":"2012-07-12"},{"geonameid":"939702","name":"Williston","asciiname":"Williston","alternatenames":"Williston","latitude":"-31.34048","longitude":"20.91544","feature_class":"P","feature_code":"PPLA3","country_code":"ZA","cc2":"","admin1_code":"08","admin2_code":"DC6","admin3_code":"NC066","admin4_code":"","population":"0","elevation":"","dem":"1078","timezone":"Africa/Johannesburg","modification_date":"2012-07-12"},{"geonameid":"940186","name":"Whittlesea","asciiname":"Whittlesea","alternatenames":"Whittlesea","latitude":"-32.17588","longitude":"26.82437","feature_class":"P","feature_code":"PPL","country_code":"ZA","cc2":"","admin1_code":"05","admin2_code":"DC13","admin3_code":"EC134","admin4_code":"","population":"12080","elevation":"","dem":"1062","timezone":"Africa/Johannesburg","modification_date":"2013-04-04"},{"geonameid":"940316","name":"Westonaria","asciiname":"Westonaria","alternatenames":"Vestonarija,Westonaria,Вестонария","latitude":"-26.31905","longitude":"27.6486","feature_class":"P","feature_code":"PPLA3","country_code":"ZA","cc2":"","admin1_code":"06","admin2_code":"DC48","admin3_code":"GT483","admin4_code":"","population":"156831","elevation":"","dem":"1593","timezone":"Africa/Johannesburg","modification_date":"2012-07-12"},{"geonameid":"940424","name":"Wesselsbron","asciiname":"Wesselsbron","alternatenames":"Wesselsbron","latitude":"-27.8549","longitude":"26.36583","feature_class":"P","feature_code":"PPL","country_code":"ZA","cc2":"","admin1_code":"03","admin2_code":"DC18","admin3_code":"FS185","admin4_code":"","population":"42552","elevation":"","dem":"1315","timezone":"Africa/Johannesburg","modification_date":"2012-07-12"},{"geonameid":"940909","name":"Welkom","asciiname":"Welkom","alternatenames":"Velkom,Velkomas,WEL,Welkom,u~erukomu,wei er ke mu,Велком,Վելկոմ,ウェルコム,韋爾科姆","latitude":"-27.97742","longitude":"26.73506","feature_class":"P","feature_code":"PPLA2","country_code":"ZA","cc2":"","admin1_code":"03","admin2_code":"DC18","admin3_code":"FS184","admin4_code":"","population":"431944","elevation":"","dem":"1376","timezone":"Africa/Johannesburg","modification_date":"2013-11-03"},{"geonameid":"941923","name":"Wartburg","asciiname":"Wartburg","alternatenames":"Wartburg","latitude":"-29.43184","longitude":"30.57567","feature_class":"P","feature_code":"PPLA3","country_code":"ZA","cc2":"","admin1_code":"02","admin2_code":"DC22","admin3_code":"KZN221","admin4_code":"","population":"0","elevation":"","dem":"950","timezone":"Africa/Johannesburg","modification_date":"2012-07-12"},{"geonameid":"941931","name":"Warrenton","asciiname":"Warrenton","alternatenames":"Warrenton","latitude":"-28.11396","longitude":"24.84753","feature_class":"P","feature_code":"PPLA3","country_code":"ZA","cc2":"","admin1_code":"08","admin2_code":"DC9","admin3_code":"NC093","admin4_code":"","population":"17946","elevation":"","dem":"1190","timezone":"Africa/Johannesburg","modification_date":"2012-07-12"},{"geonameid":"941966","name":"Warmbaths","asciiname":"Warmbaths","alternatenames":"Warmbad,Warmbaths","latitude":"-24.88333","longitude":"28.28333","feature_class":"P","feature_code":"PPL","country_code":"ZA","cc2":"","admin1_code":"09","admin2_code":"DC36","admin3_code":"LIM366","admin4_code":"","population":"90210","elevation":"","dem":"1136","timezone":"Africa/Johannesburg","modification_date":"2012-07-12"},{"geonameid":"942470","name":"Vryheid","asciiname":"Vryheid","alternatenames":"VYD,Vryheid","latitude":"-27.76952","longitude":"30.79165","feature_class":"P","feature_code":"PPLA3","country_code":"ZA","cc2":"","admin1_code":"02","admin2_code":"DC26","admin3_code":"KZN263","admin4_code":"","population":"150012","elevation":"","dem":"1170","timezone":"Africa/Johannesburg","modification_date":"2012-07-12"},{"geonameid":"942511","name":"Vryburg","asciiname":"Vryburg","alternatenames":"Frejburg,Frejburga,VRU,Vryburg,fu lei bao,Фрейбург,Фрейбурга,弗雷堡","latitude":"-26.95659","longitude":"24.7284","feature_class":"P","feature_code":"PPLA2","country_code":"ZA","cc2":"","admin1_code":"10","admin2_code":"DC39","admin3_code":"NW392","admin4_code":"","population":"49588","elevation":"","dem":"1202","timezone":"Africa/Johannesburg","modification_date":"2012-07-12"},{"geonameid":"942683","name":"Vredefort","asciiname":"Vredefort","alternatenames":"Vredefort","latitude":"-27.00805","longitude":"27.3646","feature_class":"P","feature_code":"PPL","country_code":"ZA","cc2":"","admin1_code":"03","admin2_code":"DC20","admin3_code":"FS203","admin4_code":"","population":"10649","elevation":"","dem":"1425","timezone":"Africa/Johannesburg","modification_date":"2012-07-12"},{"geonameid":"942701","name":"Vrede","asciiname":"Vrede","alternatenames":"Vrede","latitude":"-27.42573","longitude":"29.16585","feature_class":"P","feature_code":"PPLA3","country_code":"ZA","cc2":"","admin1_code":"03","admin2_code":"DC19","admin3_code":"FS195","admin4_code":"","population":"14622","elevation":"","dem":"1678","timezone":"Africa/Johannesburg","modification_date":"2012-07-12"},{"geonameid":"943032","name":"Volksrust","asciiname":"Volksrust","alternatenames":"Volkrust,Volksrust","latitude":"-27.36541","longitude":"29.88175","feature_class":"P","feature_code":"PPLA3","country_code":"ZA","cc2":"","admin1_code":"07","admin2_code":"DC30","admin3_code":"MP304","admin4_code":"","population":"43378","elevation":"","dem":"1664","timezone":"Africa/Johannesburg","modification_date":"2012-07-12"},{"geonameid":"943882","name":"Virginia","asciiname":"Virginia","alternatenames":"Virdzhinija,Virginia,Вирджиния","latitude":"-28.10391","longitude":"26.86593","feature_class":"P","feature_code":"PPL","country_code":"ZA","cc2":"","admin1_code":"03","admin2_code":"DC18","admin3_code":"FS184","admin4_code":"","population":"122502","elevation":"","dem":"1326","timezone":"Africa/Johannesburg","modification_date":"2012-07-12"},{"geonameid":"943937","name":"Villiers","asciiname":"Villiers","alternatenames":"Villiers","latitude":"-27.03026","longitude":"28.60061","feature_class":"P","feature_code":"PPL","country_code":"ZA","cc2":"","admin1_code":"03","admin2_code":"DC20","admin3_code":"FS205","admin4_code":"","population":"11240","elevation":"","dem":"1517","timezone":"Africa/Johannesburg","modification_date":"2012-07-12"},{"geonameid":"943960","name":"Viljoenskroon","asciiname":"Viljoenskroon","alternatenames":"Viljoenskroon","latitude":"-27.20841","longitude":"26.94855","feature_class":"P","feature_code":"PPL","country_code":"ZA","cc2":"","admin1_code":"03","admin2_code":"DC20","admin3_code":"FS201","admin4_code":"","population":"54955","elevation":"","dem":"1345","timezone":"Africa/Johannesburg","modification_date":"2012-07-12"},{"geonameid":"944024","name":"Victoria West","asciiname":"Victoria West","alternatenames":"Victoria West,Victoria-Wes","latitude":"-31.40364","longitude":"23.11461","feature_class":"P","feature_code":"PPLA3","country_code":"ZA","cc2":"","admin1_code":"08","admin2_code":"DC7","admin3_code":"NC071","admin4_code":"","population":"0","elevation":"","dem":"1277","timezone":"Africa/Johannesburg","modification_date":"2012-07-12"},{"geonameid":"944385","name":"Vereeniging","asciiname":"Vereeniging","alternatenames":"Feriniging,Ferinikhing,Vereeniging,Vereniging,Verenigingas,ferinihingu,fu li ni xin,peleinihing,wrynygyng,Веренигинг,Феринихинг,Ферінігінг,ورینیگینگ,フェリーニヒング,弗里尼欣,페레이니힝","latitude":"-26.67313","longitude":"27.92615","feature_class":"P","feature_code":"PPLA2","country_code":"ZA","cc2":"","admin1_code":"06","admin2_code":"DC42","admin3_code":"GT421","admin4_code":"","population":"474681","elevation":"","dem":"1445","timezone":"Africa/Johannesburg","modification_date":"2012-07-12"},{"geonameid":"944531","name":"Ventersdorp","asciiname":"Ventersdorp","alternatenames":"Ventersdorp","latitude":"-26.31401","longitude":"26.82223","feature_class":"P","feature_code":"PPLA3","country_code":"ZA","cc2":"","admin1_code":"10","admin2_code":"DC40","admin3_code":"NW401","admin4_code":"","population":"0","elevation":"","dem":"1485","timezone":"Africa/Johannesburg","modification_date":"2012-07-12"},{"geonameid":"944540","name":"Ventersburg","asciiname":"Ventersburg","alternatenames":"Ventersburg","latitude":"-28.08561","longitude":"27.13814","feature_class":"P","feature_code":"PPL","country_code":"ZA","cc2":"","admin1_code":"03","admin2_code":"DC18","admin3_code":"FS184","admin4_code":"","population":"10698","elevation":"","dem":"1435","timezone":"Africa/Johannesburg","modification_date":"2012-07-12"},{"geonameid":"944986","name":"Vanderbijlpark","asciiname":"Vanderbijlpark","alternatenames":"Fanderbajpark,Fanderbejlpark,Vanderbijlpark,fan de bai er pa ke,fandrbyjlbark,phandarabilaparka,wandrbjlpark,wndrbyjlprk,Фандербајпарк,Фандербейлпарк,فاندربيجلبارك,واندربجلپارک,وندربیجلپرک,फांडरबीलपार्क,范德拜爾帕克","latitude":"-26.71171","longitude":"27.83795","feature_class":"P","feature_code":"PPLA3","country_code":"ZA","cc2":"","admin1_code":"06","admin2_code":"DC42","admin3_code":"GT421","admin4_code":"","population":"246754","elevation":"","dem":"1485","timezone":"Africa/Johannesburg","modification_date":"2012-07-12"},{"geonameid":"945813","name":"Utrecht","asciiname":"Utrecht","alternatenames":"Utrecht","latitude":"-27.65862","longitude":"30.32166","feature_class":"P","feature_code":"PPLA3","country_code":"ZA","cc2":"","admin1_code":"02","admin2_code":"DC25","admin3_code":"KZN253","admin4_code":"","population":"3575","elevation":"","dem":"1217","timezone":"Africa/Johannesburg","modification_date":"2012-07-12"},{"geonameid":"945945","name":"Upington","asciiname":"Upington","alternatenames":"Apington,UTN,Upington,eopingteon,wu ping tong,Апингтон,烏平通,어핑턴","latitude":"-28.44776","longitude":"21.25612","feature_class":"P","feature_code":"PPLA2","country_code":"ZA","cc2":"","admin1_code":"08","admin2_code":"DC8","admin3_code":"NC083","admin4_code":"","population":"71373","elevation":"","dem":"808","timezone":"Africa/Johannesburg","modification_date":"2012-07-12"},{"geonameid":"946058","name":"Mthatha","asciiname":"Mthatha","alternatenames":"Mthatha,UTT,Umtata,umutata,wu mu ta ta,Умтата,متھاتھا,ウムタタ,烏姆塔塔","latitude":"-31.58893","longitude":"28.78443","feature_class":"P","feature_code":"PPL","country_code":"ZA","cc2":"","admin1_code":"05","admin2_code":"DC15","admin3_code":"EC157","admin4_code":"","population":"78663","elevation":"","dem":"694","timezone":"Africa/Johannesburg","modification_date":"2015-04-24"},{"geonameid":"946128","name":"Umkomaas","asciiname":"Umkomaas","alternatenames":"Umkomaas","latitude":"-30.20674","longitude":"30.79776","feature_class":"P","feature_code":"PPL","country_code":"ZA","cc2":"","admin1_code":"02","admin2_code":"ETH","admin3_code":"ETH","admin4_code":"","population":"20410","elevation":"","dem":"41","timezone":"Africa/Johannesburg","modification_date":"2012-07-12"},{"geonameid":"946257","name":"Ulundi","asciiname":"Ulundi","alternatenames":"Owlundi,ULD,Ulundi,ullundi,urundi,wu lun di,Улунди,Улунді,Ուլունդի,ウルンディ,烏倫迪,울룬디","latitude":"-28.33523","longitude":"31.41617","feature_class":"P","feature_code":"PPLA2","country_code":"ZA","cc2":"","admin1_code":"02","admin2_code":"DC26","admin3_code":"KZN266","admin4_code":"","population":"20753","elevation":"","dem":"484","timezone":"Africa/Johannesburg","modification_date":"2012-07-12"},{"geonameid":"946877","name":"Uitenhage","asciiname":"Uitenhage","alternatenames":"Ehjtenkhakhe,Ejtenkhakhe,Jutunkhakh,Uitenhage,awytnhag,oitenhahe,Ейтенхахе,Эйтенхахе,Ютънхах,اویتنهاگ,オイテンハーヘ","latitude":"-33.75757","longitude":"25.3971","feature_class":"P","feature_code":"PPL","country_code":"ZA","cc2":"","admin1_code":"05","admin2_code":"NMA","admin3_code":"NMA","admin4_code":"","population":"228912","elevation":"","dem":"103","timezone":"Africa/Johannesburg","modification_date":"2012-07-12"},{"geonameid":"946973","name":"Tzaneen","asciiname":"Tzaneen","alternatenames":"LTA,Tzaneen,cha nen,zanyn,Тзанеен,زانین,察嫩","latitude":"-23.83322","longitude":"30.16351","feature_class":"P","feature_code":"PPLA3","country_code":"ZA","cc2":"","admin1_code":"09","admin2_code":"DC33","admin3_code":"LIM333","admin4_code":"","population":"16954","elevation":"","dem":"719","timezone":"Africa/Johannesburg","modification_date":"2013-11-03"},{"geonameid":"947666","name":"Tugela Ferry","asciiname":"Tugela Ferry","alternatenames":"Tugela Ferry","latitude":"-28.74649","longitude":"30.45126","feature_class":"P","feature_code":"PPLA3","country_code":"ZA","cc2":"","admin1_code":"02","admin2_code":"DC24","admin3_code":"KZN244","admin4_code":"","population":"0","elevation":"","dem":"559","timezone":"Africa/Johannesburg","modification_date":"2012-07-12"},{"geonameid":"948099","name":"Trompsburg","asciiname":"Trompsburg","alternatenames":"Trompsburg","latitude":"-30.03363","longitude":"25.78041","feature_class":"P","feature_code":"PPLA2","country_code":"ZA","cc2":"","admin1_code":"03","admin2_code":"DC16","admin3_code":"FS162","admin4_code":"","population":"0","elevation":"","dem":"1418","timezone":"Africa/Johannesburg","modification_date":"2012-07-12"},{"geonameid":"949026","name":"Thulamahashi","asciiname":"Thulamahashi","alternatenames":"","latitude":"-24.72459","longitude":"31.19939","feature_class":"P","feature_code":"PPL","country_code":"ZA","cc2":"","admin1_code":"09","admin2_code":"","admin3_code":"","admin4_code":"","population":"11655","elevation":"","dem":"488","timezone":"Africa/Johannesburg","modification_date":"2011-04-19"},{"geonameid":"949224","name":"Thohoyandou","asciiname":"Thohoyandou","alternatenames":"THY,Thohoyandou,Thohoyanḓou,Tkhokhojandou,suo he yan du,Тхохояндоу,تھوہویانڈو,索赫燕杜","latitude":"-22.94564","longitude":"30.48497","feature_class":"P","feature_code":"PPLA2","country_code":"ZA","cc2":"","admin1_code":"09","admin2_code":"DC34","admin3_code":"LIM343","admin4_code":"","population":"44046","elevation":"","dem":"724","timezone":"Africa/Johannesburg","modification_date":"2012-07-12"},