{"nextFile":"cities.124.json","rows":[{"geonameid":"1608529","name":"Nakhon Ratchasima","asciiname":"Nakhon Ratchasima","alternatenames":"Amphoe Muang Nakhon Ratchasima,Changwat Nakhon Rarchasima,Changwat Nakhon Rat Sima,Corat,Khorat,Korat,Koyat,Lungsod ng Nakhon Ratchasima,Muang Nakawn Rachasima,NAK,Nagara Rajasima,Nagor Rajashima,Nagor Rajasima,Nakhaun Rachasima,Nakhon Ratcasima,Nakhon Ratchasim,Nakhon Ratchasima,Nakhon Ratchsima,Nakhon Ratcsaszima,Nakhon Ratczasima,Nakhon Ratčasima,Nakhonratcasim,Nakhonratcasima,Nakhonratsima,Nakhonratčasim,Nakhonratčasima,Nakkhonratchasima,Nakonrajsima,Nakonratchasima,Nakorn Rajsima,a le,nakhwn ratshasyma,nakonlaschasima,nakonrachashima,nkhrrachsima,thesbal nkhr nkhrrachsima,Накхонратчасима,ناخون راتشاسيما,ناکھون راتچاسیما,نکھون راٹچاسیما,นครราชสีมา,เทศบาลนครนครราชสีมา,ན་ཁཱོན་ར་ཊི་ཅ་སི་མ།,នគររាជសីមា,ナコーンラーチャシーマー,呵叻,나콘랏차시마","latitude":"14.97066","longitude":"102.10196","feature_class":"P","feature_code":"PPLA","country_code":"TH","cc2":"","admin1_code":"27","admin2_code":"","admin3_code":"","admin4_code":"","population":"208781","elevation":"","dem":"187","timezone":"Asia/Bangkok","modification_date":"2011-05-28"},{"geonameid":"1608531","name":"Nakhon Phanom","asciiname":"Nakhon Phanom","alternatenames":"Amphoe Muang Nakhon Phanom,Amphoe Nong Buek,Ban Nakhon Phnom,Changwat Muang Nakhon Phanom,Changwat Nakhon Phanom,KOP,Lakhon,Muang Nakhon Phanom,Mueang Nakhon Phanom,Nagorn Bhanom,Nakawn Panom,Nakhaun Phanom,Nakhon Phanom,Nakol Phanom,Nakon Panom,Nakorn Panom,Naung Bua,Nong Buk,nkhrphnm,นครพนม","latitude":"17.41081","longitude":"104.77856","feature_class":"P","feature_code":"PPLA","country_code":"TH","cc2":"","admin1_code":"73","admin2_code":"","admin3_code":"","admin4_code":"","population":"34595","elevation":"","dem":"154","timezone":"Asia/Bangkok","modification_date":"2012-01-16"},{"geonameid":"1608534","name":"Nakhon Pathom","asciiname":"Nakhon Pathom","alternatenames":"Amphoe Muang Nakhon Pathom,Changwat Nakhon Chai Si,Changwat Nakhon Pathom,Monthon Nakhon Chai Si,Mueang Nakhon Pathom,Nagara Pathom,Nagorn Pathom,Nakawn Patom,Nakhaun Pathom,Nakhon Chai Si,Nakhon Pathom,Nakkhonpatkhom,Nakon Patom,fu tong,nakhwn batwm,nakonpatomu,nakonppatom,nkhrpthm,thesbal nkhr nkhrpthm,Накхонпатхом,ناخون باتوم,ناکھون پاتھوم,นครปฐม,เทศบาลนครนครปฐม,ナコーンパトム,佛统,나콘빠톰","latitude":"13.8196","longitude":"100.04427","feature_class":"P","feature_code":"PPLA","country_code":"TH","cc2":"","admin1_code":"53","admin2_code":"","admin3_code":"","admin4_code":"","population":"117927","elevation":"","dem":"11","timezone":"Asia/Bangkok","modification_date":"2012-01-16"},{"geonameid":"1608539","name":"Nakhon Nayok","asciiname":"Nakhon Nayok","alternatenames":"Amphoe Muang Nakhon Nayok,Amphoe Nakhon Nayok,Changwat Nakhon Nayok,Muang Nagorn Nayok,Muang Nakawn Nayok,Muang Nakhon Nayok,Mueang Lablae,Mueang Nakhon Nayok,Nagorn Nayok,Nakaunnayok,Nakaunnoyok,Nakhaun Nayok,Nakhon Nauok,Nakhon Nayok,Nakon Nayok,Nayok,nkhrnayk,นครนายก","latitude":"14.20463","longitude":"101.21295","feature_class":"P","feature_code":"PPLA","country_code":"TH","cc2":"","admin1_code":"43","admin2_code":"","admin3_code":"","admin4_code":"","population":"21309","elevation":"","dem":"12","timezone":"Asia/Bangkok","modification_date":"2012-01-16"},{"geonameid":"1608541","name":"Nakhon Luang","asciiname":"Nakhon Luang","alternatenames":"Amphoe Nakhon Klang,Amphoe Nakhon Luang,Amphu Luang,Ban Nakhon Luang,Hluang,Hlūang,Nakhon Luang,nkhrhlwng,นครหลวง","latitude":"14.46281","longitude":"100.60832","feature_class":"P","feature_code":"PPLA2","country_code":"TH","cc2":"","admin1_code":"36","admin2_code":"","admin3_code":"","admin4_code":"","population":"15008","elevation":"","dem":"9","timezone":"Asia/Bangkok","modification_date":"2012-01-16"},{"geonameid":"1608545","name":"Nakhon Chai Si","asciiname":"Nakhon Chai Si","alternatenames":"Amphoe Nakhon Chai,Amphoe Nakhon Chai Si,Ban Pak Nam,Mueang Nakhon Chai Si,Nagorn Jaisri,Nakhon Chai Si,Talat Amphoe Nakhon Chai Si,nkhrchaysri,นครชัยศรี","latitude":"13.80126","longitude":"100.18451","feature_class":"P","feature_code":"PPLA2","country_code":"TH","cc2":"","admin1_code":"53","admin2_code":"","admin3_code":"","admin4_code":"","population":"0","elevation":"","dem":"6","timezone":"Asia/Bangkok","modification_date":"2012-01-16"},{"geonameid":"1608551","name":"Na Kae","asciiname":"Na Kae","alternatenames":"Amphoe Ban Na Kae,Amphoe Na Kae,Amphoe Nakel,Amphoe Nong Sun,Ban Na Kae,Ban Na Ke,King Amphoe Na Kae,Mueang Kabin,Na Kae,Nakel,nahwa,นาหว้า","latitude":"16.94645","longitude":"104.50081","feature_class":"P","feature_code":"PPLA2","country_code":"TH","cc2":"","admin1_code":"73","admin2_code":"","admin3_code":"","admin4_code":"","population":"0","elevation":"","dem":"153","timezone":"Asia/Bangkok","modification_date":"2012-01-16"},{"geonameid":"1608568","name":"Na Chueak","asciiname":"Na Chueak","alternatenames":"Amphoe Na Chueak,Ban Na Chuak,King Amphoe Na Chueak,Na Chuak,Na Chueak,nacheuxk,นาเชือก","latitude":"15.79339","longitude":"103.03184","feature_class":"P","feature_code":"PPLA2","country_code":"TH","cc2":"","admin1_code":"24","admin2_code":"1608567","admin3_code":"","admin4_code":"","population":"0","elevation":"","dem":"165","timezone":"Asia/Bangkok","modification_date":"2013-12-15"},{"geonameid":"1608570","name":"Na Chaluai","asciiname":"Na Chaluai","alternatenames":"Amphoe Na Chaluai,Ban Na Chaluai,King Amphoe Na Chaluai,Na Chaluai,nacahlwy,นาจะหลวย","latitude":"14.52046","longitude":"105.24478","feature_class":"P","feature_code":"PPLA2","country_code":"TH","cc2":"","admin1_code":"75","admin2_code":"","admin3_code":"","admin4_code":"","population":"0","elevation":"","dem":"198","timezone":"Asia/Bangkok","modification_date":"2012-01-16"},{"geonameid":"1608597","name":"Mukdahan","asciiname":"Mukdahan","alternatenames":"Amphoe Mueang Mukdahan,Amphoe Mukdahan,Ban Mouk,Ban Si Mongkhon,Ban Srimongkhon,Makdaharn,Mokdaharn,Muang Ban Muk Dahan,Muang Muk Da Han,Mueang Mukdahan,Mueng Mukdahan,Muk,Mukdahan,Mukdaharn,Mukdakhan,Mukdatarn,Si Mongkhon,Srimongkhon,mukdahar,Мукдахан,มุกดาหาร","latitude":"16.54531","longitude":"104.72351","feature_class":"P","feature_code":"PPLA","country_code":"TH","cc2":"","admin1_code":"78","admin2_code":"","admin3_code":"","admin4_code":"","population":"40480","elevation":"","dem":"145","timezone":"Asia/Bangkok","modification_date":"2012-01-16"},{"geonameid":"1608614","name":"Mueang Suang","asciiname":"Mueang Suang","alternatenames":"Amphoe Muang Suang,Amphoe Mueang Suang,King Amphoe Mueang Suang,Mueang Suang,meuxngsrwng,เมืองสรวง","latitude":"15.82192","longitude":"103.72884","feature_class":"P","feature_code":"PPLA2","country_code":"TH","cc2":"","admin1_code":"25","admin2_code":"","admin3_code":"","admin4_code":"","population":"0","elevation":"","dem":"157","timezone":"Asia/Bangkok","modification_date":"2012-01-16"},{"geonameid":"1608625","name":"Muang Sam Sip","asciiname":"Muang Sam Sip","alternatenames":"Amphoe Kasem Sima,Amphoe Muang Sam Sip,Amphoe Utara Ubon,Ban Muang Samsip,Muang Nam Sip,Muang Sam Sip,mwngsamsib,ม่วงสามสิบ","latitude":"15.51307","longitude":"104.72565","feature_class":"P","feature_code":"PPLA2","country_code":"TH","cc2":"","admin1_code":"75","admin2_code":"","admin3_code":"","admin4_code":"","population":"0","elevation":"","dem":"143","timezone":"Asia/Bangkok","modification_date":"2012-01-16"},{"geonameid":"1608718","name":"Min Buri","asciiname":"Min Buri","alternatenames":"Amphoe Min Buri,Min Buri,minburi,มีนบุรี","latitude":"13.81407","longitude":"100.73135","feature_class":"P","feature_code":"PPLA2","country_code":"TH","cc2":"","admin1_code":"40","admin2_code":"","admin3_code":"","admin4_code":"","population":"0","elevation":"","dem":"6","timezone":"Asia/Bangkok","modification_date":"2012-01-16"},{"geonameid":"1608725","name":"Moeiwadi","asciiname":"Moeiwadi","alternatenames":"Amphoe Moei Wadi,King Amphoe Moei Wadi,Meyawadi,Moei Wadi,Moeiwadi,mey wdi,เมยวดี","latitude":"16.38944","longitude":"104.1572","feature_class":"P","feature_code":"PPLA2","country_code":"TH","cc2":"","admin1_code":"25","admin2_code":"","admin3_code":"","admin4_code":"","population":"5609","elevation":"","dem":"176","timezone":"Asia/Bangkok","modification_date":"2013-12-12"},{"geonameid":"1608733","name":"Mayo","asciiname":"Mayo","alternatenames":"Amphoe Ma Yo,Amphoe Rako,Ban Majo,Ban Mayau,Ban Mayo,Ban Māyau,Kampong Ma Yau,Kampong Mayo,Ma Yau,Ma Yo,Mayo,mayx,มายอ","latitude":"6.71864","longitude":"101.40983","feature_class":"P","feature_code":"PPLA2","country_code":"TH","cc2":"","admin1_code":"69","admin2_code":"","admin3_code":"","admin4_code":"","population":"0","elevation":"","dem":"27","timezone":"Asia/Bangkok","modification_date":"2012-01-16"},{"geonameid":"1608762","name":"Manorom","asciiname":"Manorom","alternatenames":"Amphoe Manorom,Ban Khung Samphao,Ban Kung Samphao,Ban Manorom Nua,Khung Samphao,King Amphoe Manorom,Manorom,Muang Manorom,mnormy,มโนรมย์","latitude":"15.30997","longitude":"100.08283","feature_class":"P","feature_code":"PPLA2","country_code":"TH","cc2":"","admin1_code":"32","admin2_code":"","admin3_code":"","admin4_code":"","population":"0","elevation":"","dem":"28","timezone":"Asia/Bangkok","modification_date":"2012-01-16"},{"geonameid":"1608774","name":"Mancha Khiri","asciiname":"Mancha Khiri","alternatenames":"Amphoe Kut Kao,Amphoe Kut Khao,Amphoe Mancha Khiri,Ban Han,Koot Kao,Kut Khao,Mancha Khiri,maycakhiri,มัญจาคีรี","latitude":"16.13048","longitude":"102.53712","feature_class":"P","feature_code":"PPLA2","country_code":"TH","cc2":"","admin1_code":"22","admin2_code":"","admin3_code":"","admin4_code":"","population":"0","elevation":"","dem":"168","timezone":"Asia/Bangkok","modification_date":"2012-01-16"},{"geonameid":"1608808","name":"Makham","asciiname":"Makham","alternatenames":"Amphoe Makham,Amphoe Tha Luang,Ban Makham,Makham,makham,มะขาม","latitude":"12.67292","longitude":"102.19575","feature_class":"P","feature_code":"PPLA2","country_code":"TH","cc2":"","admin1_code":"48","admin2_code":"","admin3_code":"","admin4_code":"","population":"0","elevation":"","dem":"11","timezone":"Asia/Bangkok","modification_date":"2012-01-16"},{"geonameid":"1608857","name":"Mai Kaen","asciiname":"Mai Kaen","alternatenames":"Amphoe Mai Kaen,Ban Mai Kaen,Ban Maiken,King Amphoe Mai Kaen,Mai Kaen,ไม้แก่น","latitude":"6.60975","longitude":"101.66686","feature_class":"P","feature_code":"PPLA2","country_code":"TH","cc2":"","admin1_code":"69","admin2_code":"","admin3_code":"","admin4_code":"","population":"0","elevation":"","dem":"14","timezone":"Asia/Bangkok","modification_date":"2012-01-16"},{"geonameid":"1608900","name":"Maha Sarakham","asciiname":"Maha Sarakham","alternatenames":"Amphoe Muang Maha Sarakham,Ban Khlong Khleng,Ban Lat,Ban Talat,Changwat Maha Sarakham,Maha Saragam,Maha Sarakam,Maha Sarakham,Mueang Maha Sarakham,Talat,Uthai Sarakham,mhasarkham,มหาสารคาม","latitude":"16.18483","longitude":"103.30067","feature_class":"P","feature_code":"PPLA","country_code":"TH","cc2":"","admin1_code":"24","admin2_code":"","admin3_code":"","admin4_code":"","population":"51584","elevation":"","dem":"155","timezone":"Asia/Bangkok","modification_date":"2012-01-16"},{"geonameid":"1608902","name":"Maha Rat","asciiname":"Maha Rat","alternatenames":"Amphoe Maharat,Ban Hua Phai,Ban Maha Rat (2),Khwaeng Nakhon Yai,Maha Rat,Maharaj,Mahāraj,mharach,มหาราช","latitude":"14.53367","longitude":"100.52672","feature_class":"P","feature_code":"PPLA2","country_code":"TH","cc2":"","admin1_code":"36","admin2_code":"","admin3_code":"","admin4_code":"","population":"0","elevation":"","dem":"12","timezone":"Asia/Bangkok","modification_date":"2012-01-16"},{"geonameid":"1608909","name":"Maha Chana Chai","asciiname":"Maha Chana Chai","alternatenames":"Amphoe Fa Yat,Amphoe Maha Chana Chai,Han Chai Chana,Maha Chana Chai,Mueang Maha Chana Chai,mhachnachay,มหาชนะชัย","latitude":"15.52935","longitude":"104.23847","feature_class":"P","feature_code":"PPLA2","country_code":"TH","cc2":"","admin1_code":"72","admin2_code":"","admin3_code":"","admin4_code":"","population":"0","elevation":"","dem":"132","timezone":"Asia/Bangkok","modification_date":"2012-01-16"},{"geonameid":"1608937","name":"Mae Charim","asciiname":"Mae Charim","alternatenames":"Mae Charim,แม่จริม","latitude":"18.70614","longitude":"101.0057","feature_class":"P","feature_code":"PPLA2","country_code":"TH","cc2":"","admin1_code":"04","admin2_code":"","admin3_code":"","admin4_code":"","population":"0","elevation":"","dem":"289","timezone":"Asia/Bangkok","modification_date":"2012-01-16"},{"geonameid":"1609032","name":"Lop Buri","asciiname":"Lop Buri","alternatenames":"Amphoe Muang Lop Buri,Ban Tha Hin,Changwat Lop Buri,Changwat Thahanbok Lop Buri,KKM,Lava Pura,Lavo,Lobh Buri,Lop Buri,Lopburi,Muang Lobh Buri,Muang Lopburi,Muang Xop Buri,Mueang Lop Buri,Tha Hin,lphburi,robburi,Лопбури,ลพบุรี,ロッブリー","latitude":"14.79808","longitude":"100.65397","feature_class":"P","feature_code":"PPLA","country_code":"TH","cc2":"","admin1_code":"34","admin2_code":"","admin3_code":"","admin4_code":"","population":"57761","elevation":"","dem":"20","timezone":"Asia/Bangkok","modification_date":"2012-01-16"},{"geonameid":"1609043","name":"Lom Sak","asciiname":"Lom Sak","alternatenames":"Amphoe Lom Sak,Amphoe Wat Pa,Ban Lom Sak,Changwat Muang Hlom Sak,Changwat Muang Lom Sak,Hlomsak,Lom Sak,Muang Hlom Sak,Muang Lom Sak,Wat Pa,hlmsak,หล่มสัก","latitude":"16.77983","longitude":"101.24225","feature_class":"P","feature_code":"PPLA2","country_code":"TH","cc2":"","admin1_code":"14","admin2_code":"","admin3_code":"","admin4_code":"","population":"17309","elevation":"","dem":"147","timezone":"Asia/Bangkok","modification_date":"2012-01-16"},{"geonameid":"1609048","name":"Lom Kao","asciiname":"Lom Kao","alternatenames":"Amphoe Lom Kao,Ban Lom Gao,Ban Lom Kao,Bān Lom Gāo,Hlomkao,Lom Kao,Mong Lom Kao,Möng Lom Kao,hlmkea,หล่มเก่า","latitude":"16.88614","longitude":"101.22894","feature_class":"P","feature_code":"PPLA2","country_code":"TH","cc2":"","admin1_code":"14","admin2_code":"","admin3_code":"","admin4_code":"","population":"0","elevation":"","dem":"163","timezone":"Asia/Bangkok","modification_date":"2012-01-16"},{"geonameid":"1609068","name":"Loeng Nok Tha","asciiname":"Loeng Nok Tha","alternatenames":"Amphoe Loeng Nok Tha,King Amphoe Loeng Nok Tha,Loeng Nok Tha,leingnktha,เลิงนกทา","latitude":"16.2075","longitude":"104.55528","feature_class":"P","feature_code":"PPLA2","country_code":"TH","cc2":"","admin1_code":"72","admin2_code":"","admin3_code":"","admin4_code":"","population":"0","elevation":"","dem":"164","timezone":"Asia/Bangkok","modification_date":"2012-01-16"},{"geonameid":"1609071","name":"Loei","asciiname":"Loei","alternatenames":"Amphoe Muang Loei,Changwat Loei,Changwat Muang Lai,Changwat Muang Loei,LOE,Leui,Loeh,Loei,Loey,Muang Lai,Muang Leoi,Muang Loei,Muang Loeui,Muang Loi,Mueang Loei,ley,Лоэ,เลย","latitude":"17.49052","longitude":"101.72749","feature_class":"P","feature_code":"PPLA","country_code":"TH","cc2":"","admin1_code":"18","admin2_code":"","admin3_code":"","admin4_code":"","population":"35273","elevation":"","dem":"244","timezone":"Asia/Bangkok","modification_date":"2012-01-16"},{"geonameid":"1609121","name":"Lat Lum Kaeo","asciiname":"Lat Lum Kaeo","alternatenames":"Amphoe Lat Hlumkeo,Amphoe Lat Lum Kaeo,Amphoe Rahaeng,Ban Rahaeng (1),Lat Lum Kaeo,ลาดหลุมแก้ว","latitude":"14.03728","longitude":"100.40486","feature_class":"P","feature_code":"PPLA2","country_code":"TH","cc2":"","admin1_code":"39","admin2_code":"","admin3_code":"","admin4_code":"","population":"0","elevation":"","dem":"7","timezone":"Asia/Bangkok","modification_date":"2012-01-16"},{"geonameid":"1609141","name":"Lat Bua Luang","asciiname":"Lat Bua Luang","alternatenames":"Amphoe Lat Bua Luang,Ban Khlong Phraya Ban,Ban Khlong Phraya Banru,Ban Klong Phya Banroe,Ban Lat Bua Luang,Khlong Phraya Banlu,King Amphoe Lat Bua Luang,Lat Bua Luang,ladbawhlwng,ลาดบัวหลวง","latitude":"14.16572","longitude":"100.30789","feature_class":"P","feature_code":"PPLA2","country_code":"TH","cc2":"","admin1_code":"36","admin2_code":"","admin3_code":"","admin4_code":"","population":"0","elevation":"","dem":"8","timezone":"Asia/Bangkok","modification_date":"2012-01-16"},{"geonameid":"1609163","name":"Lap Lae","asciiname":"Lap Lae","alternatenames":"Amphoe Lap Lae,Amphu Lubla,Ban Yang Gadai,Ban Yang Kadai,Bān Yāng Gadāi,Lap Lae,Lap Lea,Lap Lēa,Yang Kadai,ลับแล","latitude":"17.65211","longitude":"100.03892","feature_class":"P","feature_code":"PPLA2","country_code":"TH","cc2":"","admin1_code":"10","admin2_code":"","admin3_code":"","admin4_code":"","population":"0","elevation":"","dem":"85","timezone":"Asia/Bangkok","modification_date":"2012-01-16"},{"geonameid":"1609204","name":"Lam Plai Mat","asciiname":"Lam Plai Mat","alternatenames":"Amphoe Lam Plai Mat,Ban Lam Plai Mat,King Amphoe Lam Plai Mat,Lam Plai Mat,la playmas,ลำปลายมาศ","latitude":"15.0252","longitude":"102.83894","feature_class":"P","feature_code":"PPLA2","country_code":"TH","cc2":"","admin1_code":"28","admin2_code":"","admin3_code":"","admin4_code":"","population":"0","elevation":"","dem":"169","timezone":"Asia/Bangkok","modification_date":"2012-01-16"},{"geonameid":"1609219","name":"Lam Luk Ka","asciiname":"Lam Luk Ka","alternatenames":"Amphoe Lam Luk Ka,Ban Lam Luk Ka,Lam Luk Ka,Luk Ka,Lūk Ka,lalukka,ลำลูกกา","latitude":"13.93226","longitude":"100.74937","feature_class":"P","feature_code":"PPLA2","country_code":"TH","cc2":"","admin1_code":"39","admin2_code":"","admin3_code":"","admin4_code":"","population":"0","elevation":"","dem":"8","timezone":"Asia/Bangkok","modification_date":"2012-01-16"},{"geonameid":"1609223","name":"Lamduan","asciiname":"Lamduan","alternatenames":"Amphoe Lamduan,Ban Lamduan,King Amphoe Lamduan,Lamduan,Muang Sarapin,Muang Suraphin,Muang Surapin,Mueang Suraphi Nathon Nikhom,Surapin,ladwn,ลำดวน","latitude":"14.72205","longitude":"103.66934","feature_class":"P","feature_code":"PPLA2","country_code":"TH","cc2":"","admin1_code":"29","admin2_code":"","admin3_code":"","admin4_code":"","population":"0","elevation":"","dem":"159","timezone":"Asia/Bangkok","modification_date":"2012-01-16"},{"geonameid":"1609258","name":"Lahan Sai","asciiname":"Lahan Sai","alternatenames":"Amphoe Lahan Sai,Ban Lahan Sai,Ban Laharn Sai,King Amphoe Lahan Sai,Lahan Sai,lahanthray,ละหานทราย","latitude":"14.41142","longitude":"102.85936","feature_class":"P","feature_code":"PPLA2","country_code":"TH","cc2":"","admin1_code":"28","admin2_code":"","admin3_code":"","admin4_code":"","population":"0","elevation":"","dem":"216","timezone":"Asia/Bangkok","modification_date":"2014-08-05"},{"geonameid":"1609278","name":"Laem Sing","asciiname":"Laem Sing","alternatenames":"Amphoe Laem Sing,Amphoe Phlio,Laem Sing,Naiamphur,แหลมสิงห์","latitude":"12.48164","longitude":"102.07375","feature_class":"P","feature_code":"PPLA2","country_code":"TH","cc2":"","admin1_code":"48","admin2_code":"","admin3_code":"","admin4_code":"","population":"16066","elevation":"","dem":"6","timezone":"Asia/Bangkok","modification_date":"2012-01-16"},{"geonameid":"1609283","name":"Laem Ngop","asciiname":"Laem Ngop","alternatenames":"Amphoe Kau Chang,Amphoe Ko Chang,Amphoe Kohjang,Amphoe Laem Ngop,Ban Laem Ngop,Ban Rian Va,Kau Chang,Laem Ngaup,Laem Ngop,Laem Ngorb,Lem Ngop,แหลมงอบ","latitude":"12.17169","longitude":"102.39489","feature_class":"P","feature_code":"PPLA2","country_code":"TH","cc2":"","admin1_code":"49","admin2_code":"","admin3_code":"","admin4_code":"","population":"0","elevation":"","dem":"6","timezone":"Asia/Bangkok","modification_date":"2012-01-16"},{"geonameid":"1609318","name":"Kut Khaopun","asciiname":"Kut Khaopun","alternatenames":"Amphoe Kut Khaopun,King Amphoe Kut Khaopun,Kut Khaopun,kudkhawpun,กุดข้าวปุ้น","latitude":"15.79267","longitude":"104.99814","feature_class":"P","feature_code":"PPLA2","country_code":"TH","cc2":"","admin1_code":"75","admin2_code":"","admin3_code":"","admin4_code":"","population":"0","elevation":"","dem":"155","timezone":"Asia/Bangkok","modification_date":"2012-01-16"},{"geonameid":"1609321","name":"Kut Chum","asciiname":"Kut Chum","alternatenames":"Amphoe Kut Chum,Ban Kut Chum,King Amphoe Kut Chum,Kut Chum,kudchum,กุดชุม","latitude":"16.03289","longitude":"104.33936","feature_class":"P","feature_code":"PPLA2","country_code":"TH","cc2":"","admin1_code":"72","admin2_code":"","admin3_code":"","admin4_code":"","population":"0","elevation":"","dem":"159","timezone":"Asia/Bangkok","modification_date":"2012-01-16"},{"geonameid":"1609324","name":"Kut Chap","asciiname":"Kut Chap","alternatenames":"Amphoe Kut Chap,Ban Kut Chap,King Amphoe Kut Chap,Kut Chap,kudcab,กุดจับ","latitude":"17.4257","longitude":"102.56692","feature_class":"P","feature_code":"PPLA2","country_code":"TH","cc2":"","admin1_code":"76","admin2_code":"","admin3_code":"","admin4_code":"","population":"24696","elevation":"","dem":"197","timezone":"Asia/Bangkok","modification_date":"2012-01-16"},{"geonameid":"1609327","name":"Kut Bak","asciiname":"Kut Bak","alternatenames":"Amphoe Kut Bak,Ban Kot Bak,Ban Kut Bak,King Amphoe Kut Bak,Kudpak,Kut Bak,kudbak,กุดบาก","latitude":"17.08882","longitude":"103.81875","feature_class":"P","feature_code":"PPLA2","country_code":"TH","cc2":"","admin1_code":"20","admin2_code":"","admin3_code":"","admin4_code":"","population":"0","elevation":"","dem":"200","timezone":"Asia/Bangkok","modification_date":"2012-01-16"},{"geonameid":"1609332","name":"Kusuman","asciiname":"Kusuman","alternatenames":"Amphoe Kusuman,Ban Kusuman,Ban Muang Kusuman,King Amphoe Kusuman,Kusuman,Muang Kusuman,Mueang Kusuman,Muong Kout Sa Man,Tambon Kusuman,kusumaly,กุสุมาลย์","latitude":"17.33259","longitude":"104.33147","feature_class":"P","feature_code":"PPLA2","country_code":"TH","cc2":"","admin1_code":"20","admin2_code":"","admin3_code":"","admin4_code":"","population":"0","elevation":"","dem":"168","timezone":"Asia/Bangkok","modification_date":"2012-01-16"},{"geonameid":"1609336","name":"Kumphawapi","asciiname":"Kumphawapi","alternatenames":"Amphoe Kumphawapi,Kumphawapi,Mueang Kumphawapi,kumphwapi,กุมภวาปี","latitude":"17.10875","longitude":"103.01487","feature_class":"P","feature_code":"PPLA2","country_code":"TH","cc2":"","admin1_code":"76","admin2_code":"","admin3_code":"","admin4_code":"","population":"0","elevation":"","dem":"187","timezone":"Asia/Bangkok","modification_date":"2012-01-16"},{"geonameid":"1609345","name":"Kuchinarai","asciiname":"Kuchinarai","alternatenames":"Amphoe Kuchinarai,Ban Bua Khao,Bua Khao,Kuchinarai,ku chin a ray n,กุฉินารายณ์","latitude":"16.541","longitude":"104.05004","feature_class":"P","feature_code":"PPLA2","country_code":"TH","cc2":"","admin1_code":"23","admin2_code":"","admin3_code":"","admin4_code":"","population":"20532","elevation":"","dem":"169","timezone":"Asia/Bangkok","modification_date":"2013-12-09"},{"geonameid":"1609350","name":"Bangkok","asciiname":"Bangkok","alternatenames":"Amphoe Phra Nakhon,BKK,Ban'nkok,Bancac,Bancocum,Bancác,Banghok,Bangkok,Bangkok Metropolis,Bangkoka,Bangkòk,Banguecoque,Bankok,Bankokas,Bankoko,Banqkok,Changwat Phra Nakhon,Krung Thep,Krung Thep Maha Nakhon,Krung Thep Maha Nakhon Amon Rattanakosin Mahintarayutthaya Maha Dilok Phop Noppharat Ratchathani Buri Rom Udom Ratchaniwet Maha Sathan Amon Phiman Awatan Sathit Sakka Thattiya Witsanukam Prasit,Krungdeb,Man-kuk,Màn-kuk,Phra Nakhon,Siayuthia,The City of Angels,bainkaka,bainkoka,bamkoka,bangkog,bangkwk,bankeakk,bankoku,bankwk,bngqwq,bnkak,byankak,byankaka,camraata byankaka,krungtheph,krungthephmhankhr,krungtheph‡,man gu,penkak,Μπανγκόκ,Бангкок,Банкок,Баҥкок,Բանգկոկ,באנגקאק,בנגקוק,بانكوك,بانکوک,بانکۆک,بانګکوک,بانگكوك,بنکاک,बँकॉक,बैंकक,बैंकॉक,চাংৱাত ব্যাংকক,ব্যাংকক,ਬੈਂਕਾਕ,பேங்காக்,ಬ್ಯಾಂಕಾಕ್,ബാങ്കോക്ക്,බැංකොක්,กรุงเทพ,กรุงเทพมหานคร,กรุงเทพฯ,ບາງກອກ,པན་ཀོག,ဘန်ကောက်မြို့,ბანგკოკი,ባንኮክ,バンコク,曼谷,방콕","latitude":"13.75398","longitude":"100.50144","feature_class":"P","feature_code":"PPLC","country_code":"TH","cc2":"","admin1_code":"40","admin2_code":"","admin3_code":"","admin4_code":"","population":"5104476","elevation":"","dem":"12","timezone":"Asia/Bangkok","modification_date":"2015-09-05"},{"geonameid":"1609379","name":"Krok Phra","asciiname":"Krok Phra","alternatenames":"Amphoe Krok Phra,Amphu Krok Pra,Ban Grauk Phra,Ban Krok Phra,Bān Grauk Phra,Krok Bhra,Krok Phra,Noen Sala,korkphra,โกรกพระ","latitude":"15.55589","longitude":"100.07153","feature_class":"P","feature_code":"PPLA2","country_code":"TH","cc2":"","admin1_code":"16","admin2_code":"","admin3_code":"","admin4_code":"","population":"0","elevation":"","dem":"26","timezone":"Asia/Bangkok","modification_date":"2012-01-16"},{"geonameid":"1609395","name":"Krathum Baen","asciiname":"Krathum Baen","alternatenames":"Amphor Kathum Baen,Ban Krathum Baen,Ban Talat Kathum Baen,Kathum Baen,Krathu Baen,Krathum Baen,Krathumban,Talat Kathum Baen,กระทุ่มแบน","latitude":"13.6533","longitude":"100.25972","feature_class":"P","feature_code":"PPLA2","country_code":"TH","cc2":"","admin1_code":"55","admin2_code":"","admin3_code":"","admin4_code":"","population":"72819","elevation":"","dem":"6","timezone":"Asia/Bangkok","modification_date":"2012-01-16"},{"geonameid":"1609421","name":"Krasang","asciiname":"Krasang","alternatenames":"Amphoe Krasang,King Amphoe Krasang,Krasang,krasang,กระสัง","latitude":"14.92375","longitude":"103.30369","feature_class":"P","feature_code":"PPLA2","country_code":"TH","cc2":"","admin1_code":"28","admin2_code":"","admin3_code":"","admin4_code":"","population":"0","elevation":"","dem":"155","timezone":"Asia/Bangkok","modification_date":"2012-01-16"},{"geonameid":"1609422","name":"Krasae Sin","asciiname":"Krasae Sin","alternatenames":"Amphoe Krasae Sin,King Amphoe Krasae Sin,Kra Sae Sin,Krasae Sin,กระแสสินธุ์","latitude":"7.61548","longitude":"100.32842","feature_class":"P","feature_code":"PPLA2","country_code":"TH","cc2":"","admin1_code":"68","admin2_code":"","admin3_code":"","admin4_code":"","population":"0","elevation":"","dem":"7","timezone":"Asia/Bangkok","modification_date":"2012-01-16"},{"geonameid":"1609430","name":"Kranuan","asciiname":"Kranuan","alternatenames":"Amphoe Kranuan,King Amphoe Kranuan,Kranuan,kranwn,กระนวน","latitude":"16.70672","longitude":"103.07878","feature_class":"P","feature_code":"PPLA2","country_code":"TH","cc2":"","admin1_code":"22","admin2_code":"","admin3_code":"","admin4_code":"","population":"13475","elevation":"","dem":"218","timezone":"Asia/Bangkok","modification_date":"2012-01-16"},{"geonameid":"1609476","name":"Kosum Phisai","asciiname":"Kosum Phisai","alternatenames":"Amphoe Kosum Phisai,Ban Hua Khwang,Kosum Phisai,Kosumbhisai,Mahasarakam,Muang Kossoum,Muang Kossum,Muang Kosum,kosumphisay,โกสุมพิสัย","latitude":"16.24858","longitude":"103.06739","feature_class":"P","feature_code":"PPLA2","country_code":"TH","cc2":"","admin1_code":"24","admin2_code":"","admin3_code":"","admin4_code":"","population":"10672","elevation":"","dem":"160","timezone":"Asia/Bangkok","modification_date":"2012-01-16"},{"geonameid":"1609479","name":"Ko Si Chang","asciiname":"Ko Si Chang","alternatenames":"Amphoe Ko Si Chang,King Amphoe Ko Si Chang,Ko Si Chang,keaasichang,เกาะสีชัง","latitude":"13.16389","longitude":"100.80547","feature_class":"P","feature_code":"PPLA2","country_code":"TH","cc2":"","admin1_code":"46","admin2_code":"","admin3_code":"","admin4_code":"","population":"0","elevation":"","dem":"27","timezone":"Asia/Bangkok","modification_date":"2012-01-16"},{"geonameid":"1609610","name":"Klaeng","asciiname":"Klaeng","alternatenames":"Amphoe Klaeng,Ban Sam Yan,Ban Thang Kwian,Klaeng,Kleng,Klēng,Mueang Klaeng,Thang Kwian,ต.แกลง,แกลง","latitude":"12.77972","longitude":"101.64831","feature_class":"P","feature_code":"PPLA2","country_code":"TH","cc2":"","admin1_code":"47","admin2_code":"","admin3_code":"","admin4_code":"","population":"55619","elevation":"","dem":"11","timezone":"Asia/Bangkok","modification_date":"2012-01-16"},{"geonameid":"1609688","name":"Khun Han","asciiname":"Khun Han","alternatenames":"Amphoe Khun Han,Ban Kabin Han,Ban Kabintharahan,Ban Khun Han,Khun Han,King Amphoe Khun Han,khunhay,ขุนหาญ","latitude":"14.61739","longitude":"104.42506","feature_class":"P","feature_code":"PPLA2","country_code":"TH","cc2":"","admin1_code":"30","admin2_code":"","admin3_code":"","admin4_code":"","population":"0","elevation":"","dem":"164","timezone":"Asia/Bangkok","modification_date":"2012-01-16"},{"geonameid":"1609699","name":"Khu Mueang","asciiname":"Khu Mueang","alternatenames":"Amphoe Khu Mueang,Khu Muang,Khu Mueang,King Amphoe Khu Mueang,khumeuxng,คูเมือง","latitude":"15.2716","longitude":"103.00167","feature_class":"P","feature_code":"PPLA2","country_code":"TH","cc2":"","admin1_code":"28","admin2_code":"7510784","admin3_code":"","admin4_code":"","population":"0","elevation":"","dem":"182","timezone":"Asia/Bangkok","modification_date":"2013-12-14"},{"geonameid":"1609708","name":"Khu Khan","asciiname":"Khu Khan","alternatenames":"Amphoe Huai Nua,Amphoe Huaihnoea,Amphoe Khukhan,Amphoe Kukhan,Ban Chan,Ban Huai Nua,Huai Nua,Khu Khan,Kokhan,Muang Khan,Muang Khukhan,Muang Ku Kan,khukhanth,ขุขันธ์","latitude":"14.71358","longitude":"104.19836","feature_class":"P","feature_code":"PPLA2","country_code":"TH","cc2":"","admin1_code":"30","admin2_code":"","admin3_code":"","admin4_code":"","population":"0","elevation":"","dem":"155","timezone":"Asia/Bangkok","modification_date":"2012-01-16"},{"geonameid":"1609711","name":"Khuan Niang","asciiname":"Khuan Niang","alternatenames":"Amphoe Khuan Niang,Ban Khuan Niang,Ban Khuan Niang Nai,Khuan Niang,King Amphoe Khuan Niang,khwn neiyng,ควนเนียง","latitude":"7.19138","longitude":"100.35355","feature_class":"P","feature_code":"PPLA2","country_code":"TH","cc2":"","admin1_code":"68","admin2_code":"","admin3_code":"","admin4_code":"","population":"0","elevation":"","dem":"13","timezone":"Asia/Bangkok","modification_date":"2012-01-16"},{"geonameid":"1609715","name":"Khuan Khanun","asciiname":"Khuan Khanun","alternatenames":"Amphoe Khuan Khanun,Amphoe Makok Tai,Amphoe Pak Phra,Amphoe Phanang Tung,Amphoe Tale Noi,Amphoe Udon,Khuan Khanun,khwnkhnun,ควนขนุน","latitude":"7.7347","longitude":"100.00931","feature_class":"P","feature_code":"PPLA2","country_code":"TH","cc2":"","admin1_code":"66","admin2_code":"","admin3_code":"","admin4_code":"","population":"0","elevation":"","dem":"22","timezone":"Asia/Bangkok","modification_date":"2012-01-16"},{"geonameid":"1609717","name":"Khuan Kalong","asciiname":"Khuan Kalong","alternatenames":"Amphoe Khuan Kalong,Khuan Ka Long,Khuan Kalong,King Amphoe Khuan Kalong,khwnkahlng,ควนกาหลง","latitude":"6.84538","longitude":"100.07148","feature_class":"P","feature_code":"PPLA2","country_code":"TH","cc2":"","admin1_code":"67","admin2_code":"","admin3_code":"","admin4_code":"","population":"0","elevation":"","dem":"43","timezone":"Asia/Bangkok","modification_date":"2012-01-16"},{"geonameid":"1609720","name":"Khueang Nai","asciiname":"Khueang Nai","alternatenames":"Amphoe Khuang Nai,Amphoe Pachin Udon,Amphoe Trakan Phuet Phon,Ban Khuang Nai,Khuang Nai,Khueang Nai,เขื่องใน","latitude":"15.38989","longitude":"104.55083","feature_class":"P","feature_code":"PPLA2","country_code":"TH","cc2":"","admin1_code":"75","admin2_code":"","admin3_code":"","admin4_code":"","population":"0","elevation":"","dem":"131","timezone":"Asia/Bangkok","modification_date":"2012-01-16"},{"geonameid":"1609722","name":"Khuan Don","asciiname":"Khuan Don","alternatenames":"Amphoe Khuan Don,Duson,Khuan Don,King Amphoe Khuan Don,khwndon,ควนโดน","latitude":"6.78758","longitude":"100.07778","feature_class":"P","feature_code":"PPLA2","country_code":"TH","cc2":"","admin1_code":"67","admin2_code":"","admin3_code":"","admin4_code":"","population":"0","elevation":"","dem":"33","timezone":"Asia/Bangkok","modification_date":"2012-01-16"},{"geonameid":"1609753","name":"Kho Wang","asciiname":"Kho Wang","alternatenames":"Amphoe Kho Wang,Ban Non Kho,Kho Wang,khxwang,ค้อวัง","latitude":"15.36998","longitude":"104.35231","feature_class":"P","feature_code":"PPLA2","country_code":"TH","cc2":"","admin1_code":"72","admin2_code":"","admin3_code":"","admin4_code":"","population":"0","elevation":"","dem":"137","timezone":"Asia/Bangkok","modification_date":"2012-01-16"},{"geonameid":"1609765","name":"Khon Sawan","asciiname":"Khon Sawan","alternatenames":"Amphoe Khon Sawan,Ban Chok Don Sawan,Khon Sawan,Mueang Ka Long,khxnswrrkh,คอนสวรรค์","latitude":"15.93192","longitude":"102.28103","feature_class":"P","feature_code":"PPLA2","country_code":"TH","cc2":"","admin1_code":"26","admin2_code":"","admin3_code":"","admin4_code":"","population":"0","elevation":"","dem":"189","timezone":"Asia/Bangkok","modification_date":"2012-01-16"},{"geonameid":"1609768","name":"Khon San","asciiname":"Khon San","alternatenames":"Amphoe Khon San,Ban Nam Phrom,Ban Nam Phron,Khon San,King Amphoe Khon San,khxn sar,คอนสาร","latitude":"16.61286","longitude":"101.91944","feature_class":"P","feature_code":"PPLA2","country_code":"TH","cc2":"","admin1_code":"26","admin2_code":"","admin3_code":"","admin4_code":"","population":"0","elevation":"","dem":"250","timezone":"Asia/Bangkok","modification_date":"2012-01-16"},{"geonameid":"1609776","name":"Khon Kaen","asciiname":"Khon Kaen","alternatenames":"Amphoe Muang Khon Kaen,Amphoe Phralap,Amphoe Pralap,Changwat Khon Kaen,Changwat Muang Khon Kaen,KKC,Kawn Ken,Khohn Ken,Khon Kaen,Khon Kan,Khon Khen,Khonkean,Khonken,Khonkenas,Khonkhaen,Kkhonkehn,Konkahen,Muang Kaun Gean,Muang Khaunkaen,Muang Khon Kaen,Mueang Khon Kaen,khxnkæn,kong jing,konkkaen,kun jing shi,Кхонкэн,קון קאן,کھون کائن,کھون کیئن,ขอนแก่น,เทศบาลนครขอนแก่น,เมืองขอนแก่น,坤敬市,孔敬,콘깬","latitude":"16.44671","longitude":"102.833","feature_class":"P","feature_code":"PPLA","country_code":"TH","cc2":"","admin1_code":"22","admin2_code":"","admin3_code":"","admin4_code":"","population":"147579","elevation":"","dem":"167","timezone":"Asia/Bangkok","modification_date":"2015-03-04"},{"geonameid":"1609784","name":"Khong Chiam","asciiname":"Khong Chiam","alternatenames":"Amphoe Khong Chiam,Ban Dan,Ban Dan Kao,Khon Chiam,Khong Chiam,Khwaeng Khong Chiam,King Amphoe Ban Dan,khongceiym,โขงเจียม","latitude":"15.31856","longitude":"105.49506","feature_class":"P","feature_code":"PPLA2","country_code":"TH","cc2":"","admin1_code":"75","admin2_code":"","admin3_code":"","admin4_code":"","population":"0","elevation":"","dem":"113","timezone":"Asia/Bangkok","modification_date":"2012-01-16"},{"geonameid":"1609793","name":"Khong","asciiname":"Khong","alternatenames":"Amphoe Khong,Khong,King Amphoe Khong,Mueang Khong,khng,คง","latitude":"15.44393","longitude":"102.32862","feature_class":"P","feature_code":"PPLA2","country_code":"TH","cc2":"","admin1_code":"27","admin2_code":"","admin3_code":"","admin4_code":"","population":"0","elevation":"","dem":"178","timezone":"Asia/Bangkok","modification_date":"2012-01-16"},{"geonameid":"1609795","name":"Khon Buri","asciiname":"Khon Buri","alternatenames":"Amphoe Khon Buri,Ban Khon Buri,Khon Buri,King Amphoe Chae,Mueang Khon,khrburi,ครบุรี","latitude":"14.52541","longitude":"102.24591","feature_class":"P","feature_code":"PPLA2","country_code":"TH","cc2":"","admin1_code":"27","admin2_code":"","admin3_code":"","admin4_code":"","population":"18596","elevation":"","dem":"218","timezone":"Asia/Bangkok","modification_date":"2012-01-16"},{"geonameid":"1609808","name":"Khok Si Suphan","asciiname":"Khok Si Suphan","alternatenames":"Amphoe Khok Si Suphan,Khok Si Suphan,King Amphoe Khok Si Suphan,khok srisuphrrn,โคกศรีสุพรรณ","latitude":"17.04507","longitude":"104.2756","feature_class":"P","feature_code":"PPLA2","country_code":"TH","cc2":"","admin1_code":"20","admin2_code":"7510843","admin3_code":"","admin4_code":"","population":"0","elevation":"","dem":"172","timezone":"Asia/Bangkok","modification_date":"2013-12-15"},{"geonameid":"1609812","name":"Khok Samrong","asciiname":"Khok Samrong","alternatenames":"Amphoe Khok Samrong,Khok Samrong,King Amphoe Khok Samrong,khoksarong,โคกสำโรง","latitude":"15.06649","longitude":"100.72233","feature_class":"P","feature_code":"PPLA2","country_code":"TH","cc2":"","admin1_code":"34","admin2_code":"","admin3_code":"","admin4_code":"","population":"0","elevation":"","dem":"36","timezone":"Asia/Bangkok","modification_date":"2012-01-16"},{"geonameid":"1609820","name":"Khok Pho","asciiname":"Khok Pho","alternatenames":"Amphoe Khok Pho,Amphoe Makrut,Khok Pho,Mueang Kao,khokphothi,โคกโพธิ์","latitude":"6.73064","longitude":"101.09619","feature_class":"P","feature_code":"PPLA2","country_code":"TH","cc2":"","admin1_code":"69","admin2_code":"","admin3_code":"","admin4_code":"","population":"0","elevation":"","dem":"30","timezone":"Asia/Bangkok","modification_date":"2012-01-16"},{"geonameid":"1609839","name":"Khok Charoen","asciiname":"Khok Charoen","alternatenames":"Amphoe Khok Charoen,Ban Khok Charoen,Khok Charoen,King Amphoe Khok Charoen,khok ceriy,โคกเจริญ","latitude":"15.37927","longitude":"100.8187","feature_class":"P","feature_code":"PPLA2","country_code":"TH","cc2":"","admin1_code":"34","admin2_code":"","admin3_code":"","admin4_code":"","population":"0","elevation":"","dem":"77","timezone":"Asia/Bangkok","modification_date":"2012-01-16"},{"geonameid":"1609858","name":"Khlung","asciiname":"Khlung","alternatenames":"Amphoe Khlung,Ban Khlung,Khlung,Kkhlung,khlung,Кхлунг,ขลุง","latitude":"12.45467","longitude":"102.22142","feature_class":"P","feature_code":"PPLA2","country_code":"TH","cc2":"","admin1_code":"48","admin2_code":"","admin3_code":"","admin4_code":"","population":"13286","elevation":"","dem":"8","timezone":"Asia/Bangkok","modification_date":"2012-01-16"},{"geonameid":"1609863","name":"Khlong Yai","asciiname":"Khlong Yai","alternatenames":"Amphoe Khlong Yai,Ban Khlong Yai,Khlaung Yai,Khlong,Khlong Yai,King Amphoe Khlong Yai,King Khlong Yai,Klongyai,khlxnghıy,คลองใหญ่","latitude":"11.77645","longitude":"102.88567","feature_class":"P","feature_code":"PPLA2","country_code":"TH","cc2":"","admin1_code":"49","admin2_code":"","admin3_code":"","admin4_code":"","population":"0","elevation":"","dem":"11","timezone":"Asia/Bangkok","modification_date":"2015-03-08"},{"geonameid":"1609879","name":"Khlong San","asciiname":"Khlong San","alternatenames":"Amphoe Khlong San,Khlong San,khlxngsan,คลองสาน","latitude":"13.73086","longitude":"100.50903","feature_class":"P","feature_code":"PPLA2","country_code":"TH","cc2":"","admin1_code":"40","admin2_code":"","admin3_code":"","admin4_code":"","population":"0","elevation":"","dem":"12","timezone":"Asia/Bangkok","modification_date":"2012-01-16"},{"geonameid":"1609899","name":"Khlong Luang","asciiname":"Khlong Luang","alternatenames":"Amphoe Bang Wai,Amphoe Khlong Luang,Ban Bang Wai,Ban Khlong Song (3),Bang Wai,Khlong Luang,khlxnghlwng,คลองหลวง","latitude":"14.06467","longitude":"100.64578","feature_class":"P","feature_code":"PPLA2","country_code":"TH","cc2":"","admin1_code":"39","admin2_code":"","admin3_code":"","admin4_code":"","population":"118551","elevation":"","dem":"7","timezone":"Asia/Bangkok","modification_date":"2012-01-16"},{"geonameid":"1609907","name":"Khlong Hat","asciiname":"Khlong Hat","alternatenames":"Amphoe Khlong Hat,Ban Khlong Mahat,Khlong Had,Khlong Hat,King Amphoe Khlong Hat,khlxng had,คลองหาด","latitude":"13.45177","longitude":"102.29823","feature_class":"P","feature_code":"PPLA2","country_code":"TH","cc2":"","admin1_code":"80","admin2_code":"","admin3_code":"","admin4_code":"","population":"0","elevation":"","dem":"150","timezone":"Asia/Bangkok","modification_date":"2012-01-16"},{"geonameid":"1609970","name":"Khemarat","asciiname":"Khemarat","alternatenames":"Amphoe Ban Khemmarat,Amphoe Khemmarat,Amphoe Khemrat,Ban Kemmerat,Ban Khemmarat,Ban Khemrat,Kemarat,Kemmarat,Khemarat,Khemmarat,Muang Kemmarat,Mueang Khemarat,khemrath,เขมราฐ","latitude":"16.04252","longitude":"105.21836","feature_class":"P","feature_code":"PPLA2","country_code":"TH","cc2":"","admin1_code":"75","admin2_code":"","admin3_code":"","admin4_code":"","population":"0","elevation":"","dem":"139","timezone":"Asia/Bangkok","modification_date":"2012-01-16"},{"geonameid":"1609990","name":"Khao Wong","asciiname":"Khao Wong","alternatenames":"Amphoe Khao Wong,Khao Wong,King Amphoe Khao Wong,kheawng,เขาวง","latitude":"16.70008","longitude":"104.09019","feature_class":"P","feature_code":"PPLA2","country_code":"TH","cc2":"","admin1_code":"23","admin2_code":"","admin3_code":"","admin4_code":"","population":"15184","elevation":"","dem":"194","timezone":"Asia/Bangkok","modification_date":"2012-01-16"},{"geonameid":"1609997","name":"Khao Saming","asciiname":"Khao Saming","alternatenames":"Amphoe Khao Saming,Amphoe Si Bua Thong,Amphoe Thung Yai,Ban Khao Saming,Khao Saming,kheasming,เขาสมิง","latitude":"12.35353","longitude":"102.4355","feature_class":"P","feature_code":"PPLA2","country_code":"TH","cc2":"","admin1_code":"49","admin2_code":"","admin3_code":"","admin4_code":"","population":"0","elevation":"","dem":"14","timezone":"Asia/Bangkok","modification_date":"2012-01-16"},{"geonameid":"1610018","name":"Khao Chaison","asciiname":"Khao Chaison","alternatenames":"Amphoe Khao Chai Son,Khao Chai Son,Khao Chaison,King Amphoe Chaison,King Amphoe Lampam,kheachaysn,เขาชัยสน","latitude":"7.46125","longitude":"100.13372","feature_class":"P","feature_code":"PPLA2","country_code":"TH","cc2":"","admin1_code":"66","admin2_code":"","admin3_code":"","admin4_code":"","population":"0","elevation":"","dem":"23","timezone":"Asia/Bangkok","modification_date":"2012-01-16"},{"geonameid":"1610068","name":"Kham Thale So","asciiname":"Kham Thale So","alternatenames":"Amphoe Kham Thale So,Ban Kham Tale So,Ban Kham Thale So,Kham Thale So,King Amphoe Kham Thale So,khamthalesx,ขามทะเลสอ","latitude":"14.96083","longitude":"101.94789","feature_class":"P","feature_code":"PPLA2","country_code":"TH","cc2":"","admin1_code":"27","admin2_code":"","admin3_code":"","admin4_code":"","population":"0","elevation":"","dem":"211","timezone":"Asia/Bangkok","modification_date":"2012-01-16"},{"geonameid":"1610069","name":"Kham Ta Kla","asciiname":"Kham Ta Kla","alternatenames":"Amphoe Kham Ta Kla,Ban Kham Ta Kla,Ban Kham Takra,Kham Ta Kla,King Amphoe Kham Ta Kla,khatakla,คำตากล้า","latitude":"17.85231","longitude":"103.75657","feature_class":"P","feature_code":"PPLA2","country_code":"TH","cc2":"","admin1_code":"20","admin2_code":"","admin3_code":"","admin4_code":"","population":"0","elevation":"","dem":"165","timezone":"Asia/Bangkok","modification_date":"2012-01-16"},{"geonameid":"1610072","name":"Kham Sakae Saeng","asciiname":"Kham Sakae Saeng","alternatenames":"Amphoe Kham Sakae Saeng,Kham Sakae Saeng,King Amphoe Kham Sakae Saeng,ขามสะแกแสง","latitude":"15.33221","longitude":"102.17278","feature_class":"P","feature_code":"PPLA2","country_code":"TH","cc2":"","admin1_code":"27","admin2_code":"","admin3_code":"","admin4_code":"","population":"11018","elevation":"","dem":"189","timezone":"Asia/Bangkok","modification_date":"2012-01-16"},{"geonameid":"1610081","name":"Kham Muang","asciiname":"Kham Muang","alternatenames":"Amphoe Kham Muang,Kham Muang,King Amphoe Kham Muang,khamwng,คำม่วง","latitude":"16.92902","longitude":"103.63518","feature_class":"P","feature_code":"PPLA2","country_code":"TH","cc2":"","admin1_code":"23","admin2_code":"","admin3_code":"","admin4_code":"","population":"0","elevation":"","dem":"217","timezone":"Asia/Bangkok","modification_date":"2012-01-16"},{"geonameid":"1610086","name":"Kham Khuean Kaeo","asciiname":"Kham Khuean Kaeo","alternatenames":"Amphoe Kham Khuan Kaeo,Amphoe Lumphuk,Ban Lumphuk,Kham Khuan Kaeo,Kham Khuean Kaeo,Lum Phuk,คำเขื่อนแก้ว","latitude":"15.65233","longitude":"104.30861","feature_class":"P","feature_code":"PPLA2","country_code":"TH","cc2":"","admin1_code":"72","admin2_code":"","admin3_code":"","admin4_code":"","population":"0","elevation":"","dem":"132","timezone":"Asia/Bangkok","modification_date":"2012-01-16"},{"geonameid":"1610093","name":"Khamcha-i","asciiname":"Khamcha-i","alternatenames":"Amphoe Kham Cha-i,Ban Nam Thiang,Khamcha-i,King Amphoe Khamcha-i,khachaxi,คำชะอี","latitude":"16.57764","longitude":"104.41956","feature_class":"P","feature_code":"PPLA2","country_code":"TH","cc2":"","admin1_code":"78","admin2_code":"","admin3_code":"","admin4_code":"","population":"0","elevation":"","dem":"185","timezone":"Asia/Bangkok","modification_date":"2012-01-16"},{"geonameid":"1610185","name":"Kaset Wisai","asciiname":"Kaset Wisai","alternatenames":"Amphoe Kaset Wisai,Kaset Wisai,Nong Waeng,เกษตรวิสัย","latitude":"15.65558","longitude":"103.58361","feature_class":"P","feature_code":"PPLA2","country_code":"TH","cc2":"","admin1_code":"25","admin2_code":"","admin3_code":"","admin4_code":"","population":"18569","elevation":"","dem":"145","timezone":"Asia/Bangkok","modification_date":"2012-01-16"},{"geonameid":"1610187","name":"Kaset Sombun","asciiname":"Kaset Sombun","alternatenames":"Amphoe Kaset Sombun,Ban Yang,Kaset Sombun,King Amphoe Kaset Sombun,เกษตรสมบูรณ์","latitude":"16.28053","longitude":"101.95422","feature_class":"P","feature_code":"PPLA2","country_code":"TH","cc2":"","admin1_code":"26","admin2_code":"","admin3_code":"","admin4_code":"","population":"16996","elevation":"","dem":"234","timezone":"Asia/Bangkok","modification_date":"2012-01-16"},{"geonameid":"1610211","name":"Kao Liao","asciiname":"Kao Liao","alternatenames":"Amphoe Kao Liao,Kao Liao,Kao Lieo,King Amphoe Kao Liao,kealeiyw,เก้าเลี้ยว","latitude":"15.85053","longitude":"100.07914","feature_class":"P","feature_code":"PPLA2","country_code":"TH","cc2":"","admin1_code":"16","admin2_code":"","admin3_code":"","admin4_code":"","population":"4988","elevation":"","dem":"36","timezone":"Asia/Bangkok","modification_date":"2013-12-12"},{"geonameid":"1610223","name":"Kantharawichai","asciiname":"Kantharawichai","alternatenames":"Amphoe Kantharawichai,Kantharawichai,kanthrwichay,กันทรวิชัย","latitude":"16.32719","longitude":"103.29864","feature_class":"P","feature_code":"PPLA2","country_code":"TH","cc2":"","admin1_code":"24","admin2_code":"","admin3_code":"","admin4_code":"","population":"0","elevation":"","dem":"158","timezone":"Asia/Bangkok","modification_date":"2012-01-16"},{"geonameid":"1610225","name":"Kanthararom","asciiname":"Kanthararom","alternatenames":"Amphoe Kanthararom,Kanthararom,Uthai Sisaket,kanthrarmy,กันทรารมย์","latitude":"15.10323","longitude":"104.57343","feature_class":"P","feature_code":"PPLA2","country_code":"TH","cc2":"","admin1_code":"30","admin2_code":"","admin3_code":"","admin4_code":"","population":"0","elevation":"","dem":"137","timezone":"Asia/Bangkok","modification_date":"2012-01-16"},{"geonameid":"1610227","name":"Kantharalak","asciiname":"Kantharalak","alternatenames":"Amphoe Kantharalak,Amphoe Nam Om,Ban Nam Om,Kanthanalak,Kantharalak,Kantkharalak,Muang Uthumpa,Muang Uthumpau,Mueang Uthumphon Phisai,Muong Utumpar,Nam Aum,Кантхаралак,กันทรลักษณ์","latitude":"14.64056","longitude":"104.64992","feature_class":"P","feature_code":"PPLA2","country_code":"TH","cc2":"","admin1_code":"30","admin2_code":"","admin3_code":"","admin4_code":"","population":"36621","elevation":"","dem":"160","timezone":"Asia/Bangkok","modification_date":"2012-01-16"},{"geonameid":"1610296","name":"Krong Pi Nang","asciiname":"Krong Pi Nang","alternatenames":"Amphoe Krong Pinang,Ban Krong Pi Nang,Kampong Pinang,Kampung Pinang,King Amphoe Krong Pinang,Krong Pi Nang,Krong Pinang,ba nk rng pinang,krng pinang,กรงปินัง,บ้านกรงปินัง","latitude":"6.4112","longitude":"101.27394","feature_class":"P","feature_code":"PPLA2","country_code":"TH","cc2":"","admin1_code":"70","admin2_code":"","admin3_code":"","admin4_code":"","population":"0","elevation":"","dem":"28","timezone":"Asia/Bangkok","modification_date":"2012-01-16"},{"geonameid":"1610303","name":"Su-ngai Padi","asciiname":"Su-ngai Padi","alternatenames":"Amphoe Sungai Padi,Ban Su-ngai Pa Di,Kampong Padai,Su-ngai Pa Di,Su-ngai Padi,Sungai Padi,ban suhingpadi,suhingpadi,บ้านสุไหงปาดี,สุไหงปาดี","latitude":"6.0857","longitude":"101.87959","feature_class":"P","feature_code":"PPLA2","country_code":"TH","cc2":"","admin1_code":"31","admin2_code":"","admin3_code":"","admin4_code":"","population":"0","elevation":"","dem":"25","timezone":"Asia/Bangkok","modification_date":"2012-01-16"},{"geonameid":"1610360","name":"Ka Bang","asciiname":"Ka Bang","alternatenames":"Amphoe Kabang,Ban Ka Bang,Ka Bang,Kabae,Kabang,Kabe,Kampong Kebang,King Amphoe Kabang,ban ka bang,ka bang,กาบัง,บ้านกาบัง","latitude":"6.41536","longitude":"101.05456","feature_class":"P","feature_code":"PPLA2","country_code":"TH","cc2":"","admin1_code":"70","admin2_code":"","admin3_code":"","admin4_code":"","population":"0","elevation":"","dem":"79","timezone":"Asia/Bangkok","modification_date":"2012-01-16"},{"geonameid":"1610393","name":"Cho-airong","asciiname":"Cho-airong","alternatenames":"Amphoe Cho-airong,Ban Cho-airong,Cho-airong,Kampong Chae Raung,Kampong Chaerong,King Amphoe Cho-airong,ban ceaa xi rxng,ceaa xi rxng,บ้านเจาะไอร้อง,เจาะไอร้อง","latitude":"6.22553","longitude":"101.81128","feature_class":"P","feature_code":"PPLA2","country_code":"TH","cc2":"","admin1_code":"31","admin2_code":"","admin3_code":"","admin4_code":"","population":"0","elevation":"","dem":"31","timezone":"Asia/Bangkok","modification_date":"2012-01-16"},{"geonameid":"1610445","name":"Kamphaeng Saen","asciiname":"Kamphaeng Saen","alternatenames":"Amphoe Kamphaeng Saen,KDT,Kamphaeng Saen,Kamphaeng Soen,กำแพงแสน","latitude":"13.99966","longitude":"99.98981","feature_class":"P","feature_code":"PPLA2","country_code":"TH","cc2":"","admin1_code":"53","admin2_code":"","admin3_code":"","admin4_code":"","population":"0","elevation":"","dem":"9","timezone":"Asia/Bangkok","modification_date":"2013-05-10"},{"geonameid":"1610459","name":"Kamalasai","asciiname":"Kamalasai","alternatenames":"Amphoe Kamalasai,Ban Amphoe Kamalasai,Ban Komlasai,Kamalasai,Komlasai,Kramalasai,kmla siy,kra mala siy,กมลาไสย,กระมาลาไสย","latitude":"16.33839","longitude":"103.57564","feature_class":"P","feature_code":"PPLA2","country_code":"TH","cc2":"","admin1_code":"23","admin2_code":"","admin3_code":"","admin4_code":"","population":"23393","elevation":"","dem":"146","timezone":"Asia/Bangkok","modification_date":"2012-01-16"},{"geonameid":"1610469","name":"Kalasin","asciiname":"Kalasin","alternatenames":"Amphoe Hlup,Amphoe Kalasin,Amphoe Lup,Amphoe Muang Kalasin,Ban Neur,Changwat Kalasin,Changwat Muang Kalasin,Kalasim,Kalasin,Kalasindhu,Lup,Muang Kalasim,Muang Kalasin,Muang Kalassim,Muang Kansin,Mueang Kalasin,kalsinthu,Каласин,กาฬสินธุ์","latitude":"16.43281","longitude":"103.50658","feature_class":"P","feature_code":"PPLA","country_code":"TH","cc2":"","admin1_code":"23","admin2_code":"","admin3_code":"","admin4_code":"","population":"55102","elevation":"","dem":"152","timezone":"Asia/Bangkok","modification_date":"2012-01-16"},{"geonameid":"1610503","name":"Kaeng Khoi","asciiname":"Kaeng Khoi","alternatenames":"Amphoe Kaeng Khoi,Kaeng Khoi,Khwaeng Kaeng Khoi,แก่งคอย","latitude":"14.58617","longitude":"100.99758","feature_class":"P","feature_code":"PPLA2","country_code":"TH","cc2":"","admin1_code":"37","admin2_code":"","admin3_code":"","admin4_code":"","population":"30332","elevation":"","dem":"23","timezone":"Asia/Bangkok","modification_date":"2012-01-16"},{"geonameid":"1610505","name":"Kaeng Khro","asciiname":"Kaeng Khro","alternatenames":"Amphoe Kaeng Khlo,Amphoe Kaeng Khro,Kaeng Khlo,Kaeng Khro,แก้งคร้อ","latitude":"16.10864","longitude":"102.25808","feature_class":"P","feature_code":"PPLA2","country_code":"TH","cc2":"","admin1_code":"26","admin2_code":"","admin3_code":"","admin4_code":"","population":"29056","elevation":"","dem":"205","timezone":"Asia/Bangkok","modification_date":"2012-01-16"},{"geonameid":"1610510","name":"Kae Dam","asciiname":"Kae Dam","alternatenames":"Amphoe Kae Dam,Kae Dam,King Amphoe Kae Dam,แกดำ","latitude":"16.02397","longitude":"103.38444","feature_class":"P","feature_code":"PPLA2","country_code":"TH","cc2":"","admin1_code":"24","admin2_code":"","admin3_code":"","admin4_code":"","population":"0","elevation":"","dem":"166","timezone":"Asia/Bangkok","modification_date":"2012-01-16"},{"geonameid":"1610538","name":"Kabin Buri","asciiname":"Kabin Buri","alternatenames":"Amphoe Kabin Buri,Ban Kabin Buri,Kabin Buri,Mong Krabin,Mueang Kabin Buri,kbinthrburi,กบินทร์บุรี","latitude":"13.95114","longitude":"101.71769","feature_class":"P","feature_code":"PPLA2","country_code":"TH","cc2":"","admin1_code":"74","admin2_code":"","admin3_code":"","admin4_code":"","population":"20212","elevation":"","dem":"21","timezone":"Asia/Bangkok","modification_date":"2012-01-16"},{"geonameid":"1610571","name":"In Buri","asciiname":"In Buri","alternatenames":"Amphoe In Buri,Amphoe Muang In Buri,Ban In Buri,In,In Buri,Muang Inburi,Mueang In Buri,xinthrburi,อินทร์บุรี","latitude":"15.00787","longitude":"100.32691","feature_class":"P","feature_code":"PPLA2","country_code":"TH","cc2":"","admin1_code":"33","admin2_code":"","admin3_code":"","admin4_code":"","population":"0","elevation":"","dem":"19","timezone":"Asia/Bangkok","modification_date":"2012-01-16"},{"geonameid":"1610607","name":"Hua Taphan","asciiname":"Hua Taphan","alternatenames":"Amphoe Hua Taphan,Ban Hua Tapan,Ban Hua Taphan,Hua Taphan,King Amphoe Hua Taphan,ban hawtaphan,hawtaphan,บ้านหัวตะพาน,หัวตะพาน","latitude":"15.6971","longitude":"104.4916","feature_class":"P","feature_code":"PPLA2","country_code":"TH","cc2":"","admin1_code":"77","admin2_code":"","admin3_code":"","admin4_code":"","population":"0","elevation":"","dem":"140","timezone":"Asia/Bangkok","modification_date":"2012-01-16"},{"geonameid":"1610622","name":"Hua Sai","asciiname":"Hua Sai","alternatenames":"Amphoe Hua Sai,Amphoe Khao Phang Krai,Ban Hua Sai,Ban Hua Zai,Hua Sai,Hua Zai,King Amphoe Hua Sai,hawthir,หัวไทร","latitude":"8.04408","longitude":"100.30586","feature_class":"P","feature_code":"PPLA2","country_code":"TH","cc2":"","admin1_code":"64","admin2_code":"","admin3_code":"","admin4_code":"","population":"0","elevation":"","dem":"5","timezone":"Asia/Bangkok","modification_date":"2012-01-16"},{"geonameid":"1610650","name":"Huai Thap Than","asciiname":"Huai Thap Than","alternatenames":"Amphoe Huai Thap Than,Huai Thap Than,King Amphoe Huai Thap Than,hwythabthan,ห้วยทับทัน","latitude":"15.05333","longitude":"104.02754","feature_class":"P","feature_code":"PPLA2","country_code":"TH","cc2":"","admin1_code":"30","admin2_code":"","admin3_code":"","admin4_code":"","population":"0","elevation":"","dem":"136","timezone":"Asia/Bangkok","modification_date":"2012-01-16"},{"geonameid":"1610652","name":"Huai Thalaeng","asciiname":"Huai Thalaeng","alternatenames":"Amphoe Huai Thalaeng,Ban Huai Thalaeng,Huai Thalaeng,King Amphoe Huai Thalaeng,Tambon Huai Thalaeng,ห้วยแถลง","latitude":"14.99701","longitude":"102.64746","feature_class":"P","feature_code":"PPLA2","country_code":"TH","cc2":"","admin1_code":"27","admin2_code":"","admin3_code":"","admin4_code":"","population":"0","elevation":"","dem":"196","timezone":"Asia/Bangkok","modification_date":"2012-01-16"},{"geonameid":"1610658","name":"Huai Phueng","asciiname":"Huai Phueng","alternatenames":"Amphoe Huai Phueng,Huai Phueng,Huai Phung,King Amphoe Huai Phueng,hwy phung,ห้วยผึ้ง","latitude":"16.65038","longitude":"103.91005","feature_class":"P","feature_code":"PPLA2","country_code":"TH","cc2":"","admin1_code":"23","admin2_code":"7510817","admin3_code":"","admin4_code":"","population":"0","elevation":"","dem":"191","timezone":"Asia/Bangkok","modification_date":"2013-12-15"},{"geonameid":"1610661","name":"Huai Mek","asciiname":"Huai Mek","alternatenames":"Amphoe Huai Mek,Ban Huai Mek,Huai Mek,King Amphoe Huai Mek,hwymek,ห้วยเม็ก","latitude":"16.58975","longitude":"103.23547","feature_class":"P","feature_code":"PPLA2","country_code":"TH","cc2":"","admin1_code":"23","admin2_code":"","admin3_code":"","admin4_code":"","population":"12352","elevation":"","dem":"181","timezone":"Asia/Bangkok","modification_date":"2012-01-16"},{"geonameid":"1610780","name":"Hat Yai","asciiname":"Hat Yai","alternatenames":"Amphoe Hat Yai,Ban Haad Yai,Ban Hat Yai,HDY,Haad Yai,Had Yai,Hat Yai,Hatjaj,Hatjajus,Khat Jai,Khatujaj,has-yai,hat yay,hatoyai jun,he ai,Хат Јаи,Хатъяй,האד-יאי,هات ياي,ہات یائی,หาดใหญ่,เทศบาลนครหาดใหญ่,ཧ་ཊི་ཡའི།,ハートヤイ郡,合艾,핫야이","latitude":"7.00836","longitude":"100.47668","feature_class":"P","feature_code":"PPLA2","country_code":"TH","cc2":"","admin1_code":"68","admin2_code":"","admin3_code":"","admin4_code":"","population":"191696","elevation":"","dem":"12","timezone":"Asia/Bangkok","modification_date":"2012-01-16"},{"geonameid":"1610800","name":"Hankha","asciiname":"Hankha","alternatenames":"Amphoe Hankha,Ban Han Kha,Ban Handa,Doem Bang Kao,Hankha,hankha,หันคา","latitude":"14.98122","longitude":"100.0147","feature_class":"P","feature_code":"PPLA2","country_code":"TH","cc2":"","admin1_code":"32","admin2_code":"","admin3_code":"","admin4_code":"","population":"0","elevation":"","dem":"20","timezone":"Asia/Bangkok","modification_date":"2012-01-16"},{"geonameid":"1610841","name":"Fak Tha","asciiname":"Fak Tha","alternatenames":"Amphoe Fak Tha,Ban Bung,Fak Tha,faktha,ฟากท่า","latitude":"17.99948","longitude":"100.88014","feature_class":"P","feature_code":"PPLA2","country_code":"TH","cc2":"","admin1_code":"10","admin2_code":"","admin3_code":"","admin4_code":"","population":"0","elevation":"","dem":"227","timezone":"Asia/Bangkok","modification_date":"2012-01-16"},{"geonameid":"1610858","name":"Dusit","asciiname":"Dusit","alternatenames":"Amphoe Dusit,Dusit,dusit,ดุสิต","latitude":"13.7775","longitude":"100.51977","feature_class":"P","feature_code":"PPLA2","country_code":"TH","cc2":"","admin1_code":"40","admin2_code":"","admin3_code":"","admin4_code":"","population":"0","elevation":"","dem":"6","timezone":"Asia/Bangkok","modification_date":"2012-01-16"},{"geonameid":"1610876","name":"Don Tan","asciiname":"Don Tan","alternatenames":"Amphoe Don Tan,Don Tan,King Amphoe Don Tan,Tambon Don Tan,dxntal,ดอนตาล","latitude":"16.31697","longitude":"104.92","feature_class":"P","feature_code":"PPLA2","country_code":"TH","cc2":"","admin1_code":"78","admin2_code":"","admin3_code":"","admin4_code":"","population":"0","elevation":"","dem":"159","timezone":"Asia/Bangkok","modification_date":"2012-01-16"},{"geonameid":"1610897","name":"Dong Luang","asciiname":"Dong Luang","alternatenames":"Amphoe Dong Luang,Ban Dong Luang,Dong Luang,King Amphoe Dong Luang,dnghlwng,ดงหลวง","latitude":"16.81589","longitude":"104.538","feature_class":"P","feature_code":"PPLA2","country_code":"TH","cc2":"","admin1_code":"78","admin2_code":"","admin3_code":"","admin4_code":"","population":"0","elevation":"","dem":"191","timezone":"Asia/Bangkok","modification_date":"2012-01-16"},{"geonameid":"1610900","name":"Don Chedi","asciiname":"Don Chedi","alternatenames":"Amphoe Don Chedi,Ban Don Chedi,Don Chedi,King Amphoe Don Chedi,dxncediy,ดอนเจดีย์","latitude":"14.63497","longitude":"100.02097","feature_class":"P","feature_code":"PPLA2","country_code":"TH","cc2":"","admin1_code":"51","admin2_code":"","admin3_code":"","admin4_code":"","population":"0","elevation":"","dem":"15","timezone":"Asia/Bangkok","modification_date":"2012-01-16"},{"geonameid":"1610911","name":"Doembang Nangbuat","asciiname":"Doembang Nangbuat","alternatenames":"Amphoe Doem Bang,Amphoe Doembang Nangbuat,Amphu Deum Bang,Ban Cha-on,Ban Doem Bang,Ban Khao Cha-oi,Ban Khao Cha-on,Ban Tha Chang,Deum Bang,Deūm Bāng,Doem Bang,Doembang Nangbuat,Tha Chang,deimbangnangbwch,เดิมบางนางบวช","latitude":"14.83333","longitude":"100.1","feature_class":"P","feature_code":"PPLA2","country_code":"TH","cc2":"","admin1_code":"51","admin2_code":"","admin3_code":"","admin4_code":"","population":"14671","elevation":"","dem":"16","timezone":"Asia/Bangkok","modification_date":"2014-01-08"},{"geonameid":"1610940","name":"Det Udom","asciiname":"Det Udom","alternatenames":"Amphoe Det Udom,Amphoe Det Udon,Ban Muang Det,Ban Muang Detudom,Det,Det Udom,Det Udon,Muang Det,Mueang Det Udom,dechxudm,เดชอุดม","latitude":"14.90598","longitude":"105.07836","feature_class":"P","feature_code":"PPLA2","country_code":"TH","cc2":"","admin1_code":"75","admin2_code":"","admin3_code":"","admin4_code":"","population":"35669","elevation":"","dem":"137","timezone":"Asia/Bangkok","modification_date":"2012-01-16"},{"geonameid":"1610943","name":"Den Chai","asciiname":"Den Chai","alternatenames":"Amphoe Den Chai,Ban Den Chai,Den Chai,denchay,เด่นชัย","latitude":"17.98372","longitude":"100.05217","feature_class":"P","feature_code":"PPLA2","country_code":"TH","cc2":"","admin1_code":"07","admin2_code":"","admin3_code":"","admin4_code":"","population":"17019","elevation":"","dem":"159","timezone":"Asia/Bangkok","modification_date":"2012-01-16"},{"geonameid":"1610958","name":"Dan Sai","asciiname":"Dan Sai","alternatenames":"Amphoe Dan Sai,Amphoe Dan Zai,Daen Sai,Dan Sai,Dan Zai,Muang Daen Sai,Muang Dansai,dansay,ด่านซ้าย","latitude":"17.28011","longitude":"101.14686","feature_class":"P","feature_code":"PPLA2","country_code":"TH","cc2":"","admin1_code":"18","admin2_code":"","admin3_code":"","admin4_code":"","population":"0","elevation":"","dem":"357","timezone":"Asia/Bangkok","modification_date":"2012-01-16"},{"geonameid":"1610963","name":"Dan Khun Thot","asciiname":"Dan Khun Thot","alternatenames":"Amphoe Ban Han,Amphoe Dan Khun Thot,Amphoe Phan Chana,Dan Khun Thot,dankhunthd,ด่านขุนทด","latitude":"15.2085","longitude":"101.77138","feature_class":"P","feature_code":"PPLA2","country_code":"TH","cc2":"","admin1_code":"27","admin2_code":"","admin3_code":"","admin4_code":"","population":"15580","elevation":"","dem":"214","timezone":"Asia/Bangkok","modification_date":"2012-01-16"},{"geonameid":"1611020","name":"Chum Phuang","asciiname":"Chum Phuang","alternatenames":"Amphoe Chum Phuang,Ban Kham,Chum Phuang,Chumpuang,King Amphoe Chum Phuang,chumphwng,ชุมพวง","latitude":"15.34861","longitude":"102.74161","feature_class":"P","feature_code":"PPLA2","country_code":"TH","cc2":"","admin1_code":"27","admin2_code":"","admin3_code":"","admin4_code":"","population":"0","elevation":"","dem":"150","timezone":"Asia/Bangkok","modification_date":"2012-01-16"},{"geonameid":"1611022","name":"Chumphon Buri","asciiname":"Chumphon Buri","alternatenames":"Amphoe Chumphon Buri,Chumphon Buri,King Amphoe Chumphon Buri,Mueang Chumphon Buri,chumphlburi,ชุมพลบุรี","latitude":"15.34862","longitude":"103.39217","feature_class":"P","feature_code":"PPLA2","country_code":"TH","cc2":"","admin1_code":"29","admin2_code":"","admin3_code":"","admin4_code":"","population":"0","elevation":"","dem":"133","timezone":"Asia/Bangkok","modification_date":"2012-01-16"},{"geonameid":"1611026","name":"Chum Phae","asciiname":"Chum Phae","alternatenames":"Amphoe Chum Phae,Ban Chum Phae,Chum Phae,ชุมแพ","latitude":"16.5443","longitude":"102.09924","feature_class":"P","feature_code":"PPLA2","country_code":"TH","cc2":"","admin1_code":"22","admin2_code":"","admin3_code":"","admin4_code":"","population":"46335","elevation":"","dem":"227","timezone":"Asia/Bangkok","modification_date":"2012-01-16"},{"geonameid":"1611078","name":"Chonnabot","asciiname":"Chonnabot","alternatenames":"Ban Chonabot,Ban Chonbot,Ban Chonnabot,Chenobot,Chonaboti,Chonnabot,Mong Chonlabot,Mueang Chonbot,Möng Chonlabot,chnbth,ชนบท","latitude":"16.08861","longitude":"102.62178","feature_class":"P","feature_code":"PPLA2","country_code":"TH","cc2":"","admin1_code":"22","admin2_code":"","admin3_code":"","admin4_code":"","population":"0","elevation":"","dem":"168","timezone":"Asia/Bangkok","modification_date":"2012-01-16"},{"geonameid":"1611106","name":"Chon Daen","asciiname":"Chon Daen","alternatenames":"Amphoe Chon Daen,Ban Chon Daen,Ban Chon Dean,Bān Chon Dean,Chon Daen,Jonden,Jondēn,King Amphoe Chon Daen,King Chon Daen,ชนแดน","latitude":"16.18953","longitude":"100.85958","feature_class":"P","feature_code":"PPLA2","country_code":"TH","cc2":"","admin1_code":"14","admin2_code":"","admin3_code":"","admin4_code":"","population":"17567","elevation":"","dem":"106","timezone":"Asia/Bangkok","modification_date":"2012-01-16"},{"geonameid":"1611110","name":"Chon Buri","asciiname":"Chon Buri","alternatenames":"Amphoe Muang Chon Buri,Baanburaisoi,Ban Bang Pla Soi,Ban Pla Sai,Ban Pla Soi,Bang Pla Soi,Bang Pla Soil,Changwat Chon Buri,Cholburi,Chon Buri,Chonburi,Chor Buri,Jilburi,Jīlburi,Muang Jol Buri,Muang Xonburi,Mueang Chon Buri,chlburi,Чонбури,ชลบุรี","latitude":"13.3622","longitude":"100.98345","feature_class":"P","feature_code":"PPLA","country_code":"TH","cc2":"","admin1_code":"46","admin2_code":"","admin3_code":"","admin4_code":"","population":"219164","elevation":"","dem":"8","timezone":"Asia/Bangkok","modification_date":"2015-07-13"},{"geonameid":"1611125","name":"Chom Phra","asciiname":"Chom Phra","alternatenames":"Amphoe Chom Phra,Ban Chom Phra,Chom Phra,King Amphoe Chom Phra,cxmphra,จอมพระ","latitude":"15.11814","longitude":"103.60743","feature_class":"P","feature_code":"PPLA2","country_code":"TH","cc2":"","admin1_code":"29","admin2_code":"","admin3_code":"","admin4_code":"","population":"0","elevation":"","dem":"141","timezone":"Asia/Bangkok","modification_date":"2012-01-16"},{"geonameid":"1611135","name":"Chok Chai","asciiname":"Chok Chai","alternatenames":"Amphoe Chok Chai,Ban Chok Chai,Choc Chai,Chok Chai,Kra Thok,chokhchay,โชคชัย","latitude":"14.72844","longitude":"102.16524","feature_class":"P","feature_code":"PPLA2","country_code":"TH","cc2":"","admin1_code":"27","admin2_code":"","admin3_code":"","admin4_code":"","population":"23337","elevation":"","dem":"195","timezone":"Asia/Bangkok","modification_date":"2012-01-16"},{"geonameid":"1611183","name":"Chian Yai","asciiname":"Chian Yai","alternatenames":"Amphoe Chian Yai,Chian Yai,King Amphoe Chian Yai,เชียรใหญ่","latitude":"8.16936","longitude":"100.14469","feature_class":"P","feature_code":"PPLA2","country_code":"TH","cc2":"","admin1_code":"64","admin2_code":"","admin3_code":"","admin4_code":"","population":"0","elevation":"","dem":"7","timezone":"Asia/Bangkok","modification_date":"2012-01-16"},{"geonameid":"1611185","name":"Chiang Yuen","asciiname":"Chiang Yuen","alternatenames":"Amphoe Chiang Yuen,Ban Chiang Yun,Chiang Yuen,Chiang Yun,King Amphoe Chiang Yun,cheiyngyun,เชียงยืน","latitude":"16.41042","longitude":"103.09767","feature_class":"P","feature_code":"PPLA2","country_code":"TH","cc2":"","admin1_code":"24","admin2_code":"","admin3_code":"","admin4_code":"","population":"0","elevation":"","dem":"177","timezone":"Asia/Bangkok","modification_date":"2012-01-16"},{"geonameid":"1611187","name":"Chiang Saen","asciiname":"Chiang Saen","alternatenames":"Amphoe Chiang Saen,Chang Saen,Chiang Saen,Chiang Saen Luang,Chiang Saen Office,Chiangsehn,Chieng Sen,Ging Chieng Sean,Ging Chiensen,Jiengsen,Jiēngsēn,Keng Sen,Muang Jieng Sen,Чиангсэн,เชียงแสน","latitude":"20.27511","longitude":"100.08689","feature_class":"P","feature_code":"PPLA2","country_code":"TH","cc2":"","admin1_code":"03","admin2_code":"","admin3_code":"","admin4_code":"","population":"10807","elevation":"","dem":"373","timezone":"Asia/Bangkok","modification_date":"2016-01-19"},{"geonameid":"1611195","name":"Chiang Klang","asciiname":"Chiang Klang","alternatenames":"Amphoe Chiang Klang,Ban Chiang Klang,Chiang Klang,cheiyngklang,เชียงกลาง","latitude":"19.29378","longitude":"100.86169","feature_class":"P","feature_code":"PPLA2","country_code":"TH","cc2":"","admin1_code":"04","admin2_code":"","admin3_code":"","admin4_code":"","population":"13244","elevation":"","dem":"266","timezone":"Asia/Bangkok","modification_date":"2012-04-05"},{"geonameid":"1611197","name":"Chiang Khong","asciiname":"Chiang Khong","alternatenames":"Amphoe Chiang Khaung,Amphoe Chiang Khong,Amphoe Jieng Khohng,Ban Hwei Sai,Ban Nai Wiang,Chiang Khong,Chiangkkhong,Chieng Kaung,Chieng Kong,Jieng Khohng,Muang Jieng Khohng,Nai Wiang,Xieng Khong,cheiyngkhxng,Чиангкхонг,เชียงของ","latitude":"20.26125","longitude":"100.40461","feature_class":"P","feature_code":"PPLA2","country_code":"TH","cc2":"","admin1_code":"03","admin2_code":"","admin3_code":"","admin4_code":"","population":"14505","elevation":"","dem":"358","timezone":"Asia/Bangkok","modification_date":"2016-01-14"},{"geonameid":"1611200","name":"Chiang Khan","asciiname":"Chiang Khan","alternatenames":"Amphoe Chiang Khan,Amphoe Jieng Kan,Amphoe Jienggan,Amphoe Muang Chiang,Amphoe Muang Chiang Khan,Chiang Khan,Chieng Kan,Chienggan,Chienggān,Muang Chiang Kan,Muang Chiang Khan,Muang Chieng Kan,Xieng Khan,cheiyngkhan,เชียงคาน","latitude":"17.89382","longitude":"101.65997","feature_class":"P","feature_code":"PPLA2","country_code":"TH","cc2":"","admin1_code":"18","admin2_code":"","admin3_code":"","admin4_code":"","population":"0","elevation":"","dem":"218","timezone":"Asia/Bangkok","modification_date":"2012-01-16"},{"geonameid":"1611202","name":"Chiang Kham","asciiname":"Chiang Kham","alternatenames":"Amphoe Chiang Kham,Amphoe Chieng Kum,Amphoe Jieng Gam,Ban Chiang Kham,Ban Juan,Ban Yuan,Chiang Kham,Chieng Kam,Chieng Kum,Chienggam,Jieng Gam,Xieng Kham,cheiyngkha,เชียงคำ","latitude":"19.52331","longitude":"100.3","feature_class":"P","feature_code":"PPLA2","country_code":"TH","cc2":"","admin1_code":"41","admin2_code":"","admin3_code":"","admin4_code":"","population":"14092","elevation":"","dem":"396","timezone":"Asia/Bangkok","modification_date":"2012-01-16"},{"geonameid":"1611231","name":"Cha-uat","asciiname":"Cha-uat","alternatenames":"Amphoe Cha-uat,Ban Cha Uat,Cha-uat,King Amphoe Cha-uat,chaxwd,ชะอวด","latitude":"7.96773","longitude":"99.99985","feature_class":"P","feature_code":"PPLA2","country_code":"TH","cc2":"","admin1_code":"64","admin2_code":"","admin3_code":"","admin4_code":"","population":"0","elevation":"","dem":"11","timezone":"Asia/Bangkok","modification_date":"2012-01-16"},{"geonameid":"1611233","name":"Chaturaphak Phiman","asciiname":"Chaturaphak Phiman","alternatenames":"Amphoe Chaturaphak Phiman,Chaturaphak Phiman,Hua Chang,Muang Cha Tao,Muang Tia Tao,Muang Tia-tou,Tia Tao,ctur phaktr phiman,จตุรพักตรพิมาน","latitude":"15.84572","longitude":"103.55719","feature_class":"P","feature_code":"PPLA2","country_code":"TH","cc2":"","admin1_code":"25","admin2_code":"","admin3_code":"","admin4_code":"","population":"0","elevation":"","dem":"145","timezone":"Asia/Bangkok","modification_date":"2012-01-16"},{"geonameid":"1611234","name":"Chatturat","asciiname":"Chatturat","alternatenames":"Amphoe Chatturat,Amphoe Chaturat,Ban Kok,Chatturat,Chatuaras,Chaturat,Muang Chaturas,Muang Chaturat,Muang Chetturach,Muang Jatu Rat,Muang Tiattorak,caturas,จัตุรัส","latitude":"15.56542","longitude":"101.84547","feature_class":"P","feature_code":"PPLA2","country_code":"TH","cc2":"","admin1_code":"26","admin2_code":"","admin3_code":"","admin4_code":"","population":"0","elevation":"","dem":"196","timezone":"Asia/Bangkok","modification_date":"2012-01-16"},{"geonameid":"1611235","name":"Chat Trakan","asciiname":"Chat Trakan","alternatenames":"Amphoe Chat Trakan,Ban Chat Trakan,Chat Trakan,King Amphoe Chat Trakan,Mueang Chat Trakan,chatitrakar,ชาติตระการ","latitude":"17.27606","longitude":"100.60022","feature_class":"P","feature_code":"PPLA2","country_code":"TH","cc2":"","admin1_code":"12","admin2_code":"","admin3_code":"","admin4_code":"","population":"4608","elevation":"","dem":"210","timezone":"Asia/Bangkok","modification_date":"2013-12-12"},{"geonameid":"1611261","name":"Chanuman","asciiname":"Chanuman","alternatenames":"Amphoe Chanuman,Ban Chanuman,Chanuman,King Amphoe Chanuman,Mueang Chanuman Monthon,ban chanuman,chanuman,ชานุมาน,บ้านชานุมาน","latitude":"16.23356","longitude":"105.0005","feature_class":"P","feature_code":"PPLA2","country_code":"TH","cc2":"","admin1_code":"77","admin2_code":"","admin3_code":"","admin4_code":"","population":"0","elevation":"","dem":"154","timezone":"Asia/Bangkok","modification_date":"2012-01-16"},{"geonameid":"1611269","name":"Chanthaburi","asciiname":"Chanthaburi","alternatenames":"Amphoe Muang Chanthaburi,Canthaburis,Chandaburi,Chandha Buri,Changwat Chanthaburi,Chantaboun,Chantabun,Chantaburi,Chanthaburi,Chantkhaburi,Chentabun,Chiyandburii,Mueang Chanthaburi,canthburi,jjantabuli,thesbal meuxng canthburi,zhuang ta wu li,Čanthaburis,Чантхабури,چانتھابوری,จันทบุรี,เทศบาลเมืองจันทบุรี,ཅཱན་ཐ་བུ་རི།,庄他武里,짠타부리","latitude":"12.60961","longitude":"102.10447","feature_class":"P","feature_code":"PPLA","country_code":"TH","cc2":"","admin1_code":"48","admin2_code":"","admin3_code":"","admin4_code":"","population":"99819","elevation":"","dem":"7","timezone":"Asia/Bangkok","modification_date":"2012-01-16"},{"geonameid":"1611320","name":"Chanae","asciiname":"Chanae","alternatenames":"Amphoe Chanea,Chanae,King Amphoe Chanae,จะแนะ","latitude":"6.09914","longitude":"101.69353","feature_class":"P","feature_code":"PPLA2","country_code":"TH","cc2":"","admin1_code":"31","admin2_code":"","admin3_code":"","admin4_code":"","population":"0","elevation":"","dem":"57","timezone":"Asia/Bangkok","modification_date":"2012-01-16"},{"geonameid":"1611324","name":"Chana","asciiname":"Chana","alternatenames":"Amphoe Ban Na,Amphoe Chana,Ban Banna,Ban Chana,Ban Na,Chana,Chanok,Jana,cana,จะนะ","latitude":"6.91542","longitude":"100.74039","feature_class":"P","feature_code":"PPLA2","country_code":"TH","cc2":"","admin1_code":"68","admin2_code":"","admin3_code":"","admin4_code":"","population":"0","elevation":"","dem":"9","timezone":"Asia/Bangkok","modification_date":"2012-01-16"},{"geonameid":"1611394","name":"Chaloem Phra Kiat","asciiname":"Chaloem Phra Kiat","alternatenames":"Amphoe Chakkarat,Amphoe Chaloem Phra Kiat,Ban Non Mai Daeng,Ban Tha Chang,Chakkarat,Chakkrarat,Chaloem Phra Kiat,Tha Chang,chelimphrakeiyrti,thachang,ท่าช้าง,เฉลิมพระเกียรติ","latitude":"15.00508","longitude":"102.27033","feature_class":"P","feature_code":"PPLA2","country_code":"TH","cc2":"","admin1_code":"27","admin2_code":"","admin3_code":"","admin4_code":"","population":"0","elevation":"","dem":"165","timezone":"Asia/Bangkok","modification_date":"2012-01-16"},{"geonameid":"1611405","name":"Chaiyo","asciiname":"Chaiyo","alternatenames":"Amphoe Ban Makham,Amphoe Chaiyo,Ban Charake Rong,Ban Chorakhe Rong,Chaiyo,Chaurakhe Raung,Cheiyo,chiyo,ไชโย","latitude":"14.64878","longitude":"100.47878","feature_class":"P","feature_code":"PPLA2","country_code":"TH","cc2":"","admin1_code":"35","admin2_code":"","admin3_code":"","admin4_code":"","population":"0","elevation":"","dem":"9","timezone":"Asia/Bangkok","modification_date":"2012-01-16"},{"geonameid":"1611407","name":"Chaiyaphum","asciiname":"Chaiyaphum","alternatenames":"Amphoe Muang Chaiyaphum,Ban Hin Tang,Chai Phum,Chaiaphum,Chaiapum,Chaiyaphum,Chaiyaphun,Chaiyapoom,Chajjapkhum,Chalyaphum,Changwat Chaiyaphum,Changwat Chaiyaphun,Jaibhum,Jaiyabhum,Jayabhumi,Muang Chaiyapum,Muang Jaiyabhum,Tchaiapoum,chayphumi,Чайяпхум,ชัยภูมิ","latitude":"15.81047","longitude":"102.02881","feature_class":"P","feature_code":"PPLA","country_code":"TH","cc2":"","admin1_code":"26","admin2_code":"","admin3_code":"","admin4_code":"","population":"58350","elevation":"","dem":"188","timezone":"Asia/Bangkok","modification_date":"2012-01-16"},{"geonameid":"1611410","name":"Chaiwan","asciiname":"Chaiwan","alternatenames":"Amphoe Chai Wan,Ban Chai Wan,Chaiwan,King Amphoe Chai Wan,chiywan,ไชยวาน","latitude":"17.29447","longitude":"103.23385","feature_class":"P","feature_code":"PPLA2","country_code":"TH","cc2":"","admin1_code":"76","admin2_code":"7510798","admin3_code":"","admin4_code":"","population":"0","elevation":"","dem":"185","timezone":"Asia/Bangkok","modification_date":"2013-12-15"},{"geonameid":"1611416","name":"Chai Nat","asciiname":"Chai Nat","alternatenames":"Amphoe Ban Kluai,Amphoe Muang Chainat,Ban Kluai,Chai Nad,Chai Nat,Chainat,Changwat Chainat,Changwat Muang Chainat,Cheinat,Jai-Nadh,Jai-Nādh,Jainat,Muang Chainat,Muang Jai Nadh,Muang Xai Nat,Mueang Chai Nat,chaynath,ชัยนาท","latitude":"15.18636","longitude":"100.12353","feature_class":"P","feature_code":"PPLA","country_code":"TH","cc2":"","admin1_code":"32","admin2_code":"","admin3_code":"","admin4_code":"","population":"15469","elevation":"","dem":"26","timezone":"Asia/Bangkok","modification_date":"2012-01-16"},{"geonameid":"1611424","name":"Chai Badan","asciiname":"Chai Badan","alternatenames":"","latitude":"15.2","longitude":"101.13333","feature_class":"P","feature_code":"PPL","country_code":"TH","cc2":"","admin1_code":"34","admin2_code":"","admin3_code":"","admin4_code":"","population":"25196","elevation":"","dem":"44","timezone":"Asia/Bangkok","modification_date":"2006-01-17"},{"geonameid":"1611425","name":"Chai Badan","asciiname":"Chai Badan","alternatenames":"Amphoe Chai Badan,Amphu Chai Badal,Ban Chai Badan,Bān Chāi Bādān,Chai Badan,Jai Badal,Jai Bādāl,chaybadal,ชัยบาดาล","latitude":"15.20614","longitude":"101.13683","feature_class":"P","feature_code":"PPLA2","country_code":"TH","cc2":"","admin1_code":"34","admin2_code":"","admin3_code":"","admin4_code":"","population":"0","elevation":"","dem":"52","timezone":"Asia/Bangkok","modification_date":"2012-01-16"},{"geonameid":"1611439","name":"Chachoengsao","asciiname":"Chachoengsao","alternatenames":"Amphoe Muang Chachoengsao,Chacherngsao,Chachoengsao,Chachurngsao,Changwat Chachoengsao,Chaxerngsao,Chaxoengsao,Muang Chachurngsao,Muang Shajeungdhrao,Muang Shajeungtrao,Mueang Chachoengsao,Muong Chaxungsao,Paet Riu,Petrin,Petriou,Petriu,Shacheungzao,Shajeungdhrao,Shajeungdrao,Shajeungzao,chacheingthera,meuxng chacheingthera,Чачоенгсао,ฉะเชิงเทรา,เมืองฉะเชิงเทรา","latitude":"13.6882","longitude":"101.07156","feature_class":"P","feature_code":"PPLA","country_code":"TH","cc2":"","admin1_code":"44","admin2_code":"","admin3_code":"","admin4_code":"","population":"49741","elevation":"","dem":"4","timezone":"Asia/Bangkok","modification_date":"2012-01-16"},{"geonameid":"1611453","name":"Buriram","asciiname":"Buriram","alternatenames":"Amphoe Muang Buriram,Amphoe Mueang Buriram,Buri Ram,Buriram,Changwat Buriram,Muang Buriram,Muang Pae,Mueang Buri Ram,bulilam,buriramy,bwry ram,bwryram,thesbal meuxng buriramy,Бурирам,בורי ראם,بوريرام,بوری رام,بوریرام,บุรีรัมย์,เทศบาลเมืองบุรีรัมย์,부리람","latitude":"14.99433","longitude":"103.10392","feature_class":"P","feature_code":"PPLA","country_code":"TH","cc2":"","admin1_code":"28","admin2_code":"","admin3_code":"","admin4_code":"","population":"28283","elevation":"","dem":"158","timezone":"Asia/Bangkok","modification_date":"2013-08-06"},{"geonameid":"1611461","name":"Buntharik","asciiname":"Buntharik","alternatenames":"Amphoe Buntharik,Ban Phon Ngam,Buntharik,King Amphoe Ban Phon Ngam,King Amphoe Bhonngam,King Amphoe Buntharik,King Amphoe Phon Ngam,Muang Bua,Muang Pua,Phon Ngam,bunthrik,บุณฑริก","latitude":"14.75639","longitude":"105.41147","feature_class":"P","feature_code":"PPLA2","country_code":"TH","cc2":"","admin1_code":"75","admin2_code":"","admin3_code":"","admin4_code":"","population":"0","elevation":"","dem":"159","timezone":"Asia/Bangkok","modification_date":"2012-01-16"},{"geonameid":"1611467","name":"Bueng Sam Phan","asciiname":"Bueng Sam Phan","alternatenames":"Ban Bung Sam Phan Nok,Bueng Sam Phan,Bung Sam Phan,bungsamphan,บึงสามพัน","latitude":"15.83024","longitude":"100.91938","feature_class":"P","feature_code":"PPLA2","country_code":"TH","cc2":"","admin1_code":"14","admin2_code":"7510716","admin3_code":"","admin4_code":"","population":"0","elevation":"","dem":"190","timezone":"Asia/Bangkok","modification_date":"2013-12-14"},{"geonameid":"1611473","name":"Bueng Khong Long","asciiname":"Bueng Khong Long","alternatenames":"Amphoe Bueng Khong Long,Bueng Khong Long,Bung Khong Long,King Amphoe Bueng Khong Long,bung khong hlng,บึงโขงหลง","latitude":"17.96129","longitude":"104.04667","feature_class":"P","feature_code":"PPLA2","country_code":"TH","cc2":"","admin1_code":"81","admin2_code":"","admin3_code":"","admin4_code":"","population":"0","elevation":"","dem":"181","timezone":"Asia/Bangkok","modification_date":"2012-02-01"},{"geonameid":"1611475","name":"Bueng Kan","asciiname":"Bueng Kan","alternatenames":"Amphoe Bung Kan,Amphoe Chai Buri,Amphoe Jaiburi,Amphoe Shai Buri,Ban Beung Kal,Ban Bung Kan,Bueng Kan,Bung Kan,Chai Buri,bungkal,บึงกาฬ","latitude":"18.36303","longitude":"103.65194","feature_class":"P","feature_code":"PPLA","country_code":"TH","cc2":"","admin1_code":"81","admin2_code":"","admin3_code":"","admin4_code":"","population":"9712","elevation":"","dem":"160","timezone":"Asia/Bangkok","modification_date":"2013-08-06"},{"geonameid":"1611492","name":"Bua Yai","asciiname":"Bua Yai","alternatenames":"Amphoe Bua Yai,Bua Yai,Dan Nok,บัวใหญ่","latitude":"15.58552","longitude":"102.42587","feature_class":"P","feature_code":"PPLA2","country_code":"TH","cc2":"","admin1_code":"27","admin2_code":"","admin3_code":"","admin4_code":"","population":"16832","elevation":"","dem":"177","timezone":"Asia/Bangkok","modification_date":"2012-01-16"},{"geonameid":"1611504","name":"Bua Chet","asciiname":"Bua Chet","alternatenames":"Amphoe Buachet,Bua Chet,King Amphoe Buachet,baw ched,บัวเชด","latitude":"14.52814","longitude":"103.94567","feature_class":"P","feature_code":"PPLA2","country_code":"TH","cc2":"","admin1_code":"29","admin2_code":"","admin3_code":"","admin4_code":"","population":"0","elevation":"","dem":"208","timezone":"Asia/Bangkok","modification_date":"2012-01-16"},{"geonameid":"1611548","name":"Bo Thong","asciiname":"Bo Thong","alternatenames":"Amphoe Bo Thong,Bo Thong,King Amphoe Bo Thong,bx thxng,บ่อทอง","latitude":"13.27825","longitude":"101.44028","feature_class":"P","feature_code":"PPLA2","country_code":"TH","cc2":"","admin1_code":"46","admin2_code":"","admin3_code":"","admin4_code":"","population":"0","elevation":"","dem":"69","timezone":"Asia/Bangkok","modification_date":"2012-01-16"},{"geonameid":"1611578","name":"Bo Rai","asciiname":"Bo Rai","alternatenames":"Ban Bo Rai,Bau Rai,Bo Rai,bxri,บ่อไร่","latitude":"12.57283","longitude":"102.53714","feature_class":"P","feature_code":"PPLA2","country_code":"TH","cc2":"","admin1_code":"49","admin2_code":"","admin3_code":"","admin4_code":"","population":"13620","elevation":"","dem":"29","timezone":"Asia/Bangkok","modification_date":"2012-01-16"},{"geonameid":"1611580","name":"Borabue","asciiname":"Borabue","alternatenames":"Amphoe Borabu,Ban Borabu,Borabu,Borabue,brbux,บรบือ","latitude":"16.04179","longitude":"103.11506","feature_class":"P","feature_code":"PPLA2","country_code":"TH","cc2":"","admin1_code":"24","admin2_code":"1611579","admin3_code":"","admin4_code":"","population":"0","elevation":"","dem":"180","timezone":"Asia/Bangkok","modification_date":"2013-12-14"},{"geonameid":"1611620","name":"Bo Kluea","asciiname":"Bo Kluea","alternatenames":"Bo Klua,Bo Kluea,King Amphoe Bo Kluea,bx kelux,บ่อเกลือ","latitude":"19.15029","longitude":"101.1556","feature_class":"P","feature_code":"PPLA2","country_code":"TH","cc2":"","admin1_code":"04","admin2_code":"","admin3_code":"","admin4_code":"","population":"0","elevation":"","dem":"674","timezone":"Asia/Bangkok","modification_date":"2012-01-16"},{"geonameid":"1611635","name":"Betong","asciiname":"Betong","alternatenames":"Amphoe Betong,Amphoe Yarom,Ban Betong,Betong,Kampong Betong,betng,xaphex betng,Бетонг,อำเภอเบตง,เบตง","latitude":"5.77434","longitude":"101.07231","feature_class":"P","feature_code":"PPLA2","country_code":"TH","cc2":"","admin1_code":"70","admin2_code":"","admin3_code":"","admin4_code":"","population":"29604","elevation":"","dem":"269","timezone":"Asia/Bangkok","modification_date":"2012-01-16"},{"geonameid":"1611881","name":"Wang Pong","asciiname":"Wang Pong","alternatenames":"Amphoe Wang Pong,Ban Wang Paung,Ban Wang Pong (1),King Amphoe Wang Pong,Wang Pong,wang pong,วังโป่ง","latitude":"16.34147","longitude":"100.79317","feature_class":"P","feature_code":"PPLA2","country_code":"TH","cc2":"","admin1_code":"14","admin2_code":"","admin3_code":"","admin4_code":"","population":"0","elevation":"","dem":"128","timezone":"Asia/Bangkok","modification_date":"2012-01-16"},{"geonameid":"1611914","name":"Wang Muang","asciiname":"Wang Muang","alternatenames":"Amphoe Wang Muang,Ban Wang Muang,King Amphoe Wang Muang,Wang Muang,wang mwng,วังม่วง","latitude":"14.84228","longitude":"101.1255","feature_class":"P","feature_code":"PPLA2","country_code":"TH","cc2":"","admin1_code":"37","admin2_code":"7510711","admin3_code":"","admin4_code":"","population":"0","elevation":"","dem":"70","timezone":"Asia/Bangkok","modification_date":"2013-12-15"},{"geonameid":"1612722","name":"Ban Thai Tan","asciiname":"Ban Thai Tan","alternatenames":"Ban Thai Tan,ban thay tal,บ้านท้ายตาล","latitude":"14.62161","longitude":"100.48739","feature_class":"P","feature_code":"PPL","country_code":"TH","cc2":"","admin1_code":"35","admin2_code":"","admin3_code":"","admin4_code":"","population":"14430","elevation":"","dem":"11","timezone":"Asia/Bangkok","modification_date":"2012-02-01"},{"geonameid":"1612772","name":"Ban Thaen","asciiname":"Ban Thaen","alternatenames":"Amphoe Ban Thaen,Ban Thaen,King Amphoe Ban Thaen,บ้านแท่น","latitude":"16.40506","longitude":"102.34239","feature_class":"P","feature_code":"PPLA2","country_code":"TH","cc2":"","admin1_code":"26","admin2_code":"","admin3_code":"","admin4_code":"","population":"0","elevation":"","dem":"201","timezone":"Asia/Bangkok","modification_date":"2012-01-16"},{"geonameid":"1613174","name":"Song Khwae","asciiname":"Song Khwae","alternatenames":"Ban Saung Keo,Ban Song Khwae,Bān Saung Keo,Song Khwae,Song Khwaeo,สองแคว","latitude":"19.35964","longitude":"100.70042","feature_class":"P","feature_code":"PPLA2","country_code":"TH","cc2":"","admin1_code":"04","admin2_code":"","admin3_code":"","admin4_code":"","population":"0","elevation":"","dem":"299","timezone":"Asia/Bangkok","modification_date":"2012-04-05"},{"geonameid":"1613284","name":"Ban Selaphum","asciiname":"Ban Selaphum","alternatenames":"","latitude":"16.01667","longitude":"103.95","feature_class":"P","feature_code":"PPL","country_code":"TH","cc2":"","admin1_code":"25","admin2_code":"","admin3_code":"","admin4_code":"","population":"17412","elevation":"","dem":"133","timezone":"Asia/Bangkok","modification_date":"2006-01-17"},{"geonameid":"1613294","name":"Sawang Wirawong","asciiname":"Sawang Wirawong","alternatenames":"Amphoe Sawang Wirawong,Amphoe Suwan Warin,Ban Kaeng Sao On,Ban Kaeng Sao-an,Ban Sawang,Kaeng Samran,Khwaeng Mueang Khong Chiam,King Amphoe Sawang Wirawong,Sawang Wirawong,swang wir wngs,สว่างวีรวงศ์","latitude":"15.24158","longitude":"105.0922","feature_class":"P","feature_code":"PPLA2","country_code":"TH","cc2":"","admin1_code":"75","admin2_code":"","admin3_code":"","admin4_code":"","population":"7773","elevation":"","dem":"138","timezone":"Asia/Bangkok","modification_date":"2013-12-12"},{"geonameid":"1613409","name":"Ban Sang","asciiname":"Ban Sang","alternatenames":"Amphoe Ban Sang,Ban Bang Kabao,Ban Chang,Ban Sang,Bang Kabao,bansrang,บ้านสร้าง","latitude":"13.99503","longitude":"101.22095","feature_class":"P","feature_code":"PPLA2","country_code":"TH","cc2":"","admin1_code":"74","admin2_code":"","admin3_code":"","admin4_code":"","population":"0","elevation":"","dem":"7","timezone":"Asia/Bangkok","modification_date":"2012-01-16"},{"geonameid":"1613534","name":"Ban Sam Chuk","asciiname":"Ban Sam Chuk","alternatenames":"Ban Sam Chuk,Ban Sam Jok,Bān Sām Jok,ban samchuk,บ้านสามชุก","latitude":"14.74219","longitude":"100.09531","feature_class":"P","feature_code":"PPL","country_code":"TH","cc2":"","admin1_code":"51","admin2_code":"","admin3_code":"","admin4_code":"","population":"13438","elevation":"","dem":"13","timezone":"Asia/Bangkok","modification_date":"2014-01-08"},{"geonameid":"1613759","name":"Ratchasan","asciiname":"Ratchasan","alternatenames":"Amphoe Ratchasan,Ban Ratchasan,King Amphoe Ratchasan,Ratchasan,rach sasn,ราชสาส์น","latitude":"13.78211","longitude":"101.28133","feature_class":"P","feature_code":"PPLA2","country_code":"TH","cc2":"","admin1_code":"44","admin2_code":"","admin3_code":"","admin4_code":"","population":"0","elevation":"","dem":"9","timezone":"Asia/Bangkok","modification_date":"2012-01-16"},{"geonameid":"1613769","name":"Ban Rangsit","asciiname":"Ban Rangsit","alternatenames":"Ban Rangsit,Dhanya Buri,Mong Tania Buri,Möng Tania Buri,Rangsit,Thanyaburi,ban rangsit,บ้านรังสิต","latitude":"14.02775","longitude":"100.75603","feature_class":"P","feature_code":"PPL","country_code":"TH","cc2":"","admin1_code":"39","admin2_code":"","admin3_code":"","admin4_code":"","population":"123382","elevation":"","dem":"9","timezone":"Asia/Bangkok","modification_date":"2012-01-16"},{"geonameid":"1614050","name":"Ban Phue","asciiname":"Ban Phue","alternatenames":"Amphoe Ban Phu,Ban Phu,Ban Phue,ban phux,บ้านผือ","latitude":"17.68877","longitude":"102.47878","feature_class":"P","feature_code":"PPLA2","country_code":"TH","cc2":"","admin1_code":"76","admin2_code":"1614048","admin3_code":"","admin4_code":"","population":"0","elevation":"","dem":"187","timezone":"Asia/Bangkok","modification_date":"2013-12-14"},{"geonameid":"1614108","name":"Ban Phraek","asciiname":"Ban Phraek","alternatenames":"Amphoe Ban Phraek,Ban Phraek,Ban Prag,King Amphoe Ban Phraek,Phraek,บ้านแพรก","latitude":"14.64681","longitude":"100.57617","feature_class":"P","feature_code":"PPLA2","country_code":"TH","cc2":"","admin1_code":"36","admin2_code":"","admin3_code":"","admin4_code":"","population":"0","elevation":"","dem":"7","timezone":"Asia/Bangkok","modification_date":"2012-01-16"},{"geonameid":"1614240","name":"Ban Pho","asciiname":"Ban Pho","alternatenames":"Ampho Ban Pho,Amphoe Khao Din,Amphoe Sanam Chan,Ban Pho,Banbho,Bānbhō,banphothi,บ้านโพธิ์","latitude":"13.59864","longitude":"101.07956","feature_class":"P","feature_code":"PPLA2","country_code":"TH","cc2":"","admin1_code":"44","admin2_code":"","admin3_code":"","admin4_code":"","population":"0","elevation":"","dem":"7","timezone":"Asia/Bangkok","modification_date":"2012-01-16"},{"geonameid":"1614295","name":"Phatthaya","asciiname":"Phatthaya","alternatenames":"Ban Hat Phatthaya (2),Ban Phatthaya,PYX,Pataja,Pattajja,Pattaya,Phattaya,Phatthaya,Port Phattaya,ba da ya,pattaya,phathya,Патая,Паттайя,พัทยา,パッタヤー,芭達亞","latitude":"12.93333","longitude":"100.88333","feature_class":"P","feature_code":"PPL","country_code":"TH","cc2":"","admin1_code":"46","admin2_code":"","admin3_code":"","admin4_code":"","population":"97296","elevation":"","dem":"9","timezone":"Asia/Bangkok","modification_date":"2015-08-14"},{"geonameid":"1614336","name":"Ban Phan Don","asciiname":"Ban Phan Don","alternatenames":"Amphoe Kumbhawapi,Amphoe Kumphawapi,Ban Nam Khong,Ban Phan Don,Koumpa Ouapi,Kumpawapi,Kumphawapi,Muang Kumpawapi,Muang Kumpu Kwapi,Nam Khaung,ban phan dxn,บ้านพันดอน","latitude":"17.14272","longitude":"102.97261","feature_class":"P","feature_code":"PPL","country_code":"TH","cc2":"","admin1_code":"76","admin2_code":"","admin3_code":"","admin4_code":"","population":"29211","elevation":"","dem":"180","timezone":"Asia/Bangkok","modification_date":"2012-01-16"},{"geonameid":"1614455","name":"Ban Phai","asciiname":"Ban Phai","alternatenames":"Amphoe Ban Phai,Ban Keng,Ban Phai,King Amphoe Ban Phai,banphi,บ้านไผ่","latitude":"16.05997","longitude":"102.73097","feature_class":"P","feature_code":"PPLA2","country_code":"TH","cc2":"","admin1_code":"22","admin2_code":"","admin3_code":"","admin4_code":"","population":"35583","elevation":"","dem":"174","timezone":"Asia/Bangkok","modification_date":"2012-01-16"},{"geonameid":"1614465","name":"Ban Phaeo","asciiname":"Ban Phaeo","alternatenames":"Amphoe Ban Phaeo,Ban Phaeo,Ban Pheo,บ้านแพ้ว","latitude":"13.59072","longitude":"100.10748","feature_class":"P","feature_code":"PPLA2","country_code":"TH","cc2":"","admin1_code":"55","admin2_code":"","admin3_code":"","admin4_code":"","population":"41904","elevation":"","dem":"6","timezone":"Asia/Bangkok","modification_date":"2012-01-16"},{"geonameid":"1614469","name":"Ban Phaeng","asciiname":"Ban Phaeng","alternatenames":"Amphoe Ban Phaeng,Ban Paeng,Ban Phaeng,Ban Pheng,King Amphoe Ban Phaeng,Paeng,บ้านแพง","latitude":"17.96507","longitude":"104.21534","feature_class":"P","feature_code":"PPLA2","country_code":"TH","cc2":"","admin1_code":"73","admin2_code":"","admin3_code":"","admin4_code":"","population":"0","elevation":"","dem":"152","timezone":"Asia/Bangkok","modification_date":"2012-01-16"},{"geonameid":"1614696","name":"Pak Chom","asciiname":"Pak Chom","alternatenames":"Amphoe Pak Chom,Ban Pak Chom,Ban Pak Sohm,King Amphoe Pak Chom,Pak Chaum,Pak Chom,Pāk Chaum,pakchm,ปากชม","latitude":"18.02061","longitude":"101.89828","feature_class":"P","feature_code":"PPLA2","country_code":"TH","cc2":"","admin1_code":"18","admin2_code":"","admin3_code":"","admin4_code":"","population":"0","elevation":"","dem":"221","timezone":"Asia/Bangkok","modification_date":"2012-01-16"},{"geonameid":"1615380","name":"Nong Muang Khai","asciiname":"Nong Muang Khai","alternatenames":"Amphoe Nong Muang Khai,Ban Naung Maung Kai,Ban Nong Muang Khai,Bān Naung Maung Kāi,King Amphoe Nong Muang Khai,Naung Muang Kai,Nong Muang Khai,hnxng mwng khi,หนองม่วงไข่","latitude":"18.26464","longitude":"100.18967","feature_class":"P","feature_code":"PPLA2","country_code":"TH","cc2":"","admin1_code":"07","admin2_code":"","admin3_code":"","admin4_code":"","population":"0","elevation":"","dem":"166","timezone":"Asia/Bangkok","modification_date":"2012-09-05"},{"geonameid":"1615758","name":"Nong Don","asciiname":"Nong Don","alternatenames":"Amphoe Nong Don,Ban Nong Don,Hnohng Don,Hnōhng Don,King Amphoe Nong Don,Naung Don,Nong Don,hnxngdon,หนองโดน","latitude":"14.68488","longitude":"100.7094","feature_class":"P","feature_code":"PPLA2","country_code":"TH","cc2":"","admin1_code":"37","admin2_code":"","admin3_code":"","admin4_code":"","population":"0","elevation":"","dem":"11","timezone":"Asia/Bangkok","modification_date":"2012-01-16"},{"geonameid":"1616060","name":"Na Yia","asciiname":"Na Yia","alternatenames":"Amphoe Na Yia,Ban Na Ya,Ban Na Yia,King Amphoe Na Yia,Na Ma,Na Yia,na yeiy,นาเยีย","latitude":"15.06367","longitude":"105.05994","feature_class":"P","feature_code":"PPLA2","country_code":"TH","cc2":"","admin1_code":"75","admin2_code":"","admin3_code":"","admin4_code":"","population":"0","elevation":"","dem":"130","timezone":"Asia/Bangkok","modification_date":"2012-01-16"},{"geonameid":"1616066","name":"Na Yai Am","asciiname":"Na Yai Am","alternatenames":"Amphoe Na Yai Am,Ban Na Yai Am,King Amphoe Na Yai Am,Na Yai Am,na yay xam,นายายอาม","latitude":"12.78153","longitude":"101.82256","feature_class":"P","feature_code":"PPLA2","country_code":"TH","cc2":"","admin1_code":"48","admin2_code":"","admin3_code":"","admin4_code":"","population":"0","elevation":"","dem":"16","timezone":"Asia/Bangkok","modification_date":"2012-01-16"},{"geonameid":"1616090","name":"Na Thom","asciiname":"Na Thom","alternatenames":"Amphoe Na Thom,Ban Na Thom,King Amphoe Na Thom,Na Thom,na thm,นาทม","latitude":"17.78491","longitude":"104.09082","feature_class":"P","feature_code":"PPLA2","country_code":"TH","cc2":"","admin1_code":"73","admin2_code":"","admin3_code":"","admin4_code":"","population":"0","elevation":"","dem":"162","timezone":"Asia/Bangkok","modification_date":"2012-01-16"},{"geonameid":"1616198","name":"Ban Nang Sata","asciiname":"Ban Nang Sata","alternatenames":"Amphoe Ba Cho,Amphoe Ban Nang Sata,Ban Ban Nang Sata,Ban Nang Sata,Ban Panang Star,Ban Pannang Sata,Bannangsta,Benang Setar,Pannang Sata,ban bannangsta,bannangsta,บันนังสตา,บ้านบันนังสตา","latitude":"6.26638","longitude":"101.26461","feature_class":"P","feature_code":"PPLA2","country_code":"TH","cc2":"","admin1_code":"70","admin2_code":"","admin3_code":"","admin4_code":"","population":"0","elevation":"","dem":"48","timezone":"Asia/Bangkok","modification_date":"2012-01-16"},{"geonameid":"1616379","name":"Na Khu","asciiname":"Na Khu","alternatenames":"Amphoe Na Khu,Ban Na Khu,King Amphoe Na Khu,Na Khu,na khu,นาคู","latitude":"16.76384","longitude":"104.02626","feature_class":"P","feature_code":"PPLA2","country_code":"TH","cc2":"","admin1_code":"23","admin2_code":"","admin3_code":"","admin4_code":"","population":"0","elevation":"","dem":"192","timezone":"Asia/Bangkok","modification_date":"2012-01-16"},{"geonameid":"1616445","name":"Na Haeo","asciiname":"Na Haeo","alternatenames":"Amphoe Na Haeo,Ban Na Haeo,Ban Na Heo,Bān Na Heo,King Amphoe Na Haeo,Na Haeo,Nahai,นาแห้ว","latitude":"17.48536","longitude":"101.06808","feature_class":"P","feature_code":"PPLA2","country_code":"TH","cc2":"","admin1_code":"18","admin2_code":"","admin3_code":"","admin4_code":"","population":"0","elevation":"","dem":"494","timezone":"Asia/Bangkok","modification_date":"2012-01-16"},{"geonameid":"1616464","name":"Na Di","asciiname":"Na Di","alternatenames":"Amphoe Na Di,Ban Na Di,King Amphoe Na Di,Na Di,Nadi,nadi,นาดี","latitude":"14.11517","longitude":"101.78189","feature_class":"P","feature_code":"PPLA2","country_code":"TH","cc2":"","admin1_code":"74","admin2_code":"","admin3_code":"","admin4_code":"","population":"0","elevation":"","dem":"29","timezone":"Asia/Bangkok","modification_date":"2012-01-16"},{"geonameid":"1616503","name":"Ban Na","asciiname":"Ban Na","alternatenames":"Amphoe Ban Na,Amphoe Tha Chang,Ban Na,Ban Phikun Ok,Bang Na,Phikum Auk,banna,บ้านนา","latitude":"14.26238","longitude":"101.07111","feature_class":"P","feature_code":"PPLA2","country_code":"TH","cc2":"","admin1_code":"43","admin2_code":"","admin3_code":"","admin4_code":"","population":"0","elevation":"","dem":"24","timezone":"Asia/Bangkok","modification_date":"2012-01-16"},{"geonameid":"1616609","name":"Ban Muang","asciiname":"Ban Muang","alternatenames":"Amphoe Ban Muang,Ban Muang,King Amphoe Ban Muang,banmwng,บ้านม่วง","latitude":"17.8508","longitude":"103.56939","feature_class":"P","feature_code":"PPLA2","country_code":"TH","cc2":"","admin1_code":"20","admin2_code":"","admin3_code":"","admin4_code":"","population":"0","elevation":"","dem":"161","timezone":"Asia/Bangkok","modification_date":"2012-01-16"},{"geonameid":"1616631","name":"Muak Lek","asciiname":"Muak Lek","alternatenames":"Ban Muak Lek,Muak Lek,Muaklek,mwk helk,มวกเหล็ก","latitude":"14.65287","longitude":"101.20022","feature_class":"P","feature_code":"PPLA2","country_code":"TH","cc2":"","admin1_code":"37","admin2_code":"","admin3_code":"","admin4_code":"","population":"0","elevation":"","dem":"221","timezone":"Asia/Bangkok","modification_date":"2014-04-29"},{"geonameid":"1616658","name":"Ban Mo","asciiname":"Ban Mo","alternatenames":"Amphoe Ban Mo,Ban Mo,banhmx,บ้านหมอ","latitude":"14.61544","longitude":"100.72731","feature_class":"P","feature_code":"PPLA2","country_code":"TH","cc2":"","admin1_code":"37","admin2_code":"","admin3_code":"","admin4_code":"","population":"15959","elevation":"","dem":"13","timezone":"Asia/Bangkok","modification_date":"2012-01-16"},{"geonameid":"1616665","name":"Ban Mi","asciiname":"Ban Mi","alternatenames":"Amphoe Ban Mi,Amphoe Ban Sao,Amphoe Huay Kaew,Amphoe Sanam Chaeng,Ban Mi,banhmi,บ้านหมี่","latitude":"15.04428","longitude":"100.53681","feature_class":"P","feature_code":"PPLA2","country_code":"TH","cc2":"","admin1_code":"34","admin2_code":"","admin3_code":"","admin4_code":"","population":"0","elevation":"","dem":"16","timezone":"Asia/Bangkok","modification_date":"2012-01-16"},{"geonameid":"1616888","name":"Mae Lan","asciiname":"Mae Lan","alternatenames":"Amphoe Mae Lan,Ban Mae Lan,Ban Mehlan,King Amphoe Mae Lan,Mae Lan,Mae Ran,แม่ลาน","latitude":"6.66114","longitude":"101.23958","feature_class":"P","feature_code":"PPLA2","country_code":"TH","cc2":"","admin1_code":"69","admin2_code":"","admin3_code":"","admin4_code":"","population":"0","elevation":"","dem":"13","timezone":"Asia/Bangkok","modification_date":"2012-01-16"},