{"nextFile":"cities.57.json","rows":[{"geonameid":"3028983","name":"Campagne-lès-Hesdin","asciiname":"Campagne-les-Hesdin","alternatenames":"Campagne,Campagne-les-Hesdin,Campagne-lès-Hesdin,Le Pelletier-sur-Canche,Lepelletier-sur-Canche","latitude":"50.39724","longitude":"1.87494","feature_class":"P","feature_code":"PPL","country_code":"FR","cc2":"","admin1_code":"32","admin2_code":"62","admin3_code":"624","admin4_code":"62204","population":"1732","elevation":"","dem":"92","timezone":"Europe/Paris","modification_date":"2016-02-18"},{"geonameid":"3029002","name":"Camors","asciiname":"Camors","alternatenames":"Camors,Kamor,Kamorzh,kang ao er,Камор,康奥尔","latitude":"47.84739","longitude":"-2.99981","feature_class":"P","feature_code":"PPL","country_code":"FR","cc2":"","admin1_code":"53","admin2_code":"56","admin3_code":"561","admin4_code":"56031","population":"2508","elevation":"","dem":"113","timezone":"Europe/Paris","modification_date":"2016-02-18"},{"geonameid":"3029003","name":"Camon","asciiname":"Camon","alternatenames":"Camon","latitude":"49.88764","longitude":"2.34486","feature_class":"P","feature_code":"PPL","country_code":"FR","cc2":"","admin1_code":"32","admin2_code":"80","admin3_code":"802","admin4_code":"80164","population":"4411","elevation":"","dem":"30","timezone":"Europe/Paris","modification_date":"2016-02-18"},{"geonameid":"3029012","name":"Camiers","asciiname":"Camiers","alternatenames":"Camie,Camiers,Camié,Kam'e,Kame,Kamijer,ka mi ye,kamyyrs,Камијер,Камье,Камє,كامييرس,卡米耶","latitude":"50.57153","longitude":"1.61325","feature_class":"P","feature_code":"PPL","country_code":"FR","cc2":"","admin1_code":"32","admin2_code":"62","admin3_code":"624","admin4_code":"62201","population":"2325","elevation":"","dem":"21","timezone":"Europe/Paris","modification_date":"2016-02-18"},{"geonameid":"3029023","name":"Cambronne-lès-Ribécourt","asciiname":"Cambronne-les-Ribecourt","alternatenames":"Cambronne,Cambronne-les-Ribecourt,Cambronne-lès-Ribécourt,Kambron le Ribekur,Kambronn-le-Ribekur,kang bu long lai li bei ku er,Камброн ле Рибекур,Камбронн-ле-Рибекур,康布龙莱里贝库尔","latitude":"49.50711","longitude":"2.89797","feature_class":"P","feature_code":"PPL","country_code":"FR","cc2":"","admin1_code":"32","admin2_code":"60","admin3_code":"603","admin4_code":"60119","population":"2064","elevation":"","dem":"68","timezone":"Europe/Paris","modification_date":"2016-02-18"},{"geonameid":"3029024","name":"Cambronne-lès-Clermont","asciiname":"Cambronne-les-Clermont","alternatenames":"Cambronne,Cambronne-le-Mont-Brutus,Cambronne-les-Clermont,Cambronne-lès-Clermont,Kambron le Klermon,Kambronn-le-Klermon,kang bu long lai ke lai meng,Камброн ле Клермон,Камбронн-ле-Клермон,康布龙莱克莱蒙","latitude":"49.33022","longitude":"2.39928","feature_class":"P","feature_code":"PPL","country_code":"FR","cc2":"","admin1_code":"32","admin2_code":"60","admin3_code":"602","admin4_code":"60120","population":"1034","elevation":"","dem":"124","timezone":"Europe/Paris","modification_date":"2016-02-18"},{"geonameid":"3029027","name":"Cambremer","asciiname":"Cambremer","alternatenames":"Cambremer","latitude":"49.15192","longitude":"0.0476","feature_class":"P","feature_code":"PPL","country_code":"FR","cc2":"","admin1_code":"28","admin2_code":"14","admin3_code":"143","admin4_code":"14126","population":"1165","elevation":"","dem":"97","timezone":"Europe/Paris","modification_date":"2016-02-18"},{"geonameid":"3029030","name":"Cambrai","asciiname":"Cambrai","alternatenames":"Cambrai,Cambria,Cameracum,Gorad Kambreh,Kambre,Kambrė,Kimbre,Kimbré,XCB,kambryh,kanbure,kang bu lei,kangbeule,kmbrh,qmbrh,Горад Камбрэ,Камбре,קמברה,كامبريه,کمبره,ካምብሬ,カンブレー,康布雷,캉브레","latitude":"50.16667","longitude":"3.23333","feature_class":"P","feature_code":"PPLA3","country_code":"FR","cc2":"","admin1_code":"32","admin2_code":"59","admin3_code":"592","admin4_code":"59122","population":"36492","elevation":"","dem":"61","timezone":"Europe/Paris","modification_date":"2016-02-18"},{"geonameid":"3029041","name":"Cambo-les-Bains","asciiname":"Cambo-les-Bains","alternatenames":"Cambo,Cambo-les-Bains,Cambon,Kambo le Ben,Kambo-le-Ben,Kanbo,La Montagne,kanbo=re=ban,kang bo lai ban,Камбо ле Бен,Камбо-ле-Бен,カンボ＝レ＝バン,康博莱班","latitude":"43.35851","longitude":"-1.40105","feature_class":"P","feature_code":"PPL","country_code":"FR","cc2":"","admin1_code":"75","admin2_code":"64","admin3_code":"641","admin4_code":"64160","population":"4800","elevation":"","dem":"70","timezone":"Europe/Paris","modification_date":"2016-02-18"},{"geonameid":"3029044","name":"Camblanes-et-Meynac","asciiname":"Camblanes-et-Meynac","alternatenames":"Camblanas e Meinac,Camblanes,Camblanes-et-Meynac,Kamblan et Menak,Kamblan-e-Mejnak,kang bu la nei he mei na ke,Камблан ет Менак,Камблан-е-Мейнак,康布拉内和梅纳克","latitude":"44.76551","longitude":"-0.48653","feature_class":"P","feature_code":"PPL","country_code":"FR","cc2":"","admin1_code":"75","admin2_code":"33","admin3_code":"332","admin4_code":"33085","population":"2430","elevation":"","dem":"46","timezone":"Europe/Paris","modification_date":"2016-02-18"},{"geonameid":"3029046","name":"Camblain-Châtelain","asciiname":"Camblain-Chatelain","alternatenames":"Camblain-Chatelain,Camblain-Châtelain","latitude":"50.48355","longitude":"2.45521","feature_class":"P","feature_code":"PPL","country_code":"FR","cc2":"","admin1_code":"32","admin2_code":"62","admin3_code":"622","admin4_code":"62197","population":"1614","elevation":"","dem":"64","timezone":"Europe/Paris","modification_date":"2016-02-18"},{"geonameid":"3029051","name":"Cambes-en-Plaine","asciiname":"Cambes-en-Plaine","alternatenames":"Cambes,Cambes-en-Plaine","latitude":"49.23161","longitude":"-0.3854","feature_class":"P","feature_code":"PPL","country_code":"FR","cc2":"","admin1_code":"28","admin2_code":"14","admin3_code":"142","admin4_code":"14125","population":"1550","elevation":"","dem":"57","timezone":"Europe/Paris","modification_date":"2016-02-18"},{"geonameid":"3029052","name":"Cambes","asciiname":"Cambes","alternatenames":"Cambes","latitude":"44.73179","longitude":"-0.46261","feature_class":"P","feature_code":"PPL","country_code":"FR","cc2":"","admin1_code":"75","admin2_code":"33","admin3_code":"332","admin4_code":"33084","population":"1234","elevation":"","dem":"9","timezone":"Europe/Paris","modification_date":"2016-02-18"},{"geonameid":"3029068","name":"Camaret-sur-Mer","asciiname":"Camaret-sur-Mer","alternatenames":"Camaret,Camaret-sur-Mer,Kamare na Moru,Kamare-sjur-Mer,Kameled,bin hai ka ma lei,kamare=shuru=meru,Камаре на Мору,Камаре-сюр-Мер,カマレ＝シュル＝メール,滨海卡马雷","latitude":"48.27497","longitude":"-4.59615","feature_class":"P","feature_code":"PPL","country_code":"FR","cc2":"","admin1_code":"53","admin2_code":"29","admin3_code":"292","admin4_code":"29022","population":"2612","elevation":"","dem":"4","timezone":"Europe/Paris","modification_date":"2016-02-18"},{"geonameid":"3029069","name":"Camaret-sur-Aigues","asciiname":"Camaret-sur-Aigues","alternatenames":"Camaret,Camaret dEgues,Camaret-sur-Aigues,Camaret-sur-Eygues,Kamare sir Eg,Kamare-sjur-Eg,Kamare-sjur-Ehg,ai ju e he pan ka ma lei,Камаре сир Ег,Камаре-сюр-Ег,Камаре-сюр-Эг,艾居厄河畔卡马勒","latitude":"44.16405","longitude":"4.87424","feature_class":"P","feature_code":"PPL","country_code":"FR","cc2":"","admin1_code":"93","admin2_code":"84","admin3_code":"842","admin4_code":"84029","population":"3788","elevation":"","dem":"74","timezone":"Europe/Paris","modification_date":"2016-02-18"},{"geonameid":"3029071","name":"Camarès","asciiname":"Camares","alternatenames":"Camares,Camares-sur-Dourdon,Camarès","latitude":"43.82208","longitude":"2.88005","feature_class":"P","feature_code":"PPL","country_code":"FR","cc2":"","admin1_code":"76","admin2_code":"12","admin3_code":"121","admin4_code":"12044","population":"1057","elevation":"","dem":"385","timezone":"Europe/Paris","modification_date":"2016-02-18"},{"geonameid":"3029080","name":"Calvisson","asciiname":"Calvisson","alternatenames":"Calvisson,Cauvicon,Cauviçon,Kal'visson,Kalvison,ka er wei song,Калвисон,Кальвиссон,Кальвіссон,卡尔维松","latitude":"43.78696","longitude":"4.19626","feature_class":"P","feature_code":"PPL","country_code":"FR","cc2":"","admin1_code":"76","admin2_code":"30","admin3_code":"302","admin4_code":"30062","population":"3890","elevation":"","dem":"53","timezone":"Europe/Paris","modification_date":"2016-02-18"},{"geonameid":"3029090","name":"Calvi","asciiname":"Calvi","alternatenames":"CLY,Calvi,Kal'vi,Kalvi,ka er wei,Калви,Кальви,卡尔维","latitude":"42.56604","longitude":"8.75713","feature_class":"P","feature_code":"PPLA3","country_code":"FR","cc2":"","admin1_code":"94","admin2_code":"2B","admin3_code":"2B5","admin4_code":"2B050","population":"5477","elevation":"","dem":"4","timezone":"Europe/Paris","modification_date":"2016-02-18"},{"geonameid":"3029096","name":"Caluire-et-Cuire","asciiname":"Caluire-et-Cuire","alternatenames":"Caluire,Caluire et Cuire,Caluire-et-Cuire,Kalir e Kir,Kaljuir-e-Kjuir,Scevola,Scévola,kallileuekileu,karyuiru=e=kyuiru,klwyyr akwyyr,Калир е Кир,Калюїр-е-Кюїр,کلوئیر اکوئیر,カリュイール＝エ＝キュイール,칼리르에키르","latitude":"45.79041","longitude":"4.84112","feature_class":"P","feature_code":"PPL","country_code":"FR","cc2":"","admin1_code":"84","admin2_code":"69","admin3_code":"691","admin4_code":"69034","population":"42763","elevation":"","dem":"251","timezone":"Europe/Paris","modification_date":"2016-02-18"},{"geonameid":"3029098","name":"Calonne-sur-la-Lys","asciiname":"Calonne-sur-la-Lys","alternatenames":"Calonne,Calonne-su-el-Lys,Calonne-sur-la-Lys,Kalon sir la Lis,Kalonn-sjur-la-Li,Kalonn-sjur-la-Lis,kalwny swr la lys,li si he pan ka luo ne,Калон сир ла Лис,Калонн-сюр-ла-Ли,Калонн-сюр-ла-Ліс,كالوني سور لا ليس,利斯河畔卡洛讷","latitude":"50.62292","longitude":"2.61664","feature_class":"P","feature_code":"PPL","country_code":"FR","cc2":"","admin1_code":"32","admin2_code":"62","admin3_code":"622","admin4_code":"62195","population":"1556","elevation":"","dem":"16","timezone":"Europe/Paris","modification_date":"2016-02-18"},{"geonameid":"3029099","name":"Calonne-Ricouart","asciiname":"Calonne-Ricouart","alternatenames":"Calonne,Calonne-Ricouart,Kalon Rikuar,Kalonn-Rikuar,ka luo ne li ku a er,kalwny rykwrt,Калон Рикуар,Калонн-Рикуар,كالوني ريكورت,卡洛讷里库阿尔","latitude":"50.48504","longitude":"2.47335","feature_class":"P","feature_code":"PPL","country_code":"FR","cc2":"","admin1_code":"32","admin2_code":"62","admin3_code":"622","admin4_code":"62194","population":"6099","elevation":"","dem":"53","timezone":"Europe/Paris","modification_date":"2016-02-18"},{"geonameid":"3029107","name":"Calmont","asciiname":"Calmont","alternatenames":"Calmont","latitude":"44.24883","longitude":"2.51201","feature_class":"P","feature_code":"PPL","country_code":"FR","cc2":"","admin1_code":"76","admin2_code":"12","admin3_code":"122","admin4_code":"12043","population":"1787","elevation":"","dem":"574","timezone":"Europe/Paris","modification_date":"2016-02-18"},{"geonameid":"3029108","name":"Calmont","asciiname":"Calmont","alternatenames":"Calmont,Culmont","latitude":"43.28718","longitude":"1.63031","feature_class":"P","feature_code":"PPL","country_code":"FR","cc2":"","admin1_code":"76","admin2_code":"31","admin3_code":"313","admin4_code":"31100","population":"1810","elevation":"","dem":"215","timezone":"Europe/Paris","modification_date":"2016-02-18"},{"geonameid":"3029118","name":"Callian","asciiname":"Callian","alternatenames":"Callian","latitude":"43.6231","longitude":"6.7519","feature_class":"P","feature_code":"PPL","country_code":"FR","cc2":"","admin1_code":"93","admin2_code":"83","admin3_code":"831","admin4_code":"83029","population":"2641","elevation":"","dem":"310","timezone":"Europe/Paris","modification_date":"2016-02-18"},{"geonameid":"3029125","name":"Callas","asciiname":"Callas","alternatenames":"Callas","latitude":"43.59237","longitude":"6.53738","feature_class":"P","feature_code":"PPL","country_code":"FR","cc2":"","admin1_code":"93","admin2_code":"83","admin3_code":"831","admin4_code":"83028","population":"1497","elevation":"","dem":"385","timezone":"Europe/Paris","modification_date":"2016-02-18"},{"geonameid":"3029126","name":"Callac","asciiname":"Callac","alternatenames":"Callac,Callacum,Kalak,Kallag,Kallak,ka la ke,Калак,Каллак,卡拉克","latitude":"48.40292","longitude":"-3.428","feature_class":"P","feature_code":"PPL","country_code":"FR","cc2":"","admin1_code":"53","admin2_code":"22","admin3_code":"222","admin4_code":"22025","population":"2564","elevation":"","dem":"160","timezone":"Europe/Paris","modification_date":"2016-02-18"},{"geonameid":"3029140","name":"Calenzana","asciiname":"Calenzana","alternatenames":"Calenzana,Kalencana,Каленцана","latitude":"42.50839","longitude":"8.85594","feature_class":"P","feature_code":"PPL","country_code":"FR","cc2":"","admin1_code":"94","admin2_code":"2B","admin3_code":"2B5","admin4_code":"2B049","population":"1882","elevation":"","dem":"278","timezone":"Europe/Paris","modification_date":"2016-02-18"},{"geonameid":"3029162","name":"Calais","asciiname":"Calais","alternatenames":"CQF,Calais,Cales,Calesium,Calés,Gorad Kale,Kalai,Kale,Kale shaary,Kales,Kalē,Kalė,jia lai,kale,kalh,kalle,kalyh,kare,Καλαί,Горад Кале,Кале,Кале шаары,Կալե,קאלה,كاليه,کاله,کالے,கலே,กาแล,カレー,加来,加莱,칼레","latitude":"50.95194","longitude":"1.85635","feature_class":"P","feature_code":"PPLA3","country_code":"FR","cc2":"","admin1_code":"32","admin2_code":"62","admin3_code":"626","admin4_code":"62193","population":"74433","elevation":"","dem":"6","timezone":"Europe/Paris","modification_date":"2016-02-18"},{"geonameid":"3029168","name":"Cajarc","asciiname":"Cajarc","alternatenames":"Cajarc,Kazhar,Kazhark,ka ya ke,Кажар,Кажарк,卡雅克","latitude":"44.48546","longitude":"1.84261","feature_class":"P","feature_code":"PPL","country_code":"FR","cc2":"","admin1_code":"76","admin2_code":"46","admin3_code":"462","admin4_code":"46045","population":"1219","elevation":"","dem":"158","timezone":"Europe/Paris","modification_date":"2016-02-18"},{"geonameid":"3029174","name":"Caissargues","asciiname":"Caissargues","alternatenames":"Caissargues,Kesarg,Kessarg,kai sa er gai,Кесарг,Кессарг,凯萨尔盖","latitude":"43.79509","longitude":"4.37955","feature_class":"P","feature_code":"PPL","country_code":"FR","cc2":"","admin1_code":"76","admin2_code":"30","admin3_code":"302","admin4_code":"30060","population":"3858","elevation":"","dem":"31","timezone":"Europe/Paris","modification_date":"2016-02-18"},{"geonameid":"3029178","name":"Cairon","asciiname":"Cairon","alternatenames":"Cairon,Keron,kai long,Керон,凯龙","latitude":"49.24017","longitude":"-0.45046","feature_class":"P","feature_code":"PPL","country_code":"FR","cc2":"","admin1_code":"28","admin2_code":"14","admin3_code":"142","admin4_code":"14123","population":"1674","elevation":"","dem":"37","timezone":"Europe/Paris","modification_date":"2016-02-18"},{"geonameid":"3029186","name":"Cailloux-sur-Fontaines","asciiname":"Cailloux-sur-Fontaines","alternatenames":"Cailloux,Cailloux-sur-Fontaines","latitude":"45.85147","longitude":"4.87585","feature_class":"P","feature_code":"PPL","country_code":"FR","cc2":"","admin1_code":"84","admin2_code":"69","admin3_code":"691","admin4_code":"69033","population":"2269","elevation":"","dem":"254","timezone":"Europe/Paris","modification_date":"2016-02-18"},{"geonameid":"3029206","name":"Cahuzac-sur-Vère","asciiname":"Cahuzac-sur-Vere","alternatenames":"Cahusac-sur-Vere,Cahusac-sur-Vère,Cahuzac,Cahuzac-sur-Vere,Cahuzac-sur-Vère,Cuhuzac-sur-Vere","latitude":"43.98268","longitude":"1.91052","feature_class":"P","feature_code":"PPL","country_code":"FR","cc2":"","admin1_code":"76","admin2_code":"81","admin3_code":"811","admin4_code":"81051","population":"1084","elevation":"","dem":"213","timezone":"Europe/Paris","modification_date":"2016-02-18"},{"geonameid":"3029213","name":"Cahors","asciiname":"Cahors","alternatenames":"Cadurcum,Cahors,Caors,Gorad Kaor,Kaor,ZAO,ka ao er,kaoleu,kaoru,kywr,Горад Каор,Каор,קאור,کئور,カオール,卡奥尔,카오르","latitude":"44.4491","longitude":"1.43663","feature_class":"P","feature_code":"PPLA2","country_code":"FR","cc2":"","admin1_code":"76","admin2_code":"46","admin3_code":"461","admin4_code":"46042","population":"23331","elevation":"","dem":"142","timezone":"Europe/Paris","modification_date":"2016-02-18"},{"geonameid":"3029221","name":"Cahagnes","asciiname":"Cahagnes","alternatenames":"Cahagnes,Kaan',Kan,ka a gai,Каань,Кањ,卡阿盖","latitude":"49.06631","longitude":"-0.76869","feature_class":"P","feature_code":"PPL","country_code":"FR","cc2":"","admin1_code":"28","admin2_code":"14","admin3_code":"144","admin4_code":"14120","population":"1117","elevation":"","dem":"175","timezone":"Europe/Paris","modification_date":"2016-02-18"},{"geonameid":"3029222","name":"Cagny","asciiname":"Cagny","alternatenames":"Cagny","latitude":"49.86217","longitude":"2.34266","feature_class":"P","feature_code":"PPL","country_code":"FR","cc2":"","admin1_code":"32","admin2_code":"80","admin3_code":"802","admin4_code":"80160","population":"1427","elevation":"","dem":"31","timezone":"Europe/Paris","modification_date":"2016-02-18"},{"geonameid":"3029223","name":"Cagny","asciiname":"Cagny","alternatenames":"Cagny","latitude":"49.1458","longitude":"-0.2563","feature_class":"P","feature_code":"PPL","country_code":"FR","cc2":"","admin1_code":"28","admin2_code":"14","admin3_code":"142","admin4_code":"14119","population":"1653","elevation":"","dem":"21","timezone":"Europe/Paris","modification_date":"2016-02-18"},{"geonameid":"3029227","name":"Cagnes-sur-Mer","asciiname":"Cagnes-sur-Mer","alternatenames":"Cagnes,Cagnes-sur-Mer,Canha de Mar,Kan na Moru,Kan sjur Mer,Kan'-sjur-Mer,XCG,ka nie,kajnys swr myr,kanyu=shuru=meru,kanyuswileumeleu,kny swr mrn,Кан сюр Мер,Кань-сюр-Мер,Кањ на Мору,كاجنيس سور مير,کنی سور مرن,カーニュ＝シュル＝メール,卡涅,카뉴쉬르메르","latitude":"43.66459","longitude":"7.15339","feature_class":"P","feature_code":"PPL","country_code":"FR","cc2":"","admin1_code":"93","admin2_code":"06","admin3_code":"061","admin4_code":"06027","population":"46923","elevation":"","dem":"15","timezone":"Europe/Paris","modification_date":"2016-02-18"},{"geonameid":"3029229","name":"Cagnac-les-Mines","asciiname":"Cagnac-les-Mines","alternatenames":"Bon-Air,Cagnac,Cagnac-les-Mines,Roc-la-Montagne","latitude":"43.98445","longitude":"2.14227","feature_class":"P","feature_code":"PPL","country_code":"FR","cc2":"","admin1_code":"76","admin2_code":"81","admin3_code":"811","admin4_code":"81048","population":"2195","elevation":"","dem":"312","timezone":"Europe/Paris","modification_date":"2016-02-18"},{"geonameid":"3029234","name":"Caëstre","asciiname":"Caestre","alternatenames":"Caestre,Caëstre","latitude":"50.75838","longitude":"2.60274","feature_class":"P","feature_code":"PPL","country_code":"FR","cc2":"","admin1_code":"32","admin2_code":"59","admin3_code":"594","admin4_code":"59120","population":"1734","elevation":"","dem":"37","timezone":"Europe/Paris","modification_date":"2016-02-18"},{"geonameid":"3029241","name":"Caen","asciiname":"Caen","alternatenames":"CFR,Cadomum,Cadum,Caen,Can,Caën,Caðum,Gorad Kan,Kaen,Kan,Kana,Kanas,Kāna,k xng,ka ang,kam,kan,kang,kayn,kyn,qn,Καέν,Горад Кан,Кан,Կան,קן,كاين,کان,کین,कां,கன்,ก็อง,კანი,ካየን,カーン,卡昂,캉","latitude":"49.18585","longitude":"-0.35912","feature_class":"P","feature_code":"PPLA2","country_code":"FR","cc2":"","admin1_code":"28","admin2_code":"14","admin3_code":"142","admin4_code":"14118","population":"110624","elevation":"","dem":"21","timezone":"Europe/Paris","modification_date":"2016-02-20"},{"geonameid":"3029248","name":"Cadolive","asciiname":"Cadolive","alternatenames":"Ca dOliva,Cadolive,Kadoliv,ka duo li wei,Кадолив,Кадолів,卡多利韦","latitude":"43.39694","longitude":"5.54526","feature_class":"P","feature_code":"PPL","country_code":"FR","cc2":"","admin1_code":"93","admin2_code":"13","admin3_code":"133","admin4_code":"13020","population":"2165","elevation":"","dem":"367","timezone":"Europe/Paris","modification_date":"2016-02-18"},{"geonameid":"3029253","name":"Cadillac","asciiname":"Cadillac","alternatenames":"Cadilhac,Cadillac","latitude":"44.63631","longitude":"-0.31702","feature_class":"P","feature_code":"PPL","country_code":"FR","cc2":"","admin1_code":"75","admin2_code":"33","admin3_code":"333","admin4_code":"33081","population":"2568","elevation":"","dem":"18","timezone":"Europe/Paris","modification_date":"2016-02-18"},{"geonameid":"3029254","name":"Caderousse","asciiname":"Caderousse","alternatenames":"Caderousse","latitude":"44.10252","longitude":"4.75679","feature_class":"P","feature_code":"PPL","country_code":"FR","cc2":"","admin1_code":"93","admin2_code":"84","admin3_code":"842","admin4_code":"84027","population":"2663","elevation":"","dem":"32","timezone":"Europe/Paris","modification_date":"2016-02-18"},{"geonameid":"3029256","name":"Cadenet","asciiname":"Cadenet","alternatenames":"Cadenet,Kadene,Kadne,ka dai na,kadone,Кадене,Кадне,カドネ,卡代纳","latitude":"43.73445","longitude":"5.37499","feature_class":"P","feature_code":"PPL","country_code":"FR","cc2":"","admin1_code":"93","admin2_code":"84","admin3_code":"841","admin4_code":"84026","population":"4150","elevation":"","dem":"178","timezone":"Europe/Paris","modification_date":"2016-02-18"},{"geonameid":"3029257","name":"Caden","asciiname":"Caden","alternatenames":"Caden,Kadan,Kaden,ka dang,Кадан,卡当","latitude":"47.63124","longitude":"-2.28704","feature_class":"P","feature_code":"PPL","country_code":"FR","cc2":"","admin1_code":"53","admin2_code":"56","admin3_code":"563","admin4_code":"56028","population":"1521","elevation":"","dem":"71","timezone":"Europe/Paris","modification_date":"2016-02-18"},{"geonameid":"3029265","name":"Cadaujac","asciiname":"Cadaujac","alternatenames":"Cadaujac,Kadozhak,ka duo ya ke,Кадожак,卡多雅克","latitude":"44.75437","longitude":"-0.53128","feature_class":"P","feature_code":"PPL","country_code":"FR","cc2":"","admin1_code":"75","admin2_code":"33","admin3_code":"332","admin4_code":"33080","population":"4826","elevation":"","dem":"10","timezone":"Europe/Paris","modification_date":"2016-02-18"},{"geonameid":"3029271","name":"Cadalen","asciiname":"Cadalen","alternatenames":"Cadalen","latitude":"43.84933","longitude":"1.98089","feature_class":"P","feature_code":"PPL","country_code":"FR","cc2":"","admin1_code":"76","admin2_code":"81","admin3_code":"811","admin4_code":"81046","population":"1266","elevation":"","dem":"208","timezone":"Europe/Paris","modification_date":"2016-02-18"},{"geonameid":"3029276","name":"Cachan","asciiname":"Cachan","alternatenames":"Cachan,Cachon,Caticantus,Kashan,ka shang,kashan,kasyang,kshan,Кашан,کشان,カシャン,卡尚,카샹","latitude":"48.79632","longitude":"2.33661","feature_class":"P","feature_code":"PPL","country_code":"FR","cc2":"","admin1_code":"11","admin2_code":"94","admin3_code":"943","admin4_code":"94016","population":"26540","elevation":"","dem":"47","timezone":"Europe/Paris","modification_date":"2016-02-18"},{"geonameid":"3029282","name":"Cabris","asciiname":"Cabris","alternatenames":"Cabris,Kabri,Kabris,ka bu li,kabrys  alalb aljblyt,Кабри,Кабрис,Кабрі,كابريس، الألب الجبلية,卡布里","latitude":"43.65317","longitude":"6.87172","feature_class":"P","feature_code":"PPL","country_code":"FR","cc2":"","admin1_code":"93","admin2_code":"06","admin3_code":"061","admin4_code":"06026","population":"1549","elevation":"","dem":"444","timezone":"Europe/Paris","modification_date":"2016-02-18"},{"geonameid":"3029283","name":"Cabriès","asciiname":"Cabries","alternatenames":"Cabries,Cabriès,Cabriés,Kabrie,Kabries,Kabrije,ka bu lie si,Кабриес,Кабрије,Кабріє,卡布列斯","latitude":"43.44127","longitude":"5.37884","feature_class":"P","feature_code":"PPL","country_code":"FR","cc2":"","admin1_code":"93","admin2_code":"13","admin3_code":"131","admin4_code":"13019","population":"8122","elevation":"","dem":"203","timezone":"Europe/Paris","modification_date":"2016-02-18"},{"geonameid":"3029286","name":"Cabrières","asciiname":"Cabrieres","alternatenames":"Cabrieres,Cabrières","latitude":"43.90389","longitude":"4.47094","feature_class":"P","feature_code":"PPL","country_code":"FR","cc2":"","admin1_code":"76","admin2_code":"30","admin3_code":"302","admin4_code":"30057","population":"1215","elevation":"","dem":"143","timezone":"Europe/Paris","modification_date":"2016-02-18"},{"geonameid":"3029297","name":"Cabourg","asciiname":"Cabourg","alternatenames":"Kabur,Kabura,Kabūra,ka bu er,kabuleu,kaburu,Кабур,カブール,卡布尔,카부르","latitude":"49.2911","longitude":"-0.1133","feature_class":"P","feature_code":"PPL","country_code":"FR","cc2":"","admin1_code":"28","admin2_code":"14","admin3_code":"142","admin4_code":"14117","population":"3686","elevation":"","dem":"7","timezone":"Europe/Paris","modification_date":"2016-02-18"},{"geonameid":"3029302","name":"Cabestany","asciiname":"Cabestany","alternatenames":"Cabestany,Kabestani,ka bei si ta ni,kabstany,Кабестани,Кабестані,کابستانی,کابستانے,卡贝斯塔尼","latitude":"42.68132","longitude":"2.94122","feature_class":"P","feature_code":"PPL","country_code":"FR","cc2":"","admin1_code":"76","admin2_code":"66","admin3_code":"662","admin4_code":"66028","population":"9103","elevation":"","dem":"41","timezone":"Europe/Paris","modification_date":"2016-02-18"},{"geonameid":"3029306","name":"Cabasse","asciiname":"Cabasse","alternatenames":"Cabasse","latitude":"43.42823","longitude":"6.22091","feature_class":"P","feature_code":"PPL","country_code":"FR","cc2":"","admin1_code":"93","admin2_code":"83","admin3_code":"833","admin4_code":"83026","population":"1390","elevation":"","dem":"207","timezone":"Europe/Paris","modification_date":"2016-02-18"},{"geonameid":"3029309","name":"Cabariot","asciiname":"Cabariot","alternatenames":"Cabariot,Cabarrot,Kabar'o,Kabario,Kabarjo,ka ba li ao,Кабарио,Кабарйо,Кабарьо,Կաբարիո,卡巴里奥","latitude":"45.92645","longitude":"-0.85741","feature_class":"P","feature_code":"PPL","country_code":"FR","cc2":"","admin1_code":"75","admin2_code":"17","admin3_code":"172","admin4_code":"17075","population":"1158","elevation":"","dem":"10","timezone":"Europe/Paris","modification_date":"2016-02-18"},{"geonameid":"3029312","name":"Cabannes","asciiname":"Cabannes","alternatenames":"Cabannes","latitude":"43.86015","longitude":"4.95192","feature_class":"P","feature_code":"PPL","country_code":"FR","cc2":"","admin1_code":"93","admin2_code":"13","admin3_code":"132","admin4_code":"13018","population":"4295","elevation":"","dem":"54","timezone":"Europe/Paris","modification_date":"2016-02-18"},{"geonameid":"3029320","name":"Cabanac-et-Villagrains","asciiname":"Cabanac-et-Villagrains","alternatenames":"Cabanac e Vilagrans,Cabanac-et-Villagrains,Kabanak e Vilagren,Kabanak-e-Villagren,Kabanak-eh-Villagren,ka ba na ke he wei la ge lan,Кабанак е Вилагрен,Кабанак-е-Виллагрен,Кабанак-е-Віллагрен,Кабанак-э-Виллагрен,卡巴纳克和维拉格兰","latitude":"44.6","longitude":"-0.55","feature_class":"P","feature_code":"PPL","country_code":"FR","cc2":"","admin1_code":"75","admin2_code":"33","admin3_code":"332","admin4_code":"33077","population":"1548","elevation":"","dem":"40","timezone":"Europe/Paris","modification_date":"2016-02-18"},{"geonameid":"3029338","name":"Buzet-sur-Tarn","asciiname":"Buzet-sur-Tarn","alternatenames":"Bize sir Tarn,Bjuze-sjur-Tarn,Bjuzet-sjur-Tarn,Buset de Tarn,Buzet,Buzet-sur-Tarn,ta er en he pan bi ze,Бизе сир Тарн,Бюзе-сюр-Тарн,Бюзет-сюр-Тарн,塔尔恩河畔比泽","latitude":"43.77977","longitude":"1.63301","feature_class":"P","feature_code":"PPL","country_code":"FR","cc2":"","admin1_code":"76","admin2_code":"31","admin3_code":"313","admin4_code":"31094","population":"1820","elevation":"","dem":"114","timezone":"Europe/Paris","modification_date":"2016-02-18"},{"geonameid":"3029339","name":"Buzet-sur-Baïse","asciiname":"Buzet-sur-Baise","alternatenames":"Bize sir Bais,Bjuze-sjur-Baiz,Buseth,Busèth,Buzet,Buzet-sur-Baise,Buzet-sur-Baïse,bai si he pan bi ze,byuze=shuru=baizu,Бизе сир Баис,Бюзе-сюр-Баиз,Бюзе-сюр-Баїз,ビュゼ＝シュル＝バイズ,拜斯河畔比泽","latitude":"44.25811","longitude":"0.29809","feature_class":"P","feature_code":"PPL","country_code":"FR","cc2":"","admin1_code":"75","admin2_code":"47","admin3_code":"474","admin4_code":"47043","population":"1307","elevation":"","dem":"48","timezone":"Europe/Paris","modification_date":"2016-02-18"},{"geonameid":"3029345","name":"Buzançais","asciiname":"Buzancais","alternatenames":"Bizanse,Bjuzanse,Buzancais,Buzançais,La Fraternite-sur-Indre,La Fraternité-sur-Indre,bi cang sai,Бизансе,Бюзансе,比藏赛","latitude":"46.88877","longitude":"1.4195","feature_class":"P","feature_code":"PPL","country_code":"FR","cc2":"","admin1_code":"24","admin2_code":"36","admin3_code":"362","admin4_code":"36031","population":"4600","elevation":"","dem":"107","timezone":"Europe/Paris","modification_date":"2016-02-18"},{"geonameid":"3029350","name":"Buxy","asciiname":"Buxy","alternatenames":"Biksi,Bjuksi,Buxy,Buxy-le-National,Grand-Buxy,Бикси,Бюкси,Бюксі","latitude":"46.71369","longitude":"4.70427","feature_class":"P","feature_code":"PPL","country_code":"FR","cc2":"","admin1_code":"27","admin2_code":"71","admin3_code":"712","admin4_code":"71070","population":"2171","elevation":"","dem":"234","timezone":"Europe/Paris","modification_date":"2016-02-18"},{"geonameid":"3029355","name":"Buxières-les-Mines","asciiname":"Buxieres-les-Mines","alternatenames":"Buxieres,Buxieres-les-Mines,Buxières-les-Mines,Buxiéres","latitude":"46.46886","longitude":"2.96143","feature_class":"P","feature_code":"PPL","country_code":"FR","cc2":"","admin1_code":"84","admin2_code":"03","admin3_code":"032","admin4_code":"03046","population":"1200","elevation":"","dem":"298","timezone":"Europe/Paris","modification_date":"2016-02-18"},{"geonameid":"3029365","name":"Buxerolles","asciiname":"Buxerolles","alternatenames":"Buxerolles","latitude":"46.61667","longitude":"0.48333","feature_class":"P","feature_code":"PPL","country_code":"FR","cc2":"","admin1_code":"75","admin2_code":"86","admin3_code":"863","admin4_code":"86041","population":"9415","elevation":"","dem":"123","timezone":"Europe/Paris","modification_date":"2016-02-18"},{"geonameid":"3029377","name":"Butry-sur-Oise","asciiname":"Butry-sur-Oise","alternatenames":"Bitri sir Oaz,Bjutri-sjur-Uaz,Butry,Butry-sur-Oise,wa ci he pan bi te li,Битри сир Оаз,Бютри-сюр-Уаз,Бютрі-сюр-Уаз,瓦兹河畔比特里","latitude":"49.08837","longitude":"2.19916","feature_class":"P","feature_code":"PPL","country_code":"FR","cc2":"","admin1_code":"11","admin2_code":"95","admin3_code":"953","admin4_code":"95120","population":"2108","elevation":"","dem":"26","timezone":"Europe/Paris","modification_date":"2016-02-18"},{"geonameid":"3029392","name":"Bussy-Saint-Georges","asciiname":"Bussy-Saint-Georges","alternatenames":"Bisi Sen Zhorzh,Bjussi-Sen-Zhorzh,Bussi Sen Zorz,Bussy-Saint-Georges,bi xi sheng qiao zhi,Биси Сен Жорж,Бюсси-Сен-Жорж,Бюссі-Сен-Жорж,Բուսսի Սեն Ժորժ,比西圣乔治","latitude":"48.84099","longitude":"2.70165","feature_class":"P","feature_code":"PPL","country_code":"FR","cc2":"","admin1_code":"11","admin2_code":"77","admin3_code":"775","admin4_code":"77058","population":"10043","elevation":"","dem":"112","timezone":"Europe/Paris","modification_date":"2016-02-18"},{"geonameid":"3029428","name":"Bussières","asciiname":"Bussieres","alternatenames":"Bussieres,Bussières","latitude":"45.83621","longitude":"4.26855","feature_class":"P","feature_code":"PPL","country_code":"FR","cc2":"","admin1_code":"84","admin2_code":"42","admin3_code":"422","admin4_code":"42029","population":"1326","elevation":"","dem":"593","timezone":"Europe/Paris","modification_date":"2016-02-18"},{"geonameid":"3029429","name":"Bussière-Poitevine","asciiname":"Bussiere-Poitevine","alternatenames":"Bussiere,Bussiere-Poitevine,Bussiere-Portevine,Bussiere-l'Egalite,Bussière,Bussière-Poitevine,Bussière-Portevine,Bussière-l'Egalité","latitude":"46.23543","longitude":"0.9053","feature_class":"P","feature_code":"PPL","country_code":"FR","cc2":"","admin1_code":"75","admin2_code":"87","admin3_code":"871","admin4_code":"87028","population":"1007","elevation":"","dem":"220","timezone":"Europe/Paris","modification_date":"2016-02-18"},{"geonameid":"3029432","name":"Bussière-Galant","asciiname":"Bussiere-Galant","alternatenames":"Bisjer Galan,Bjus'er-Galan,Bussiera Galand,Bussiera e Sent Nicolau,Bussiere-Galant,Bussière-Galant,bi xi ai jia lang,Бисјер Галан,Бюсьер-Галан,Бюсьєр-Галан,比西埃加朗","latitude":"45.62702","longitude":"1.0364","feature_class":"P","feature_code":"PPL","country_code":"FR","cc2":"","admin1_code":"75","admin2_code":"87","admin3_code":"872","admin4_code":"87027","population":"1426","elevation":"","dem":"438","timezone":"Europe/Paris","modification_date":"2016-02-18"},{"geonameid":"3029433","name":"Bussière-Dunoise","asciiname":"Bussiere-Dunoise","alternatenames":"Bussiere,Bussiere-Dunoise,Bussière,Bussière-Dunoise","latitude":"46.25898","longitude":"1.76216","feature_class":"P","feature_code":"PPL","country_code":"FR","cc2":"","admin1_code":"75","admin2_code":"23","admin3_code":"232","admin4_code":"23036","population":"1095","elevation":"","dem":"422","timezone":"Europe/Paris","modification_date":"2016-02-18"},{"geonameid":"3029462","name":"Bussang","asciiname":"Bussang","alternatenames":"Bisan,Bjussan,Bussang,bi sang,Бисан,Бюссан,比桑","latitude":"47.88449","longitude":"6.85272","feature_class":"P","feature_code":"PPL","country_code":"FR","cc2":"","admin1_code":"44","admin2_code":"88","admin3_code":"881","admin4_code":"88081","population":"1803","elevation":"","dem":"600","timezone":"Europe/Paris","modification_date":"2016-02-21"},{"geonameid":"3029465","name":"Bussac-sur-Charente","asciiname":"Bussac-sur-Charente","alternatenames":"Bisak sir Sharant,Bjussak-sjur-Sharant,Byusak syur Sarant,sha lang te he pan bi sa ke,Бисак сир Шарант,Бюссак-сюр-Шарант,Բյուսակ սյուր Շարանտ,沙朗特河畔比萨克","latitude":"45.78333","longitude":"-0.63333","feature_class":"P","feature_code":"PPL","country_code":"FR","cc2":"","admin1_code":"75","admin2_code":"17","admin3_code":"174","admin4_code":"17073","population":"1215","elevation":"","dem":"11","timezone":"Europe/Paris","modification_date":"2016-02-18"},{"geonameid":"3029473","name":"Busnes","asciiname":"Busnes","alternatenames":"Beunes,Bin,Bjun,bi ne,bwsnys,Бин,Бюн,بوسنيس,比讷","latitude":"50.58781","longitude":"2.51827","feature_class":"P","feature_code":"PPL","country_code":"FR","cc2":"","admin1_code":"32","admin2_code":"62","admin3_code":"622","admin4_code":"62190","population":"1335","elevation":"","dem":"20","timezone":"Europe/Paris","modification_date":"2016-02-18"},{"geonameid":"3029477","name":"Busigny","asciiname":"Busigny","alternatenames":"Bizini,Bjuzin'i,Busigny,bi xi ni,Бизињи,Бюзиньи,Бюзіньї,比西尼","latitude":"50.03424","longitude":"3.46713","feature_class":"P","feature_code":"PPL","country_code":"FR","cc2":"","admin1_code":"32","admin2_code":"59","admin3_code":"592","admin4_code":"59118","population":"2489","elevation":"","dem":"148","timezone":"Europe/Paris","modification_date":"2016-02-18"},{"geonameid":"3029483","name":"Bury","asciiname":"Bury","alternatenames":"Bury","latitude":"49.31307","longitude":"2.34401","feature_class":"P","feature_code":"PPL","country_code":"FR","cc2":"","admin1_code":"32","admin2_code":"60","admin3_code":"602","admin4_code":"60116","population":"3027","elevation":"","dem":"52","timezone":"Europe/Paris","modification_date":"2016-02-18"},{"geonameid":"3029494","name":"Buros","asciiname":"Buros","alternatenames":"Biro,Bjuros,Buros,Buròs,Биро,Бюрос","latitude":"43.35","longitude":"-0.3","feature_class":"P","feature_code":"PPL","country_code":"FR","cc2":"","admin1_code":"75","admin2_code":"64","admin3_code":"643","admin4_code":"64152","population":"1528","elevation":"","dem":"265","timezone":"Europe/Paris","modification_date":"2016-02-18"},{"geonameid":"3029498","name":"Burnhaupt-le-Haut","asciiname":"Burnhaupt-le-Haut","alternatenames":"Bjurno-le-O,Burnhaupt-le-Haut,Burnkhaupt le O,Oberburnhaupt,bi er nuo pu lai ao,Бурнхаупт ле О,Бюрно-ле-О,比尔诺普莱奥","latitude":"47.72945","longitude":"7.1461","feature_class":"P","feature_code":"PPL","country_code":"FR","cc2":"","admin1_code":"44","admin2_code":"68","admin3_code":"686","admin4_code":"68060","population":"1562","elevation":"","dem":"302","timezone":"Europe/Paris","modification_date":"2016-02-18"},{"geonameid":"3029499","name":"Burnhaupt-le-Bas","asciiname":"Burnhaupt-le-Bas","alternatenames":"Bjurno-le-Ba,Burnhaupt,Burnhaupt-le-Bas,Burnkhaupt le Bas,Niederburnhaupt,bi er nuo pu lai ba,Бурнхаупт ле Бас,Бюрно-ле-Ба,比尔诺普莱巴","latitude":"47.71721","longitude":"7.16149","feature_class":"P","feature_code":"PPL","country_code":"FR","cc2":"","admin1_code":"44","admin2_code":"68","admin3_code":"686","admin4_code":"68059","population":"1298","elevation":"","dem":"301","timezone":"Europe/Paris","modification_date":"2016-02-18"},{"geonameid":"3029503","name":"Burlats","asciiname":"Burlats","alternatenames":"Burlats","latitude":"43.63633","longitude":"2.31879","feature_class":"P","feature_code":"PPL","country_code":"FR","cc2":"","admin1_code":"76","admin2_code":"81","admin3_code":"812","admin4_code":"81042","population":"1938","elevation":"","dem":"198","timezone":"Europe/Paris","modification_date":"2016-02-18"},{"geonameid":"3029505","name":"Burie","asciiname":"Burie","alternatenames":"Biri,Bjuri,Byuri,bi li ye,Бири,Бюри,Бюрі,Բյուրի,比里耶","latitude":"45.77273","longitude":"-0.42289","feature_class":"P","feature_code":"PPL","country_code":"FR","cc2":"","admin1_code":"75","admin2_code":"17","admin3_code":"174","admin4_code":"17072","population":"1355","elevation":"","dem":"62","timezone":"Europe/Paris","modification_date":"2016-02-18"},{"geonameid":"3029522","name":"Bures-sur-Yvette","asciiname":"Bures-sur-Yvette","alternatenames":"Bir sir Ivet,Bjur-sjur-Ivett,Bures,Bures-Orsay,Bures-sur-Yvette,yi wei te he pan bi er,Бир сир Ивет,Бюр-сюр-Іветт,Бюр-сюр-Иветт,伊维特河畔比尔","latitude":"48.69981","longitude":"2.17064","feature_class":"P","feature_code":"PPL","country_code":"FR","cc2":"","admin1_code":"11","admin2_code":"91","admin3_code":"913","admin4_code":"91122","population":"10411","elevation":"","dem":"62","timezone":"Europe/Paris","modification_date":"2016-02-18"},{"geonameid":"3029548","name":"Burbure","asciiname":"Burbure","alternatenames":"Birbir,Bjurbjur,Burbure,bi er bi er,bwrbwry,Бирбир,Бюрбюр,بوربوري,比尔比尔","latitude":"50.53663","longitude":"2.46897","feature_class":"P","feature_code":"PPL","country_code":"FR","cc2":"","admin1_code":"32","admin2_code":"62","admin3_code":"622","admin4_code":"62188","population":"2898","elevation":"","dem":"47","timezone":"Europe/Paris","modification_date":"2016-02-18"},{"geonameid":"3029566","name":"Bully-les-Mines","asciiname":"Bully-les-Mines","alternatenames":"Bili le Men,Bjulli-le-Min,Bully,Bully-les-Mines,bi li lai mi ne,bwly lyh mynys,Били ле Мен,Бюлли-ле-Мин,Бюллі-ле-Мін,بولي ليه مينيس,比利莱米讷","latitude":"50.4438","longitude":"2.72703","feature_class":"P","feature_code":"PPL","country_code":"FR","cc2":"","admin1_code":"32","admin2_code":"62","admin3_code":"627","admin4_code":"62186","population":"11975","elevation":"","dem":"54","timezone":"Europe/Paris","modification_date":"2016-02-18"},{"geonameid":"3029568","name":"Bully","asciiname":"Bully","alternatenames":"Bully","latitude":"49.10155","longitude":"-0.40825","feature_class":"P","feature_code":"PPL","country_code":"FR","cc2":"","admin1_code":"28","admin2_code":"14","admin3_code":"142","admin4_code":"14266","population":"1175","elevation":"","dem":"50","timezone":"Europe/Paris","modification_date":"2016-02-18"},{"geonameid":"3029570","name":"Bully","asciiname":"Bully","alternatenames":"Bully","latitude":"45.85205","longitude":"4.58195","feature_class":"P","feature_code":"PPL","country_code":"FR","cc2":"","admin1_code":"84","admin2_code":"69","admin3_code":"691","admin4_code":"69032","population":"1906","elevation":"","dem":"335","timezone":"Europe/Paris","modification_date":"2016-02-18"},{"geonameid":"3029572","name":"Bullion","asciiname":"Bullion","alternatenames":"Bullion","latitude":"48.62285","longitude":"1.99024","feature_class":"P","feature_code":"PPL","country_code":"FR","cc2":"","admin1_code":"11","admin2_code":"78","admin3_code":"782","admin4_code":"78120","population":"1931","elevation":"","dem":"105","timezone":"Europe/Paris","modification_date":"2016-02-18"},{"geonameid":"3029580","name":"Bulgnéville","asciiname":"Bulgneville","alternatenames":"Bjul'n'evil',Bulgneville,Bulgnéville,Bulnevil,bi er ge wei er,Булњевил,Бюльньевиль,Бюльньєвіль,比尔格维尔","latitude":"48.20694","longitude":"5.8343","feature_class":"P","feature_code":"PPL","country_code":"FR","cc2":"","admin1_code":"44","admin2_code":"88","admin3_code":"882","admin4_code":"88079","population":"1433","elevation":"","dem":"351","timezone":"Europe/Paris","modification_date":"2016-02-21"},{"geonameid":"3029603","name":"Buis-les-Baronnies","asciiname":"Buis-les-Baronnies","alternatenames":"Bi le Baroni,Bjui-le-Baronni,Buis,Buis-les-Baronnies,Le Buis-les-Baronnies,Lo Bois,Lo Bois dei Baronias,Lo Bois dei Baroniás,bi yi lai ba luo nie,Би ле Барони,Бюї-ле-Баронні,比伊莱巴罗涅","latitude":"44.27373","longitude":"5.2722","feature_class":"P","feature_code":"PPL","country_code":"FR","cc2":"","admin1_code":"84","admin2_code":"26","admin3_code":"262","admin4_code":"26063","population":"2497","elevation":"","dem":"367","timezone":"Europe/Paris","modification_date":"2016-02-18"},{"geonameid":"3029606","name":"Buironfosse","asciiname":"Buironfosse","alternatenames":"Bironfos,Bjuironfos,Bjuironfoss,Buironfosse,bi long fu si,Биронфос,Бюиронфос,Бюїронфосс,比龙福斯","latitude":"49.96659","longitude":"3.83587","feature_class":"P","feature_code":"PPL","country_code":"FR","cc2":"","admin1_code":"32","admin2_code":"02","admin3_code":"025","admin4_code":"02135","population":"1209","elevation":"","dem":"204","timezone":"Europe/Paris","modification_date":"2016-02-18"},{"geonameid":"3029620","name":"Buhl","asciiname":"Buhl","alternatenames":"Buhl","latitude":"47.92806","longitude":"7.18719","feature_class":"P","feature_code":"PPL","country_code":"FR","cc2":"","admin1_code":"44","admin2_code":"68","admin3_code":"683","admin4_code":"68058","population":"3223","elevation":"","dem":"341","timezone":"Europe/Paris","modification_date":"2016-02-18"},{"geonameid":"3029637","name":"Bugeat","asciiname":"Bugeat","alternatenames":"Bizha,Bjuzha,Bugeat,Bujac,bi ya,Бижа,Бюжа,比雅","latitude":"45.59756","longitude":"1.92887","feature_class":"P","feature_code":"PPL","country_code":"FR","cc2":"","admin1_code":"75","admin2_code":"19","admin3_code":"193","admin4_code":"19033","population":"1014","elevation":"","dem":"707","timezone":"Europe/Paris","modification_date":"2016-02-18"},{"geonameid":"3029654","name":"Buellas","asciiname":"Buellas","alternatenames":"Bijela,Bjuehlla,Bjuella,Buellas,Byuella,bu ai la si,bwylas,Бијела,Бюелла,Бюэлла,Բյուելլա,بويلاس,布埃拉斯","latitude":"46.2111","longitude":"5.1322","feature_class":"P","feature_code":"PPL","country_code":"FR","cc2":"","admin1_code":"84","admin2_code":"01","admin3_code":"012","admin4_code":"01065","population":"1594","elevation":"","dem":"222","timezone":"Europe/Paris","modification_date":"2016-02-18"},{"geonameid":"3029655","name":"Bueil","asciiname":"Bueil","alternatenames":"Bueil","latitude":"48.93189","longitude":"1.44257","feature_class":"P","feature_code":"PPL","country_code":"FR","cc2":"","admin1_code":"28","admin2_code":"27","admin3_code":"273","admin4_code":"27119","population":"1480","elevation":"","dem":"74","timezone":"Europe/Paris","modification_date":"2016-02-18"},{"geonameid":"3029670","name":"Bucy-le-Long","asciiname":"Bucy-le-Long","alternatenames":"Bucy,Bucy-le-Long","latitude":"49.39072","longitude":"3.39582","feature_class":"P","feature_code":"PPL","country_code":"FR","cc2":"","admin1_code":"32","admin2_code":"02","admin3_code":"024","admin4_code":"02131","population":"1996","elevation":"","dem":"53","timezone":"Europe/Paris","modification_date":"2016-02-18"},{"geonameid":"3029673","name":"Bucquoy","asciiname":"Bucquoy","alternatenames":"","latitude":"50.13973","longitude":"2.71036","feature_class":"P","feature_code":"PPL","country_code":"FR","cc2":"","admin1_code":"32","admin2_code":"62","admin3_code":"621","admin4_code":"62181","population":"1297","elevation":"","dem":"127","timezone":"Europe/Paris","modification_date":"2016-02-18"},{"geonameid":"3029677","name":"Buchy","asciiname":"Buchy","alternatenames":"Buchy","latitude":"49.58513","longitude":"1.35852","feature_class":"P","feature_code":"PPL","country_code":"FR","cc2":"","admin1_code":"28","admin2_code":"76","admin3_code":"763","admin4_code":"76146","population":"1267","elevation":"","dem":"196","timezone":"Europe/Paris","modification_date":"2016-02-18"},{"geonameid":"3029682","name":"Buchères","asciiname":"Bucheres","alternatenames":"Bucheres,Buchères","latitude":"48.23508","longitude":"4.1131","feature_class":"P","feature_code":"PPL","country_code":"FR","cc2":"","admin1_code":"44","admin2_code":"10","admin3_code":"103","admin4_code":"10067","population":"1375","elevation":"","dem":"112","timezone":"Europe/Paris","modification_date":"2016-02-18"},{"geonameid":"3029684","name":"Buchelay","asciiname":"Buchelay","alternatenames":"Bishle,Bjushle,Buchelay,Бишле,Бюшле","latitude":"48.97926","longitude":"1.67026","feature_class":"P","feature_code":"PPL","country_code":"FR","cc2":"","admin1_code":"11","admin2_code":"78","admin3_code":"781","admin4_code":"78118","population":"2325","elevation":"","dem":"69","timezone":"Europe/Paris","modification_date":"2016-02-18"},{"geonameid":"3029695","name":"Buc","asciiname":"Buc","alternatenames":"","latitude":"48.77627","longitude":"2.12577","feature_class":"P","feature_code":"PPL","country_code":"FR","cc2":"","admin1_code":"11","admin2_code":"78","admin3_code":"784","admin4_code":"78117","population":"6120","elevation":"","dem":"122","timezone":"Europe/Paris","modification_date":"2016-02-18"},{"geonameid":"3029697","name":"Bubry","asciiname":"Bubry","alternatenames":"Bibri,Bjubri,Bubri,Bubry,bi bu li,Бибри,Бюбри,Бюбрі,比布里","latitude":"47.96336","longitude":"-3.17108","feature_class":"P","feature_code":"PPL","country_code":"FR","cc2":"","admin1_code":"53","admin2_code":"56","admin3_code":"561","admin4_code":"56026","population":"2523","elevation":"","dem":"103","timezone":"Europe/Paris","modification_date":"2016-02-18"},{"geonameid":"3029705","name":"Bû","asciiname":"Bu","alternatenames":"Bi,Bju,Bu,Bû,bi zhen,Би,Бю,比镇","latitude":"48.79705","longitude":"1.49702","feature_class":"P","feature_code":"PPL","country_code":"FR","cc2":"","admin1_code":"24","admin2_code":"28","admin3_code":"283","admin4_code":"28064","population":"1790","elevation":"","dem":"136","timezone":"Europe/Paris","modification_date":"2016-02-18"},{"geonameid":"3029706","name":"Bry-sur-Marne","asciiname":"Bry-sur-Marne","alternatenames":"Bri na Marni,Bri-sjur-Marn,Bry,Bry-sur-Marne,ma en he pan bu li,Бри на Марни,Бри-сюр-Марн,Брі-сюр-Марн,برے-سر-مرنے,马恩河畔布里","latitude":"48.83811","longitude":"2.52488","feature_class":"P","feature_code":"PPL","country_code":"FR","cc2":"","admin1_code":"11","admin2_code":"94","admin3_code":"942","admin4_code":"94015","population":"16226","elevation":"","dem":"54","timezone":"Europe/Paris","modification_date":"2016-02-18"},{"geonameid":"3029713","name":"Bruz","asciiname":"Bruz","alternatenames":"Briz,Brju,Brjuz,Bruxa,Bruz,Бриз,Брю,Брюз","latitude":"48.0242","longitude":"-1.74591","feature_class":"P","feature_code":"PPL","country_code":"FR","cc2":"","admin1_code":"53","admin2_code":"35","admin3_code":"353","admin4_code":"35047","population":"14533","elevation":"","dem":"42","timezone":"Europe/Paris","modification_date":"2016-02-18"},{"geonameid":"3029715","name":"Bruyères-sur-Oise","asciiname":"Bruyeres-sur-Oise","alternatenames":"Brijer sir Oaz,Brjuer-sjur-Uaz,Bruyeres,Bruyeres-sur-Oise,Bruyères,Bruyères-sur-Oise,wa ci he pan bu lu yi ai lei,Бријер сир Оаз,Брюер-сюр-Уаз,Брюєр-сюр-Уаз,瓦兹河畔布吕伊埃雷","latitude":"49.15756","longitude":"2.32577","feature_class":"P","feature_code":"PPL","country_code":"FR","cc2":"","admin1_code":"11","admin2_code":"95","admin3_code":"953","admin4_code":"95116","population":"3619","elevation":"","dem":"30","timezone":"Europe/Paris","modification_date":"2016-02-18"},{"geonameid":"3029717","name":"Bruyères-le-Châtel","asciiname":"Bruyeres-le-Chatel","alternatenames":"Brijer le Shatel,Brjuer-le-Shatel',Bruyeres,Bruyeres-Libre,Bruyeres-le-Chatel,Bruyères,Bruyères-Libre,Bruyères-le-Châtel,bu lu yi ai lei lei sha te,Бријер ле Шател,Брюер-ле-Шатель,Брюєр-ле-Шатель,布吕伊埃雷勒沙特","latitude":"48.58868","longitude":"2.18991","feature_class":"P","feature_code":"PPL","country_code":"FR","cc2":"","admin1_code":"11","admin2_code":"91","admin3_code":"913","admin4_code":"91115","population":"3184","elevation":"","dem":"82","timezone":"Europe/Paris","modification_date":"2016-02-18"},{"geonameid":"3029718","name":"Bruyères-et-Montbérault","asciiname":"Bruyeres-et-Montberault","alternatenames":"Brijer e Monbero,Brjuer-e-Monbero,Brjujer-eh-Monbero,Bruyeres,Bruyeres e Montberault,Bruyeres-et-Montberault,Bruyères,Bruyères e Montbérault,Bruyères-et-Montbérault,bu lu ye er he meng bei luo,Бријер е Монберо,Брюйер-э-Монберо,Брюєр-е-Монберо,布吕耶尔和蒙贝罗","latitude":"49.52535","longitude":"3.66369","feature_class":"P","feature_code":"PPL","country_code":"FR","cc2":"","admin1_code":"32","admin2_code":"02","admin3_code":"022","admin4_code":"02128","population":"1558","elevation":"","dem":"86","timezone":"Europe/Paris","modification_date":"2016-02-18"},{"geonameid":"3029725","name":"Bruyères","asciiname":"Bruyeres","alternatenames":"Brijer,Brjuer,Bruerium,Bruyeres,Bruyères,bu lu yi ai lei,Бријер,Брюер,Брюєр,布吕伊埃雷","latitude":"48.20709","longitude":"6.71845","feature_class":"P","feature_code":"PPL","country_code":"FR","cc2":"","admin1_code":"44","admin2_code":"88","admin3_code":"881","admin4_code":"88078","population":"3423","elevation":"","dem":"477","timezone":"Europe/Paris","modification_date":"2016-02-21"},{"geonameid":"3029746","name":"Brunstatt","asciiname":"Brunstatt","alternatenames":"Brjonstat,Brjunstat,Brunshtat,Brunstatt,bu lan si ta,Брунштат,Брюнстат,Брёнстат,布兰斯塔","latitude":"47.72004","longitude":"7.31784","feature_class":"P","feature_code":"PPL","country_code":"FR","cc2":"","admin1_code":"44","admin2_code":"68","admin3_code":"684","admin4_code":"68056","population":"5816","elevation":"","dem":"247","timezone":"Europe/Paris","modification_date":"2016-02-18"},{"geonameid":"3029748","name":"Brunoy","asciiname":"Brunoy","alternatenames":"Brinoa,Brinoj,Brjunua,Brunoy,beulwinua,brwnwa,bu lu nu wa,buryunowa,Бриноа,Бриној,Брюнуа,برونوآ,ブリュノワ,布吕努瓦,브뤼누아","latitude":"48.6942","longitude":"2.49223","feature_class":"P","feature_code":"PPL","country_code":"FR","cc2":"","admin1_code":"11","admin2_code":"91","admin3_code":"912","admin4_code":"91114","population":"24096","elevation":"","dem":"81","timezone":"Europe/Paris","modification_date":"2016-02-18"},{"geonameid":"3029771","name":"Brumath","asciiname":"Brumath","alternatenames":"Brjumat,Broeoemt,Brumat,Brumath,Bröömt,brwmath,bu lu ma,buryumato,Брумат,Брюмат,ברימאט,بروماث,ብሩማት,ブリュマト,布吕马","latitude":"48.73014","longitude":"7.7121","feature_class":"P","feature_code":"PPL","country_code":"FR","cc2":"","admin1_code":"44","admin2_code":"67","admin3_code":"676","admin4_code":"67067","population":"9459","elevation":"","dem":"146","timezone":"Europe/Paris","modification_date":"2016-02-18"},{"geonameid":"3029775","name":"Brûlon","asciiname":"Brulon","alternatenames":"Brjulon,Brulon,Brûlon,Брулон,Брюлон","latitude":"47.96667","longitude":"-0.23333","feature_class":"P","feature_code":"PPL","country_code":"FR","cc2":"","admin1_code":"52","admin2_code":"72","admin3_code":"721","admin4_code":"72050","population":"1427","elevation":"","dem":"103","timezone":"Europe/Paris","modification_date":"2016-02-18"},{"geonameid":"3029790","name":"Bruille-Saint-Amand","asciiname":"Bruille-Saint-Amand","alternatenames":"Bruille,Bruille-Saint-Amand","latitude":"50.46605","longitude":"3.50013","feature_class":"P","feature_code":"PPL","country_code":"FR","cc2":"","admin1_code":"32","admin2_code":"59","admin3_code":"596","admin4_code":"59114","population":"1499","elevation":"","dem":"26","timezone":"Europe/Paris","modification_date":"2016-02-18"},{"geonameid":"3029791","name":"Bruille-lez-Marchiennes","asciiname":"Bruille-lez-Marchiennes","alternatenames":"Brije le Marshijen,Brjuj-le-Marsh'enn,Brjuj-le-Marshenn,Bruille,Bruille-les-Marchiennes,Bruille-lez-Marchiennes,bu lu ye lai ma er xie ne,Брије ле Маршијен,Брюй-ле-Маршьенн,Брюй-ле-Маршєнн,布吕耶莱马尔谢讷","latitude":"50.36068","longitude":"3.24424","feature_class":"P","feature_code":"PPL","country_code":"FR","cc2":"","admin1_code":"32","admin2_code":"59","admin3_code":"593","admin4_code":"59113","population":"1233","elevation":"","dem":"25","timezone":"Europe/Paris","modification_date":"2016-02-18"},{"geonameid":"3029793","name":"Bruguières","asciiname":"Bruguieres","alternatenames":"Brigjer,Brjug'er,Brjugier,Bruguieras,Bruguieres,Bruguièras,Bruguières,bu lu ji ai,Бригјер,Брюгьер,Брюгіер,布吕吉埃","latitude":"43.7272","longitude":"1.40762","feature_class":"P","feature_code":"PPL","country_code":"FR","cc2":"","admin1_code":"76","admin2_code":"31","admin3_code":"313","admin4_code":"31091","population":"4340","elevation":"","dem":"120","timezone":"Europe/Paris","modification_date":"2016-02-18"},{"geonameid":"3029797","name":"Brugheas","asciiname":"Brugheas","alternatenames":"Briga,Brjugea,Brojac,Brugeacum,Brugheas,Brujat,bu lu ya,Брига,Брюгеа,布吕雅","latitude":"46.07698","longitude":"3.36754","feature_class":"P","feature_code":"PPL","country_code":"FR","cc2":"","admin1_code":"84","admin2_code":"03","admin3_code":"033","admin4_code":"03044","population":"1271","elevation":"","dem":"325","timezone":"Europe/Paris","modification_date":"2016-02-18"},{"geonameid":"3029799","name":"Bruges","asciiname":"Bruges","alternatenames":"Bruges","latitude":"44.87981","longitude":"-0.61219","feature_class":"P","feature_code":"PPL","country_code":"FR","cc2":"","admin1_code":"75","admin2_code":"33","admin3_code":"332","admin4_code":"33075","population":"12650","elevation":"","dem":"22","timezone":"Europe/Paris","modification_date":"2016-02-18"},{"geonameid":"3029824","name":"Bruay-sur-l’Escaut","asciiname":"Bruay-sur-l'Escaut","alternatenames":"Bruay,Bruay-sur-l'Escaut,Bruay-sur-l’Escaut","latitude":"50.39918","longitude":"3.54379","feature_class":"P","feature_code":"PPL","country_code":"FR","cc2":"","admin1_code":"32","admin2_code":"59","admin3_code":"596","admin4_code":"59112","population":"11690","elevation":"","dem":"20","timezone":"Europe/Paris","modification_date":"2016-02-18"},{"geonameid":"3029825","name":"Bruay-la-Buissière","asciiname":"Bruay-la-Buissiere","alternatenames":"Brije la Bisjer,Brjue-la-Bjuis'er,Brjueh-la-Bjuis'er,Brouay-lBussiere,Brouay-lBussière,Bruay-en-Artois,beulwielabisieleu,brway la bwysyr,brwy lbwyysyr,brwyh-la-bwyysyyr,bu lu ai la bi xi ai,buryue=ra=byuishieru,Брије ла Бисјер,Брюе-ла-Бюисьер,Брюе-ла-Бюїсьєр,Брюэ-ла-Бюисьер,بروئه-لا-بوئیسییر,برواي لا بويسير,بروی لبوئیسیر,ブリュエ＝ラ＝ビュイシエール,布律埃拉比西埃,브뤼에라비시에르","latitude":"50.48333","longitude":"2.55","feature_class":"P","feature_code":"PPL","country_code":"FR","cc2":"","admin1_code":"32","admin2_code":"62","admin3_code":"622","admin4_code":"62178","population":"24474","elevation":"","dem":"60","timezone":"Europe/Paris","modification_date":"2016-02-18"},{"geonameid":"3029852","name":"Broût-Vernet","asciiname":"Brout-Vernet","alternatenames":"Brot e Vernet,Brot e lo Vernet,Brout-Vernet,Broût-Vernet,Bru Verne,Bru-Verne,bu lu wei er nei,Бру Верне,Бру-Верне,布鲁韦尔内","latitude":"46.18756","longitude":"3.27324","feature_class":"P","feature_code":"PPL","country_code":"FR","cc2":"","admin1_code":"84","admin2_code":"03","admin3_code":"033","admin4_code":"03043","population":"1124","elevation":"","dem":"306","timezone":"Europe/Paris","modification_date":"2016-02-18"},{"geonameid":"3029855","name":"Brou-sur-Chantereine","asciiname":"Brou-sur-Chantereine","alternatenames":"Brou,Brou-sur-Chantereine,Bru sir Shantren,Bru-sjur-Shanteren,Бру сир Шантрен,Бру-сюр-Шантерен","latitude":"48.88333","longitude":"2.63333","feature_class":"P","feature_code":"PPL","country_code":"FR","cc2":"","admin1_code":"11","admin2_code":"77","admin3_code":"775","admin4_code":"77055","population":"4682","elevation":"","dem":"51","timezone":"Europe/Paris","modification_date":"2016-02-18"},{"geonameid":"3029890","name":"Brouckerque","asciiname":"Brouckerque","alternatenames":"Broekkerke,Brouckercque,Brouckerque,Brukerk,bu lu kai er ke,Брукерк,布鲁凯尔克","latitude":"50.95476","longitude":"2.29378","feature_class":"P","feature_code":"PPL","country_code":"FR","cc2":"","admin1_code":"32","admin2_code":"59","admin3_code":"594","admin4_code":"59110","population":"1208","elevation":"","dem":"1","timezone":"Europe/Paris","modification_date":"2016-02-18"},{"geonameid":"3029898","name":"Brou","asciiname":"Brou","alternatenames":"Brou","latitude":"48.21719","longitude":"1.16539","feature_class":"P","feature_code":"PPL","country_code":"FR","cc2":"","admin1_code":"24","admin2_code":"28","admin3_code":"282","admin4_code":"28061","population":"3848","elevation":"","dem":"157","timezone":"Europe/Paris","modification_date":"2016-02-18"},{"geonameid":"3029925","name":"Broons","asciiname":"Broons","alternatenames":"Broenisis,Bron,Bronn,Broon,Broons,bu luo weng,Брон,Броон,布罗翁","latitude":"48.31748","longitude":"-2.25952","feature_class":"P","feature_code":"PPL","country_code":"FR","cc2":"","admin1_code":"53","admin2_code":"22","admin3_code":"221","admin4_code":"22020","population":"2542","elevation":"","dem":"95","timezone":"Europe/Paris","modification_date":"2016-02-18"},{"geonameid":"3029931","name":"Bron","asciiname":"Bron","alternatenames":"Bron,beulong,brwn,buron,Брон,برون,ブロン,브롱","latitude":"45.73333","longitude":"4.91667","feature_class":"P","feature_code":"PPL","country_code":"FR","cc2":"","admin1_code":"84","admin2_code":"69","admin3_code":"691","admin4_code":"69029","population":"37825","elevation":"","dem":"207","timezone":"Europe/Paris","modification_date":"2016-02-18"},{"geonameid":"3029951","name":"Broglie","asciiname":"Broglie","alternatenames":"Broglie,Chambrois","latitude":"49.00911","longitude":"0.52915","feature_class":"P","feature_code":"PPL","country_code":"FR","cc2":"","admin1_code":"28","admin2_code":"27","admin3_code":"272","admin4_code":"27117","population":"1190","elevation":"","dem":"148","timezone":"Europe/Paris","modification_date":"2016-02-18"},{"geonameid":"3029967","name":"Brix","asciiname":"Brix","alternatenames":"Brix","latitude":"49.54512","longitude":"-1.58012","feature_class":"P","feature_code":"PPL","country_code":"FR","cc2":"","admin1_code":"28","admin2_code":"50","admin3_code":"502","admin4_code":"50087","population":"1984","elevation":"","dem":"147","timezone":"Europe/Paris","modification_date":"2016-02-18"},{"geonameid":"3029970","name":"Brives-Charensac","asciiname":"Brives-Charensac","alternatenames":"Brives,Brives-Charensac","latitude":"45.0478","longitude":"3.92878","feature_class":"P","feature_code":"PPL","country_code":"FR","cc2":"","admin1_code":"84","admin2_code":"43","admin3_code":"432","admin4_code":"43041","population":"4721","elevation":"","dem":"610","timezone":"Europe/Paris","modification_date":"2016-02-18"},{"geonameid":"3029974","name":"Brive-la-Gaillarde","asciiname":"Brive-la-Gaillarde","alternatenames":"BVE,Briv la Gajar,Briv-la-Gajard,Briva,Brive,Brive-la-Gaillarde,beulibeulagayaleudeu,bryw lgyrd,bryw-la-gyard,bu li fu la gai ya er de,burivu=ra=gaiyarudo,Брив ла Гајар,Брив-ла-Гайард,Брив-ла-Гаярд,Бриве-ла-Гаилларде,بریو لگیرد,بریو-لا-گیارد,ブリーヴ＝ラ＝ガイヤルド,布里夫拉盖亚尔德,브리브라가야르드","latitude":"45.15","longitude":"1.53333","feature_class":"P","feature_code":"PPLA3","country_code":"FR","cc2":"","admin1_code":"75","admin2_code":"19","admin3_code":"191","admin4_code":"19031","population":"53466","elevation":"","dem":"145","timezone":"Europe/Paris","modification_date":"2016-02-18"},{"geonameid":"3029984","name":"Brissac-Quincé","asciiname":"Brissac-Quince","alternatenames":"Brisak Kense,Brissak-Kense,bu li sa ke qu an sai,Брисак Кенсе,Бриссак-Кенсе,布里萨克屈安塞","latitude":"47.35575","longitude":"-0.44924","feature_class":"P","feature_code":"PPL","country_code":"FR","cc2":"","admin1_code":"52","admin2_code":"49","admin3_code":"491","admin4_code":"49050","population":"2531","elevation":"","dem":"64","timezone":"Europe/Paris","modification_date":"2016-02-18"},{"geonameid":"3029986","name":"Brison-Saint-Innocent","asciiname":"Brison-Saint-Innocent","alternatenames":"Brison,Brison-Saint-Innocent,Brizon sent Enosent,Brizon-Sent-Innosan,Бризон сент Еносент,Бризон-Сент-Інносан","latitude":"45.72185","longitude":"5.89011","feature_class":"P","feature_code":"PPL","country_code":"FR","cc2":"","admin1_code":"84","admin2_code":"73","admin3_code":"732","admin4_code":"73059","population":"2023","elevation":"","dem":"289","timezone":"Europe/Paris","modification_date":"2016-02-18"},{"geonameid":"3029987","name":"Briscous","asciiname":"Briscous","alternatenames":"Beskoitze,Briscos,Briscous,Briscós,Brisku,Briskus,Hiribery,bu li si ku,Бриску,Брискус,布里斯库","latitude":"43.45958","longitude":"-1.33353","feature_class":"P","feature_code":"PPL","country_code":"FR","cc2":"","admin1_code":"75","admin2_code":"64","admin3_code":"641","admin4_code":"64147","population":"2160","elevation":"","dem":"41","timezone":"Europe/Paris","modification_date":"2016-02-18"},{"geonameid":"3029991","name":"Briouze","asciiname":"Briouze","alternatenames":"Brijuz,Briouze-Saint-Gervais,Briuz,bu li wu ci,Бриуз,Бријуз,Бріуз,布里乌兹","latitude":"48.69848","longitude":"-0.36806","feature_class":"P","feature_code":"PPL","country_code":"FR","cc2":"","admin1_code":"28","admin2_code":"61","admin3_code":"612","admin4_code":"61063","population":"1597","elevation":"","dem":"216","timezone":"Europe/Paris","modification_date":"2016-02-18"},{"geonameid":"3029992","name":"Brioux-sur-Boutonne","asciiname":"Brioux-sur-Boutonne","alternatenames":"Brioux,Brioux-sur-Boutonne","latitude":"46.14171","longitude":"-0.22182","feature_class":"P","feature_code":"PPL","country_code":"FR","cc2":"","admin1_code":"75","admin2_code":"79","admin3_code":"792","admin4_code":"79057","population":"1487","elevation":"","dem":"63","timezone":"Europe/Paris","modification_date":"2016-02-18"},{"geonameid":"3029995","name":"Brioude","asciiname":"Brioude","alternatenames":"Brijud,Brioude,Briud,Briude,Brivas,bu li wu de,buriudo,Бриуд,Бријуд,Бріуд,ブリウド,布里乌德","latitude":"45.3","longitude":"3.4","feature_class":"P","feature_code":"PPLA3","country_code":"FR","cc2":"","admin1_code":"84","admin2_code":"43","admin3_code":"431","admin4_code":"43040","population":"7451","elevation":"","dem":"421","timezone":"Europe/Paris","modification_date":"2016-02-18"},{"geonameid":"3030007","name":"Brionne","asciiname":"Brionne","alternatenames":"Brion,Brionn,Brionne,bu li weng,Брион,Брионн,Бріонн,布里翁","latitude":"49.19553","longitude":"0.7151","feature_class":"P","feature_code":"PPL","country_code":"FR","cc2":"","admin1_code":"28","admin2_code":"27","admin3_code":"272","admin4_code":"27116","population":"4288","elevation":"","dem":"58","timezone":"Europe/Paris","modification_date":"2016-02-18"},{"geonameid":"3030011","name":"Brion","asciiname":"Brion","alternatenames":"Brion","latitude":"47.44121","longitude":"-0.15616","feature_class":"P","feature_code":"PPL","country_code":"FR","cc2":"","admin1_code":"52","admin2_code":"49","admin3_code":"491","admin4_code":"49049","population":"1085","elevation":"","dem":"48","timezone":"Europe/Paris","modification_date":"2016-02-18"},{"geonameid":"3030020","name":"Briollay","asciiname":"Briollay","alternatenames":"Briole,Briollay,Briolle,bu li ao lai,Бриоле,Бріолле,布里奥莱","latitude":"47.56478","longitude":"-0.50681","feature_class":"P","feature_code":"PPL","country_code":"FR","cc2":"","admin1_code":"52","admin2_code":"49","admin3_code":"491","admin4_code":"49048","population":"2416","elevation":"","dem":"19","timezone":"Europe/Paris","modification_date":"2016-02-18"},{"geonameid":"3030024","name":"Brinon-sur-Sauldre","asciiname":"Brinon-sur-Sauldre","alternatenames":"Brinon,Brinon-sur-Sauldre","latitude":"47.566","longitude":"2.25647","feature_class":"P","feature_code":"PPL","country_code":"FR","cc2":"","admin1_code":"24","admin2_code":"18","admin3_code":"183","admin4_code":"18037","population":"1094","elevation":"","dem":"135","timezone":"Europe/Paris","modification_date":"2016-02-18"},{"geonameid":"3030029","name":"Brindas","asciiname":"Brindas","alternatenames":"Brenda,Brindas,Brindas-sur-Roches,Бренда","latitude":"45.72181","longitude":"4.68973","feature_class":"P","feature_code":"PPL","country_code":"FR","cc2":"","admin1_code":"84","admin2_code":"69","admin3_code":"691","admin4_code":"69028","population":"4859","elevation":"","dem":"337","timezone":"Europe/Paris","modification_date":"2016-02-18"},{"geonameid":"3030044","name":"Briis-sous-Forges","asciiname":"Briis-sous-Forges","alternatenames":"Bri su Forzh,Bri-su-Forzh,Brii-su-Forzh,Briis,Briis-sous-Forges,bu li yi su fu er re,Бри су Форж,Брии-су-Форж,Брі-су-Форж,布里伊苏福尔热","latitude":"48.62399","longitude":"2.12112","feature_class":"P","feature_code":"PPL","country_code":"FR","cc2":"","admin1_code":"11","admin2_code":"91","admin3_code":"913","admin4_code":"91111","population":"3391","elevation":"","dem":"101","timezone":"Europe/Paris","modification_date":"2016-02-18"},{"geonameid":"3030047","name":"Brigueuil","asciiname":"Brigueuil","alternatenames":"Brigej,Brigjoj,Briguelh,Brigueuil,bu li gai yu yi,Бригей,Бригеј,Бригёй,布里盖于伊","latitude":"45.95337","longitude":"0.86065","feature_class":"P","feature_code":"PPL","country_code":"FR","cc2":"","admin1_code":"75","admin2_code":"16","admin3_code":"163","admin4_code":"16064","population":"1044","elevation":"","dem":"291","timezone":"Europe/Paris","modification_date":"2016-02-18"},{"geonameid":"3030057","name":"Brignoles","asciiname":"Brignoles","alternatenames":"Brignoles,Brin'jol',Brin'ol',Brinhola,Brinholà,Brinhòla,Brinol,bu li ni ao lei,burinyoru,Бриньйоль,Бриньоль,Брињол,ブリニョール,布里尼奥勒","latitude":"43.4","longitude":"6.06667","feature_class":"P","feature_code":"PPLA3","country_code":"FR","cc2":"","admin1_code":"93","admin2_code":"83","admin3_code":"833","admin4_code":"83023","population":"15027","elevation":"","dem":"264","timezone":"Europe/Paris","modification_date":"2016-02-18"},{"geonameid":"3030063","name":"Brignais","asciiname":"Brignais","alternatenames":"Brignais,Brin'e,Brine,Brinhai,Бриньє,Бриње","latitude":"45.67358","longitude":"4.75484","feature_class":"P","feature_code":"PPL","country_code":"FR","cc2":"","admin1_code":"84","admin2_code":"69","admin3_code":"691","admin4_code":"69027","population":"12427","elevation":"","dem":"209","timezone":"Europe/Paris","modification_date":"2016-02-18"},{"geonameid":"3030071","name":"Briey","asciiname":"Briey","alternatenames":"Briey","latitude":"49.25","longitude":"5.93333","feature_class":"P","feature_code":"PPLA3","country_code":"FR","cc2":"","admin1_code":"44","admin2_code":"54","admin3_code":"541","admin4_code":"54099","population":"5200","elevation":"","dem":"220","timezone":"Europe/Paris","modification_date":"2016-02-21"},{"geonameid":"3030090","name":"Brienon-sur-Armançon","asciiname":"Brienon-sur-Armancon","alternatenames":"Brienon,Brienon-sjur-Armanson,Brienon-sur-Armancon,Brienon-sur-Armançon,Brijenon sir Armanson,a er mang song he pan bu li ye nong,Бриенон-сюр-Армансон,Бријенон сир Армансон,Брієнон-сюр-Армансон,阿尔芒松河畔布里耶农","latitude":"47.99009","longitude":"3.61628","feature_class":"P","feature_code":"PPL","country_code":"FR","cc2":"","admin1_code":"27","admin2_code":"89","admin3_code":"891","admin4_code":"89055","population":"3366","elevation":"","dem":"92","timezone":"Europe/Paris","modification_date":"2016-02-18"},{"geonameid":"3030091","name":"Briennon","asciiname":"Briennon","alternatenames":"Briennon","latitude":"46.15024","longitude":"4.0872","feature_class":"P","feature_code":"PPL","country_code":"FR","cc2":"","admin1_code":"84","admin2_code":"42","admin3_code":"422","admin4_code":"42026","population":"1711","elevation":"","dem":"273","timezone":"Europe/Paris","modification_date":"2016-02-18"},{"geonameid":"3030093","name":"Brienne-le-Château","asciiname":"Brienne-le-Chateau","alternatenames":"Breonna,Brien-le-Shato,Brienn-le-Shato,Brienne-le-Bourg,Brienne-le-Chateau,Brienne-le-Château,Brijen le Shato,bu li an lai sha tuo,Бриен-ле-Шато,Бријен ле Шато,Брієнн-ле-Шато,布里安莱沙托","latitude":"48.39319","longitude":"4.52637","feature_class":"P","feature_code":"PPL","country_code":"FR","cc2":"","admin1_code":"44","admin2_code":"10","admin3_code":"101","admin4_code":"10064","population":"3473","elevation":"","dem":"127","timezone":"Europe/Paris","modification_date":"2016-02-18"},{"geonameid":"3030100","name":"Brié-et-Angonnes","asciiname":"Brie-et-Angonnes","alternatenames":"Brie Augonnes,Brie-et-Angonnes,Brie-et-Augonnes,Brié Augonnes,Brié-et-Angonnes,Brié-et-Augonnes","latitude":"45.12418","longitude":"5.78374","feature_class":"P","feature_code":"PPL","country_code":"FR","cc2":"","admin1_code":"84","admin2_code":"38","admin3_code":"381","admin4_code":"38059","population":"1965","elevation":"","dem":"442","timezone":"Europe/Paris","modification_date":"2016-02-18"},{"geonameid":"3030101","name":"Brie-Comte-Robert","asciiname":"Brie-Comte-Robert","alternatenames":"Bri Kont Rober,Bri-Kont-Rober,Brie-Comte-Robert,Brie-Libre,Brie-la-Ville,Brie-sur-Hieres,Brie-sur-Hières,Бри Конт Робер,Бри-Конт-Робер,Брі-Конт-Робер","latitude":"48.68333","longitude":"2.61667","feature_class":"P","feature_code":"PPL","country_code":"FR","cc2":"","admin1_code":"11","admin2_code":"77","admin3_code":"772","admin4_code":"77053","population":"15892","elevation":"","dem":"78","timezone":"Europe/Paris","modification_date":"2016-02-18"},{"geonameid":"3030102","name":"Briec","asciiname":"Briec","alternatenames":"Briec,Briec-de-l'Odet,Briec-de-lOdet,Briec-de-l’Odet,Brieg,Briek,Brijek,Brithiacum,bu li ye ke,buriekku,Бриек,Бријек,Брієк,ブリエック,布里耶克","latitude":"48.10167","longitude":"-3.99833","feature_class":"P","feature_code":"PPL","country_code":"FR","cc2":"","admin1_code":"53","admin2_code":"29","admin3_code":"294","admin4_code":"29020","population":"4880","elevation":"","dem":"157","timezone":"Europe/Paris","modification_date":"2016-02-18"},{"geonameid":"3030108","name":"Brie","asciiname":"Brie","alternatenames":"ANG,Brie","latitude":"45.73804","longitude":"0.24107","feature_class":"P","feature_code":"PPL","country_code":"FR","cc2":"","admin1_code":"75","admin2_code":"16","admin3_code":"161","admin4_code":"16061","population":"3490","elevation":"","dem":"119","timezone":"Europe/Paris","modification_date":"2016-02-18"},{"geonameid":"3030114","name":"Bricy","asciiname":"Bricy","alternatenames":"Briarres-sur-Essonne,Bricy,Brisi,bu li xi,Бриси,Брисі,布里西","latitude":"47.99847","longitude":"1.77937","feature_class":"P","feature_code":"PPL","country_code":"FR","cc2":"","admin1_code":"24","admin2_code":"45","admin3_code":"452","admin4_code":"45055","population":"1082","elevation":"","dem":"122","timezone":"Europe/Paris","modification_date":"2016-02-18"},{"geonameid":"3030120","name":"Bricquebec","asciiname":"Bricquebec","alternatenames":"Bricquebec,Brikebek,bu li qu ai bei ke,Брикебек,布里屈埃贝克","latitude":"49.47008","longitude":"-1.63254","feature_class":"P","feature_code":"PPL","country_code":"FR","cc2":"","admin1_code":"28","admin2_code":"50","admin3_code":"502","admin4_code":"50082","population":"4475","elevation":"","dem":"47","timezone":"Europe/Paris","modification_date":"2016-02-18"},{"geonameid":"3030127","name":"Briatexte","asciiname":"Briatexte","alternatenames":"Briatexte","latitude":"43.75237","longitude":"1.90879","feature_class":"P","feature_code":"PPL","country_code":"FR","cc2":"","admin1_code":"76","admin2_code":"81","admin3_code":"812","admin4_code":"81039","population":"1761","elevation":"","dem":"143","timezone":"Europe/Paris","modification_date":"2016-02-18"},{"geonameid":"3030132","name":"Briare","asciiname":"Briare","alternatenames":"Briar,Briare,Brijar,bu li a er,Бријар,Бріар,布里阿尔","latitude":"47.63343","longitude":"2.7438","feature_class":"P","feature_code":"PPL","country_code":"FR","cc2":"","admin1_code":"24","admin2_code":"45","admin3_code":"451","admin4_code":"45053","population":"6455","elevation":"","dem":"140","timezone":"Europe/Paris","modification_date":"2016-02-18"},{"geonameid":"3030142","name":"Briançon","asciiname":"Briancon","alternatenames":"Briancon,Brianson,Briançon,Brigantium,Brijanson,XBC,bu li ang song,burianson,Μπριανσόν,Бриансон,Бријансон,Бріансон,ブリアンソン,布里昂松","latitude":"44.89978","longitude":"6.64201","feature_class":"P","feature_code":"PPLA3","country_code":"FR","cc2":"","admin1_code":"93","admin2_code":"05","admin3_code":"051","admin4_code":"05023","population":"11577","elevation":"","dem":"1301","timezone":"Europe/Paris","modification_date":"2016-02-18"},{"geonameid":"3030147","name":"Brezolles","asciiname":"Brezolles","alternatenames":"Brezol,Brezol',Brezolles,Brézolles,bu lei zuo lai,Брезол,Брезоль,布雷佐莱","latitude":"48.69033","longitude":"1.07404","feature_class":"P","feature_code":"PPL","country_code":"FR","cc2":"","admin1_code":"24","admin2_code":"28","admin3_code":"283","admin4_code":"28059","population":"1762","elevation":"","dem":"164","timezone":"Europe/Paris","modification_date":"2016-02-18"},{"geonameid":"3030148","name":"Brézins","asciiname":"Brezins","alternatenames":"Brezins,Brézins","latitude":"45.35202","longitude":"5.30692","feature_class":"P","feature_code":"PPL","country_code":"FR","cc2":"","admin1_code":"84","admin2_code":"38","admin3_code":"381","admin4_code":"38058","population":"1441","elevation":"","dem":"365","timezone":"Europe/Paris","modification_date":"2016-02-18"},{"geonameid":"3030155","name":"Brézé","asciiname":"Breze","alternatenames":"Breze,Brézé","latitude":"47.17357","longitude":"-0.06059","feature_class":"P","feature_code":"PPL","country_code":"FR","cc2":"","admin1_code":"52","admin2_code":"49","admin3_code":"493","admin4_code":"49046","population":"1382","elevation":"","dem":"57","timezone":"Europe/Paris","modification_date":"2016-02-18"},{"geonameid":"3030171","name":"Bréviandes","asciiname":"Breviandes","alternatenames":"Breviande,Breviandes,Bréviande,Bréviandes","latitude":"48.25693","longitude":"4.09531","feature_class":"P","feature_code":"PPL","country_code":"FR","cc2":"","admin1_code":"44","admin2_code":"10","admin3_code":"103","admin4_code":"10060","population":"2093","elevation":"","dem":"115","timezone":"Europe/Paris","modification_date":"2016-02-18"},{"geonameid":"3030180","name":"Bréval","asciiname":"Breval","alternatenames":"Breval,Breval',Bréval,Бревал,Бреваль","latitude":"48.94545","longitude":"1.53309","feature_class":"P","feature_code":"PPL","country_code":"FR","cc2":"","admin1_code":"11","admin2_code":"78","admin3_code":"781","admin4_code":"78107","population":"1735","elevation":"","dem":"127","timezone":"Europe/Paris","modification_date":"2016-02-18"},{"geonameid":"3030191","name":"Breuschwickersheim","asciiname":"Breuschwickersheim","alternatenames":"","latitude":"48.58007","longitude":"7.60159","feature_class":"P","feature_code":"PPL","country_code":"FR","cc2":"","admin1_code":"44","admin2_code":"67","admin3_code":"676","admin4_code":"67065","population":"1155","elevation":"","dem":"166","timezone":"Europe/Paris","modification_date":"2016-02-18"},{"geonameid":"3030195","name":"Breuilpont","asciiname":"Breuilpont","alternatenames":"Brejpon,Breuilpont,bu lei yi er peng,Брейпон,Брејпон,布勒伊尔蓬","latitude":"48.96398","longitude":"1.42919","feature_class":"P","feature_code":"PPL","country_code":"FR","cc2":"","admin1_code":"28","admin2_code":"27","admin3_code":"273","admin4_code":"27114","population":"1173","elevation":"","dem":"75","timezone":"Europe/Paris","modification_date":"2016-02-18"},{"geonameid":"3030197","name":"Breuil-Magné","asciiname":"Breuil-Magne","alternatenames":"Brej Mane,Brej-Man'e,Breuil-Magne,Breuil-Magné,Brjoj-Man'e,Bryoy Mane,bu lei yi ma nie,Брей-Маньє,Бреј Мање,Брёй-Манье,Բրյոյ Մանե,布勒伊马涅","latitude":"45.98478","longitude":"-0.96","feature_class":"P","feature_code":"PPL","country_code":"FR","cc2":"","admin1_code":"75","admin2_code":"17","admin3_code":"172","admin4_code":"17065","population":"1324","elevation":"","dem":"21","timezone":"Europe/Paris","modification_date":"2016-02-18"},{"geonameid":"3030202","name":"Breuil-le-Vert","asciiname":"Breuil-le-Vert","alternatenames":"Brej le Ver,Brej-le-Ver,Breuil,Breuil-le-Vert,bu lei yi lai wei er,Брей-ле-Вер,Бреј ле Вер,布勒伊莱韦尔","latitude":"49.36176","longitude":"2.43633","feature_class":"P","feature_code":"PPL","country_code":"FR","cc2":"","admin1_code":"32","admin2_code":"60","admin3_code":"602","admin4_code":"60107","population":"3074","elevation":"","dem":"56","timezone":"Europe/Paris","modification_date":"2016-02-18"},{"geonameid":"3030203","name":"Breuillet","asciiname":"Breuillet","alternatenames":"Breuillet","latitude":"48.57064","longitude":"2.17424","feature_class":"P","feature_code":"PPL","country_code":"FR","cc2":"","admin1_code":"11","admin2_code":"91","admin3_code":"911","admin4_code":"91105","population":"7755","elevation":"","dem":"92","timezone":"Europe/Paris","modification_date":"2016-02-18"},{"geonameid":"3030204","name":"Breuillet","asciiname":"Breuillet","alternatenames":"Breuillet","latitude":"45.69143","longitude":"-1.05175","feature_class":"P","feature_code":"PPL","country_code":"FR","cc2":"","admin1_code":"75","admin2_code":"17","admin3_code":"172","admin4_code":"17064","population":"2349","elevation":"","dem":"29","timezone":"Europe/Paris","modification_date":"2016-02-18"},{"geonameid":"3030205","name":"Breuil-le-Sec","asciiname":"Breuil-le-Sec","alternatenames":"Brej le Sek,Brej-le-Sek,Breuil,Breuil-le-Sec,bu lei yi lai sai ke,Брей-ле-Сек,Бреј ле Сек,布勒伊莱塞克","latitude":"49.37135","longitude":"2.45084","feature_class":"P","feature_code":"PPL","country_code":"FR","cc2":"","admin1_code":"32","admin2_code":"60","admin3_code":"602","admin4_code":"60106","population":"2178","elevation":"","dem":"51","timezone":"Europe/Paris","modification_date":"2016-02-18"},{"geonameid":"3030233","name":"Bretteville-sur-Odon","asciiname":"Bretteville-sur-Odon","alternatenames":"Bretteville,Bretteville-sur-Odon,Brettvil'-sjur-Odon,Bretvil sir Odon,Bretvil'-sjur-Odon,ao dong he pan bu lei te wei er,Бретвил сир Одон,Бретвиль-сюр-Одон,Бреттвиль-сюр-Одон,Бреттвіль-сюр-Одон,奥东河畔布雷特维尔","latitude":"49.16627","longitude":"-0.41662","feature_class":"P","feature_code":"PPL","country_code":"FR","cc2":"","admin1_code":"28","admin2_code":"14","admin3_code":"142","admin4_code":"14101","population":"4320","elevation":"","dem":"18","timezone":"Europe/Paris","modification_date":"2016-02-18"},{"geonameid":"3030234","name":"Bretteville-sur-Laize","asciiname":"Bretteville-sur-Laize","alternatenames":"Bretteville,Bretteville-sur-Laize,Brettvil'-sjur-Lez,Bretvil sir Lez,Bretvil'-sjur-Lez,lai ci he pan bu lei te wei er,Бретвил сир Лез,Бретвиль-сюр-Лез,Бреттвиль-сюр-Лез,Бреттвіль-сюр-Лез,莱兹河畔布雷特维尔","latitude":"49.04466","longitude":"-0.32639","feature_class":"P","feature_code":"PPL","country_code":"FR","cc2":"","admin1_code":"28","admin2_code":"14","admin3_code":"142","admin4_code":"14100","population":"1572","elevation":"","dem":"57","timezone":"Europe/Paris","modification_date":"2016-02-18"},{"geonameid":"3030240","name":"Bretteville-du-Grand-Caux","asciiname":"Bretteville-du-Grand-Caux","alternatenames":"Bretteville,La Nativite,La Nativité","latitude":"49.66667","longitude":"0.4","feature_class":"P","feature_code":"PPL","country_code":"FR","cc2":"","admin1_code":"28","admin2_code":"76","admin3_code":"762","admin4_code":"76143","population":"1271","elevation":"","dem":"97","timezone":"Europe/Paris","modification_date":"2016-02-18"},{"geonameid":"3030242","name":"Bretteville","asciiname":"Bretteville","alternatenames":"Bretteville","latitude":"49.6544","longitude":"-1.52884","feature_class":"P","feature_code":"PPL","country_code":"FR","cc2":"","admin1_code":"28","admin2_code":"50","admin3_code":"502","admin4_code":"50077","population":"1036","elevation":"","dem":"19","timezone":"Europe/Paris","modification_date":"2016-02-18"},{"geonameid":"3030245","name":"Brette-les-Pins","asciiname":"Brette-les-Pins","alternatenames":"Brette,Brette-les-Pins","latitude":"47.91062","longitude":"0.33649","feature_class":"P","feature_code":"PPL","country_code":"FR","cc2":"","admin1_code":"52","admin2_code":"72","admin3_code":"723","admin4_code":"72047","population":"1618","elevation":"","dem":"96","timezone":"Europe/Paris","modification_date":"2016-02-18"},{"geonameid":"3030254","name":"Bretoncelles","asciiname":"Bretoncelles","alternatenames":"Bretoncelles","latitude":"48.43122","longitude":"0.88775","feature_class":"P","feature_code":"PPL","country_code":"FR","cc2":"","admin1_code":"28","admin2_code":"61","admin3_code":"613","admin4_code":"61061","population":"1367","elevation":"","dem":"155","timezone":"Europe/Paris","modification_date":"2016-02-18"},{"geonameid":"3030257","name":"Brétigny-sur-Orge","asciiname":"Bretigny-sur-Orge","alternatenames":"Bretigny,Bretigny-sur-Orge,Bretin'i-sjur-Orzh,Bretini sir Orz,Brétigny-sur-Orge,ao er ri he pan bu lei di ni,beuletiniswileuoleuju,brtyny-swr-arzh,brwtny swr awrzh,buretini=shuru=oruju,Бретиньи-сюр-Орж,Бретињи сир Орж,Бретіньї-сюр-Орж,برتینی-سور-ارژ,بروتنی سور اورژ,ブレティニー＝シュル＝オルジュ,奥尔日河畔布雷蒂尼,브레티니쉬르오르주","latitude":"48.61135","longitude":"2.30593","feature_class":"P","feature_code":"PPL","country_code":"FR","cc2":"","admin1_code":"11","admin2_code":"91","admin3_code":"913","admin4_code":"91103","population":"24317","elevation":"","dem":"69","timezone":"Europe/Paris","modification_date":"2016-02-18"},{"geonameid":"3030264","name":"Bretignolles-sur-Mer","asciiname":"Bretignolles-sur-Mer","alternatenames":"Bretignolles,Bretignolles-sur-Mer,Bretin'ol'-sjur-Mer,Bretinol na Moru,Brétignolles-sur-Mer,bin hai bu lei di ni ao lei,Бретињол на Мору,Бретіньоль-сюр-Мер,滨海布雷蒂尼奥勒","latitude":"46.63333","longitude":"-1.86667","feature_class":"P","feature_code":"PPL","country_code":"FR","cc2":"","admin1_code":"52","admin2_code":"85","admin3_code":"853","admin4_code":"85035","population":"3293","elevation":"","dem":"9","timezone":"Europe/Paris","modification_date":"2016-02-18"},{"geonameid":"3030275","name":"Breteuil","asciiname":"Breteuil","alternatenames":"Breteuil-sur-Iton","latitude":"48.83333","longitude":"0.91667","feature_class":"P","feature_code":"PPL","country_code":"FR","cc2":"","admin1_code":"28","admin2_code":"27","admin3_code":"273","admin4_code":"27112","population":"3714","elevation":"","dem":"168","timezone":"Europe/Paris","modification_date":"2016-02-18"},{"geonameid":"3030276","name":"Breteuil","asciiname":"Breteuil","alternatenames":"Breteuil,Breteuil-sur-Noye","latitude":"49.63357","longitude":"2.29509","feature_class":"P","feature_code":"PPL","country_code":"FR","cc2":"","admin1_code":"32","admin2_code":"60","admin3_code":"602","admin4_code":"60104","population":"4436","elevation":"","dem":"83","timezone":"Europe/Paris","modification_date":"2016-02-18"},{"geonameid":"3030278","name":"Bretenoux","asciiname":"Bretenoux","alternatenames":"Bertenons,Bertenor,Bretenoux,Bretenu,Bretnu,bu lei te nu,Бретену,Бретну,布雷特努","latitude":"44.91468","longitude":"1.84007","feature_class":"P","feature_code":"PPL","country_code":"FR","cc2":"","admin1_code":"76","admin2_code":"46","admin3_code":"462","admin4_code":"46038","population":"1346","elevation":"","dem":"137","timezone":"Europe/Paris","modification_date":"2016-02-18"},{"geonameid":"3030283","name":"Breteil","asciiname":"Breteil","alternatenames":"Breteil,Bretej,Bretolium,Brezhiel,bu lei tai,Бретей,Бретеј,布雷泰","latitude":"48.14534","longitude":"-1.89886","feature_class":"P","feature_code":"PPL","country_code":"FR","cc2":"","admin1_code":"53","admin2_code":"35","admin3_code":"353","admin4_code":"35040","population":"3242","elevation":"","dem":"58","timezone":"Europe/Paris","modification_date":"2016-02-18"},{"geonameid":"3030300","name":"Brest","asciiname":"Brest","alternatenames":"BES,Brest,Brestia,braista,bu lei si te,buresuto,Брест,ब्रैस्त,ブレスト,布雷斯特","latitude":"48.4","longitude":"-4.48333","feature_class":"P","feature_code":"PPLA3","country_code":"FR","cc2":"","admin1_code":"53","admin2_code":"29","admin3_code":"291","admin4_code":"29019","population":"144899","elevation":"","dem":"59","timezone":"Europe/Paris","modification_date":"2016-02-18"},{"geonameid":"3030303","name":"Bressuire","asciiname":"Bressuire","alternatenames":"Berceorium,Bresir,Bressjuir,Bressuire,Givre-en-Mai,bu lei xu er,bureshuiru,Бресир,Брессюир,Брессюїр,ブレシュイール,布雷敘爾","latitude":"46.85","longitude":"-0.48333","feature_class":"P","feature_code":"PPLA3","country_code":"FR","cc2":"","admin1_code":"75","admin2_code":"79","admin3_code":"791","admin4_code":"79049","population":"20743","elevation":"","dem":"176","timezone":"Europe/Paris","modification_date":"2016-02-18"},{"geonameid":"3030308","name":"Bressols","asciiname":"Bressols","alternatenames":"Brecols,Bresol,Bressol',Bressols,Bressòls,Breçòls,bu lei suo er,Бресол,Брессоль,布雷索尔","latitude":"43.96796","longitude":"1.33839","feature_class":"P","feature_code":"PPL","country_code":"FR","cc2":"","admin1_code":"76","admin2_code":"82","admin3_code":"822","admin4_code":"82025","population":"2862","elevation":"","dem":"95","timezone":"Europe/Paris","modification_date":"2016-02-18"},{"geonameid":"3030323","name":"Bresles","asciiname":"Bresles","alternatenames":"Brel,Brel',Brele,Bresles,Brèle,bu lei si lai,Брел,Брель,布雷斯莱","latitude":"49.41044","longitude":"2.25024","feature_class":"P","feature_code":"PPL","country_code":"FR","cc2":"","admin1_code":"32","admin2_code":"60","admin3_code":"601","admin4_code":"60103","population":"3934","elevation":"","dem":"61","timezone":"Europe/Paris","modification_date":"2016-02-18"},{"geonameid":"3030338","name":"Brens","asciiname":"Brens","alternatenames":"Brens","latitude":"43.88725","longitude":"1.90716","feature_class":"P","feature_code":"PPL","country_code":"FR","cc2":"","admin1_code":"76","admin2_code":"81","admin3_code":"811","admin4_code":"81038","population":"1786","elevation":"","dem":"136","timezone":"Europe/Paris","modification_date":"2016-02-18"},{"geonameid":"3030340","name":"Brenouille","asciiname":"Brenouille","alternatenames":"Brenouille,Brenuj,bu lei nu yi er,Бренуй,Бренуј,布雷努伊尔","latitude":"49.30551","longitude":"2.54437","feature_class":"P","feature_code":"PPL","country_code":"FR","cc2":"","admin1_code":"32","admin2_code":"60","admin3_code":"602","admin4_code":"60102","population":"2316","elevation":"","dem":"38","timezone":"Europe/Paris","modification_date":"2016-02-18"},{"geonameid":"3030374","name":"Brêmes","asciiname":"Bremes","alternatenames":"Bremes,Brêmes","latitude":"50.85483","longitude":"1.97687","feature_class":"P","feature_code":"PPL","country_code":"FR","cc2":"","admin1_code":"32","admin2_code":"62","admin3_code":"625","admin4_code":"62174","population":"1356","elevation":"","dem":"15","timezone":"Europe/Paris","modification_date":"2016-02-18"},{"geonameid":"3030377","name":"La Crèche","asciiname":"La Creche","alternatenames":"Breloux,Creche,Crèche,Kresh,La-Kresh,Креш,Ла-Креш","latitude":"46.36667","longitude":"-0.3","feature_class":"P","feature_code":"PPL","country_code":"FR","cc2":"","admin1_code":"75","admin2_code":"79","admin3_code":"792","admin4_code":"79048","population":"4883","elevation":"","dem":"43","timezone":"Europe/Paris","modification_date":"2016-02-18"},{"geonameid":"3030387","name":"Breil-sur-Roya","asciiname":"Breil-sur-Roya","alternatenames":"Breil,Breil-sur-Roya,Brej sir Roaja,Brej sir Roja,Brej sla Roya,Brej-sjur-Ruaja,Brej-sjur-Ruajja,Brelh,Brelh de Roia,Brelh de Ròia,Brelium,bryl swr rwya,lu wa a he pan bu lei,Брей-сюр-Руайя,Брей-сюр-Руая,Бреј сир Роаја,Бреј сир Роја,بريل سور رويا,鲁瓦阿河畔布雷","latitude":"43.94341","longitude":"7.51474","feature_class":"P","feature_code":"PPL","country_code":"FR","cc2":"","admin1_code":"93","admin2_code":"06","admin3_code":"062","admin4_code":"06023","population":"2138","elevation":"","dem":"307","timezone":"Europe/Paris","modification_date":"2016-02-18"},{"geonameid":"3030403","name":"Bréhand","asciiname":"Brehand","alternatenames":"Brean,Brehand,Brehant-Monkontour,Bréhand,bu lei ang,Бреан,布雷昂","latitude":"48.40333","longitude":"-2.57412","feature_class":"P","feature_code":"PPL","country_code":"FR","cc2":"","admin1_code":"53","admin2_code":"22","admin3_code":"224","admin4_code":"22015","population":"1321","elevation":"","dem":"84","timezone":"Europe/Paris","modification_date":"2016-02-18"},{"geonameid":"3030405","name":"Bréhal","asciiname":"Brehal","alternatenames":"Breal,Breal',Brehal,Brhal,Bréhal,bu lei a,Бреал,Бреаль,布雷阿","latitude":"48.89915","longitude":"-1.51225","feature_class":"P","feature_code":"PPL","country_code":"FR","cc2":"","admin1_code":"28","admin2_code":"50","admin3_code":"503","admin4_code":"50076","population":"2669","elevation":"","dem":"52","timezone":"Europe/Paris","modification_date":"2016-02-18"},{"geonameid":"3030440","name":"Brech","asciiname":"Brech","alternatenames":"Brec'h,Brech,Bresh,Бреш","latitude":"47.72134","longitude":"-2.99862","feature_class":"P","feature_code":"PPL","country_code":"FR","cc2":"","admin1_code":"53","admin2_code":"56","admin3_code":"561","admin4_code":"56023","population":"5071","elevation":"","dem":"47","timezone":"Europe/Paris","modification_date":"2016-02-18"},{"geonameid":"3030442","name":"Brécey","asciiname":"Brecey","alternatenames":"Brcey,Brecey,Brese,Brécey,bu lei sai,Бресе,布雷塞","latitude":"48.72413","longitude":"-1.16647","feature_class":"P","feature_code":"PPL","country_code":"FR","cc2":"","admin1_code":"28","admin2_code":"50","admin3_code":"501","admin4_code":"50074","population":"2336","elevation":"","dem":"68","timezone":"Europe/Paris","modification_date":"2016-02-18"},{"geonameid":"3030444","name":"Brécé","asciiname":"Brece","alternatenames":"Brec'heg,Brece,Brécé","latitude":"48.10839","longitude":"-1.48086","feature_class":"P","feature_code":"PPL","country_code":"FR","cc2":"","admin1_code":"53","admin2_code":"35","admin3_code":"353","admin4_code":"35039","population":"1572","elevation":"","dem":"46","timezone":"Europe/Paris","modification_date":"2016-02-18"},{"geonameid":"3030446","name":"Brebières","asciiname":"Brebieres","alternatenames":"Breb'er,Breber,Brebjer,brybyrys,bu lei bi ye er,Бребьер,Бребєр,Бребјер,بريبيريس,布勒比耶尔","latitude":"50.33333","longitude":"3.01667","feature_class":"P","feature_code":"PPL","country_code":"FR","cc2":"","admin1_code":"32","admin2_code":"62","admin3_code":"621","admin4_code":"62173","population":"4522","elevation":"","dem":"44","timezone":"Europe/Paris","modification_date":"2016-02-18"},{"geonameid":"3030448","name":"Bréauté","asciiname":"Breaute","alternatenames":"Breaute,Bréauté,Le Bourg-Libre","latitude":"49.62805","longitude":"0.40005","feature_class":"P","feature_code":"PPL","country_code":"FR","cc2":"","admin1_code":"28","admin2_code":"76","admin3_code":"762","admin4_code":"76141","population":"1125","elevation":"","dem":"116","timezone":"Europe/Paris","modification_date":"2016-02-18"},{"geonameid":"3030456","name":"Bréal-sous-Montfort","asciiname":"Breal-sous-Montfort","alternatenames":"Breal,Breal su Monfor,Breal'-su-Monfor,Breal-Monforzh,Breal-Moñforzh,Breal-sous-Montfort,Breallum Monteforti,Bréal,Bréal-sous-Montfort,bu lei a su meng te fu er,Бреал су Монфор,Бреаль-су-Монфор,布雷阿苏蒙特福尔","latitude":"48.04876","longitude":"-1.86438","feature_class":"P","feature_code":"PPL","country_code":"FR","cc2":"","admin1_code":"53","admin2_code":"35","admin3_code":"353","admin4_code":"35037","population":"4168","elevation":"","dem":"56","timezone":"Europe/Paris","modification_date":"2016-02-18"},{"geonameid":"3030457","name":"Brazey-en-Plaine","asciiname":"Brazey-en-Plaine","alternatenames":"Brazey,Brazey-en-Plaine","latitude":"47.13784","longitude":"5.21538","feature_class":"P","feature_code":"PPL","country_code":"FR","cc2":"","admin1_code":"27","admin2_code":"21","admin3_code":"211","admin4_code":"21103","population":"2555","elevation":"","dem":"184","timezone":"Europe/Paris","modification_date":"2016-02-18"},{"geonameid":"3030459","name":"Bray-sur-Somme","asciiname":"Bray-sur-Somme","alternatenames":"Bray,Bray-su-Sonme,Bray-sur-Somme,Bre na Somi,Bre-sjur-Somm,suo mu he pan bu lai,Бре на Соми,Бре-сюр-Сомм,索姆河畔布赖","latitude":"49.94085","longitude":"2.71847","feature_class":"P","feature_code":"PPL","country_code":"FR","cc2":"","admin1_code":"32","admin2_code":"80","admin3_code":"804","admin4_code":"80136","population":"1360","elevation":"","dem":"48","timezone":"Europe/Paris","modification_date":"2016-02-18"},{"geonameid":"3030460","name":"Bray-sur-Seine","asciiname":"Bray-sur-Seine","alternatenames":"Bray,Bray-sur-Seine,Bre na Seni,Bre-sjur-Sen,Бре на Сени,Бре-сюр-Сен","latitude":"48.41371","longitude":"3.23852","feature_class":"P","feature_code":"PPL","country_code":"FR","cc2":"","admin1_code":"11","admin2_code":"77","admin3_code":"773","admin4_code":"77051","population":"2135","elevation":"","dem":"58","timezone":"Europe/Paris","modification_date":"2016-02-18"},{"geonameid":"3030468","name":"Bray-en-Val","asciiname":"Bray-en-Val","alternatenames":"Bray,Bray-en-Val,Bre-an-Val',Brej an Val,wa de qu bu lai,Бре-ан-Валь,Бреј ан Вал,瓦地区布赖","latitude":"47.82856","longitude":"2.36644","feature_class":"P","feature_code":"PPL","country_code":"FR","cc2":"","admin1_code":"24","admin2_code":"45","admin3_code":"452","admin4_code":"45051","population":"1102","elevation":"","dem":"126","timezone":"Europe/Paris","modification_date":"2016-02-18"},{"geonameid":"3030473","name":"Bray-Dunes","asciiname":"Bray-Dunes","alternatenames":"Bray,Bray-Dunes,Bray-Duunn,Brayduinen,Bre Din,Bre-Djun,bu lai di ne,Бре Дин,Бре-Дюн,布赖迪讷","latitude":"51.07786","longitude":"2.51673","feature_class":"P","feature_code":"PPL","country_code":"FR","cc2":"","admin1_code":"32","admin2_code":"59","admin3_code":"594","admin4_code":"59107","population":"4681","elevation":"","dem":"6","timezone":"Europe/Paris","modification_date":"2016-02-18"},{"geonameid":"3030484","name":"Brax","asciiname":"Brax","alternatenames":"Brax","latitude":"44.20277","longitude":"0.55163","feature_class":"P","feature_code":"PPL","country_code":"FR","cc2":"","admin1_code":"75","admin2_code":"47","admin3_code":"471","admin4_code":"47040","population":"1694","elevation":"","dem":"53","timezone":"Europe/Paris","modification_date":"2016-02-18"},{"geonameid":"3030485","name":"Brax","asciiname":"Brax","alternatenames":"Brax","latitude":"43.61793","longitude":"1.23957","feature_class":"P","feature_code":"PPL","country_code":"FR","cc2":"","admin1_code":"76","admin2_code":"31","admin3_code":"313","admin4_code":"31088","population":"2314","elevation":"","dem":"190","timezone":"Europe/Paris","modification_date":"2016-02-18"},{"geonameid":"3030503","name":"Braud-et-Saint-Louis","asciiname":"Braud-et-Saint-Louis","alternatenames":"Braud,Braud-et-Saint-Louis","latitude":"45.24703","longitude":"-0.62438","feature_class":"P","feature_code":"PPL","country_code":"FR","cc2":"","admin1_code":"75","admin2_code":"33","admin3_code":"331","admin4_code":"33073","population":"1424","elevation":"","dem":"8","timezone":"Europe/Paris","modification_date":"2016-02-18"},{"geonameid":"3030517","name":"Brassac-les-Mines","asciiname":"Brassac-les-Mines","alternatenames":"Bracac,Brasak le Men,Brassac,Brassac-les-Mines,Brassak-le-Min,Braçac,bu la sa ke lai mi nei,burasakku=re=minu,Брасак ле Мен,Брассак-ле-Мин,Брассак-ле-Мін,ブラサック＝レ＝ミーヌ,布拉萨克莱米内","latitude":"45.41105","longitude":"3.32915","feature_class":"P","feature_code":"PPL","country_code":"FR","cc2":"","admin1_code":"84","admin2_code":"63","admin3_code":"633","admin4_code":"63050","population":"3570","elevation":"","dem":"402","timezone":"Europe/Paris","modification_date":"2016-02-18"},{"geonameid":"3030520","name":"Brassac","asciiname":"Brassac","alternatenames":"Brassac","latitude":"43.62959","longitude":"2.49763","feature_class":"P","feature_code":"PPL","country_code":"FR","cc2":"","admin1_code":"76","admin2_code":"81","admin3_code":"812","admin4_code":"81037","population":"1431","elevation":"","dem":"490","timezone":"Europe/Paris","modification_date":"2016-02-18"},{"geonameid":"3030522","name":"Brasparts","asciiname":"Brasparts","alternatenames":"Brapart,Braspar,Brasparts,Brasparzh,bu la si pa er te,Брапарт,Браспар,布拉斯帕尔特","latitude":"48.30167","longitude":"-3.95516","feature_class":"P","feature_code":"PPL","country_code":"FR","cc2":"","admin1_code":"53","admin2_code":"29","admin3_code":"292","admin4_code":"29016","population":"1071","elevation":"","dem":"129","timezone":"Europe/Paris","modification_date":"2016-02-18"},{"geonameid":"3030524","name":"Brasles","asciiname":"Brasles","alternatenames":"Brasles","latitude":"49.0481","longitude":"3.43","feature_class":"P","feature_code":"PPL","country_code":"FR","cc2":"","admin1_code":"32","admin2_code":"02","admin3_code":"021","admin4_code":"02114","population":"1255","elevation":"","dem":"70","timezone":"Europe/Paris","modification_date":"2016-02-18"},{"geonameid":"3030529","name":"Bras","asciiname":"Bras","alternatenames":"Bras","latitude":"43.47183","longitude":"5.95672","feature_class":"P","feature_code":"PPL","country_code":"FR","cc2":"","admin1_code":"93","admin2_code":"83","admin3_code":"833","admin4_code":"83021","population":"1888","elevation":"","dem":"276","timezone":"Europe/Paris","modification_date":"2016-02-18"},{"geonameid":"3030534","name":"Brantôme","asciiname":"Brantome","alternatenames":"Brantome,Brantôme","latitude":"45.36091","longitude":"0.65398","feature_class":"P","feature_code":"PPL","country_code":"FR","cc2":"","admin1_code":"75","admin2_code":"24","admin3_code":"243","admin4_code":"24064","population":"2150","elevation":"","dem":"117","timezone":"Europe/Paris","modification_date":"2016-02-18"},{"geonameid":"3030542","name":"Branoux-les-Taillades","asciiname":"Branoux-les-Taillades","alternatenames":"Branos e las Talhadas,Branoux,Branoux-les-Taillades,Branu le Tajad,Branu-le-Tajad,Branós e las Talhadas,bu la nu lai tai la dai,Брану ле Тајад,Брану-ле-Таяд,布拉努莱泰拉代","latitude":"44.21941","longitude":"3.99647","feature_class":"P","feature_code":"PPL","country_code":"FR","cc2":"","admin1_code":"76","admin2_code":"30","admin3_code":"301","admin4_code":"30051","population":"1392","elevation":"","dem":"269","timezone":"Europe/Paris","modification_date":"2016-02-18"},{"geonameid":"3030546","name":"Branne","asciiname":"Branne","alternatenames":"Branne","latitude":"44.83333","longitude":"-0.18333","feature_class":"P","feature_code":"PPL","country_code":"FR","cc2":"","admin1_code":"75","admin2_code":"33","admin3_code":"335","admin4_code":"33071","population":"1052","elevation":"","dem":"8","timezone":"Europe/Paris","modification_date":"2016-02-18"},{"geonameid":"3030553","name":"Branges","asciiname":"Branges","alternatenames":"Branges","latitude":"46.64441","longitude":"5.18465","feature_class":"P","feature_code":"PPL","country_code":"FR","cc2":"","admin1_code":"27","admin2_code":"71","admin3_code":"714","admin4_code":"71056","population":"2098","elevation":"","dem":"191","timezone":"Europe/Paris","modification_date":"2016-02-18"},{"geonameid":"3030561","name":"Brando","asciiname":"Brando","alternatenames":"Brando","latitude":"42.76667","longitude":"9.45","feature_class":"P","feature_code":"PPL","country_code":"FR","cc2":"","admin1_code":"94","admin2_code":"2B","admin3_code":"2B2","admin4_code":"2B043","population":"1682","elevation":"","dem":"405","timezone":"Europe/Paris","modification_date":"2016-02-18"},