{"nextFile":"cities.94.json","rows":[{"geonameid":"3523750","name":"Magdalena Mixtepec","asciiname":"Magdalena Mixtepec","alternatenames":"Magdalena,Magdalena Mixtepec,Mixtepec","latitude":"16.89659","longitude":"-96.90618","feature_class":"P","feature_code":"PPLA2","country_code":"MX","cc2":"","admin1_code":"20","admin2_code":"048","admin3_code":"","admin4_code":"","population":"0","elevation":"","dem":"2019","timezone":"America/Mexico_City","modification_date":"2015-06-22"},{"geonameid":"3523754","name":"Magdalena Jaltepec","asciiname":"Magdalena Jaltepec","alternatenames":"Jaltepec,Magdalena,Magdalena Jaltepec","latitude":"17.32318","longitude":"-97.22122","feature_class":"P","feature_code":"PPLA2","country_code":"MX","cc2":"","admin1_code":"20","admin2_code":"046","admin3_code":"","admin4_code":"","population":"0","elevation":"","dem":"2022","timezone":"America/Mexico_City","modification_date":"2015-06-22"},{"geonameid":"3523756","name":"Magdalena Cuayucatepec","asciiname":"Magdalena Cuayucatepec","alternatenames":"Cuayacatepec,Cuayucatepec,Magdalena Cuayucatepec","latitude":"18.54972","longitude":"-97.48472","feature_class":"P","feature_code":"PPL","country_code":"MX","cc2":"","admin1_code":"21","admin2_code":"156","admin3_code":"","admin4_code":"","population":"9227","elevation":"","dem":"1741","timezone":"America/Mexico_City","modification_date":"2013-08-01"},{"geonameid":"3523760","name":"Magdalena Contreras","asciiname":"Magdalena Contreras","alternatenames":"Magdalena Contreras","latitude":"19.33212","longitude":"-99.21118","feature_class":"P","feature_code":"PPL","country_code":"MX","cc2":"","admin1_code":"09","admin2_code":"008","admin3_code":"","admin4_code":"","population":"228927","elevation":"","dem":"2348","timezone":"America/Mexico_City","modification_date":"2015-06-22"},{"geonameid":"3523791","name":"Macuspana","asciiname":"Macuspana","alternatenames":"Macuspana,San-Francisko Makushpana,ma ku si pa na,makwspana,Сан-Франциско Макушпана,ماکوسپانا,馬庫斯帕納","latitude":"17.76152","longitude":"-92.5965","feature_class":"P","feature_code":"PPL","country_code":"MX","cc2":"","admin1_code":"27","admin2_code":"012","admin3_code":"","admin4_code":"","population":"30409","elevation":"","dem":"12","timezone":"America/Mexico_City","modification_date":"2015-06-22"},{"geonameid":"3523794","name":"Macultepec","asciiname":"Macultepec","alternatenames":"Macultepec","latitude":"18.15026","longitude":"-92.86092","feature_class":"P","feature_code":"PPL","country_code":"MX","cc2":"","admin1_code":"27","admin2_code":"004","admin3_code":"","admin4_code":"","population":"6430","elevation":"","dem":"11","timezone":"America/Mexico_City","modification_date":"2015-06-22"},{"geonameid":"3523828","name":"Luis Gil Pérez","asciiname":"Luis Gil Perez","alternatenames":"","latitude":"17.87704","longitude":"-93.07273","feature_class":"P","feature_code":"PPL","country_code":"MX","cc2":"","admin1_code":"27","admin2_code":"004","admin3_code":"","admin4_code":"","population":"5489","elevation":"","dem":"22","timezone":"America/Mexico_City","modification_date":"2015-06-22"},{"geonameid":"3523900","name":"Reyes Acozac","asciiname":"Reyes Acozac","alternatenames":"Los Reyes Acozac,Los Reyes Xoloc,Reyes,Reyes Acozac","latitude":"19.7755","longitude":"-98.98079","feature_class":"P","feature_code":"PPL","country_code":"MX","cc2":"","admin1_code":"17","admin2_code":"","admin3_code":"","admin4_code":"","population":"22133","elevation":"","dem":"2259","timezone":"America/Mexico_City","modification_date":"2014-04-30"},{"geonameid":"3523905","name":"Los Reyes","asciiname":"Los Reyes","alternatenames":"Los Reyes","latitude":"20.15529","longitude":"-98.16424","feature_class":"P","feature_code":"PPL","country_code":"MX","cc2":"","admin1_code":"13","admin2_code":"002","admin3_code":"","admin4_code":"","population":"3681","elevation":"","dem":"2262","timezone":"America/Mexico_City","modification_date":"2015-06-22"},{"geonameid":"3523908","name":"Los Reyes La Paz","asciiname":"Los Reyes La Paz","alternatenames":"Los Reyes,Los Reyes La Paz,Reyes,Reyes la Paz","latitude":"19.36357","longitude":"-98.97707","feature_class":"P","feature_code":"PPL","country_code":"MX","cc2":"","admin1_code":"15","admin2_code":"070","admin3_code":"","admin4_code":"","population":"251168","elevation":"","dem":"2240","timezone":"America/Mexico_City","modification_date":"2015-06-22"},{"geonameid":"3523909","name":"Los Reyes de Juárez","asciiname":"Los Reyes de Juarez","alternatenames":"Los Reyes,Los Reyes de Juarez,Los Reyes de Juárez","latitude":"18.94918","longitude":"-97.80379","feature_class":"P","feature_code":"PPLA2","country_code":"MX","cc2":"","admin1_code":"21","admin2_code":"118","admin3_code":"","admin4_code":"","population":"0","elevation":"","dem":"2108","timezone":"America/Mexico_City","modification_date":"2016-03-10"},{"geonameid":"3523914","name":"Los Ramones","asciiname":"Los Ramones","alternatenames":"Los Ramones,Ramones","latitude":"25.69716","longitude":"-99.62529","feature_class":"P","feature_code":"PPLA2","country_code":"MX","cc2":"","admin1_code":"19","admin2_code":"042","admin3_code":"","admin4_code":"","population":"0","elevation":"","dem":"214","timezone":"America/Monterrey","modification_date":"2015-06-22"},{"geonameid":"3524049","name":"Los Herreras","asciiname":"Los Herreras","alternatenames":"Los Herreras","latitude":"25.90797","longitude":"-99.40479","feature_class":"P","feature_code":"PPLA2","country_code":"MX","cc2":"","admin1_code":"19","admin2_code":"027","admin3_code":"","admin4_code":"","population":"0","elevation":"","dem":"156","timezone":"America/Monterrey","modification_date":"2015-06-22"},{"geonameid":"3524186","name":"Los Altos","asciiname":"Los Altos","alternatenames":"Los Altos","latitude":"21.50976","longitude":"-97.75705","feature_class":"P","feature_code":"PPL","country_code":"MX","cc2":"","admin1_code":"30","admin2_code":"154","admin3_code":"","admin4_code":"","population":"4771","elevation":"","dem":"20","timezone":"America/Mexico_City","modification_date":"2015-06-22"},{"geonameid":"3524188","name":"Almagres","asciiname":"Almagres","alternatenames":"Almagre,Almagres,Los Almagres","latitude":"17.8075","longitude":"-94.9175","feature_class":"P","feature_code":"PPL","country_code":"MX","cc2":"MX","admin1_code":"30","admin2_code":"144","admin3_code":"","admin4_code":"","population":"2069","elevation":"","dem":"37","timezone":"America/Mexico_City","modification_date":"2013-08-01"},{"geonameid":"3524240","name":"Loma Grande","asciiname":"Loma Grande","alternatenames":"","latitude":"18.9225","longitude":"-97.23083","feature_class":"P","feature_code":"PPL","country_code":"MX","cc2":"","admin1_code":"30","admin2_code":"101","admin3_code":"","admin4_code":"","population":"1976","elevation":"","dem":"2666","timezone":"America/Mexico_City","modification_date":"2013-08-01"},{"geonameid":"3524242","name":"Loma de Sogotegoyo","asciiname":"Loma de Sogotegoyo","alternatenames":"Loma de Zogotegoyo,Sogotegoyo","latitude":"18.21896","longitude":"-94.97373","feature_class":"P","feature_code":"PPL","country_code":"MX","cc2":"","admin1_code":"30","admin2_code":"073","admin3_code":"","admin4_code":"","population":"1245","elevation":"","dem":"529","timezone":"America/Mexico_City","modification_date":"2013-08-01"},{"geonameid":"3524279","name":"Loché","asciiname":"Loche","alternatenames":"Loche,Loché","latitude":"21.38828","longitude":"-88.14566","feature_class":"P","feature_code":"PPL","country_code":"MX","cc2":"","admin1_code":"31","admin2_code":"057","admin3_code":"","admin4_code":"","population":"1237","elevation":"","dem":"13","timezone":"America/Merida","modification_date":"2014-06-05"},{"geonameid":"3524292","name":"Llera de Canales","asciiname":"Llera de Canales","alternatenames":"Llera,Llera de Canales","latitude":"23.31774","longitude":"-99.02608","feature_class":"P","feature_code":"PPL","country_code":"MX","cc2":"","admin1_code":"28","admin2_code":"019","admin3_code":"","admin4_code":"","population":"4005","elevation":"","dem":"277","timezone":"America/Monterrey","modification_date":"2015-06-22"},{"geonameid":"3524328","name":"Llano de Enmedio","asciiname":"Llano de Enmedio","alternatenames":"Llano Enmedio,Llano de Enmedio","latitude":"20.78328","longitude":"-98.01364","feature_class":"P","feature_code":"PPL","country_code":"MX","cc2":"","admin1_code":"30","admin2_code":"083","admin3_code":"","admin4_code":"","population":"1355","elevation":"","dem":"162","timezone":"America/Mexico_City","modification_date":"2014-03-07"},{"geonameid":"3524348","name":"Linares","asciiname":"Linares","alternatenames":"Linares,Линарес","latitude":"24.85798","longitude":"-99.56768","feature_class":"P","feature_code":"PPL","country_code":"MX","cc2":"","admin1_code":"19","admin2_code":"033","admin3_code":"","admin4_code":"","population":"57731","elevation":"","dem":"357","timezone":"America/Monterrey","modification_date":"2015-03-01"},{"geonameid":"3524374","name":"Libres","asciiname":"Libres","alternatenames":"Libres,San Juan de los Llanos","latitude":"19.46574","longitude":"-97.68737","feature_class":"P","feature_code":"PPLA2","country_code":"MX","cc2":"","admin1_code":"21","admin2_code":"094","admin3_code":"","admin4_code":"","population":"13326","elevation":"","dem":"2394","timezone":"America/Mexico_City","modification_date":"2016-02-07"},{"geonameid":"3524389","name":"Lerma de Villada","asciiname":"Lerma de Villada","alternatenames":"Lerma,Lerma de Villada,Zerma de Villada","latitude":"19.28881","longitude":"-99.51163","feature_class":"P","feature_code":"PPLA2","country_code":"MX","cc2":"","admin1_code":"17","admin2_code":"","admin3_code":"","admin4_code":"","population":"18145","elevation":"","dem":"2587","timezone":"America/Mexico_City","modification_date":"2014-09-05"},{"geonameid":"3524391","name":"Lerdo de Tejada","asciiname":"Lerdo de Tejada","alternatenames":"Lerdo de Tejada","latitude":"18.62936","longitude":"-95.51968","feature_class":"P","feature_code":"PPL","country_code":"MX","cc2":"","admin1_code":"30","admin2_code":"097","admin3_code":"","admin4_code":"","population":"18941","elevation":"","dem":"9","timezone":"America/Mexico_City","modification_date":"2015-06-22"},{"geonameid":"3524417","name":"Lázaro Cárdenas","asciiname":"Lazaro Cardenas","alternatenames":"Cardenas,Colonia Lazaro Cardenas,Colonia Lázaro Cárdenas,Lazaro Cardenas,Lázaro Cárdenas","latitude":"19.64032","longitude":"-98.47166","feature_class":"P","feature_code":"PPL","country_code":"MX","cc2":"","admin1_code":"13","admin2_code":"008","admin3_code":"","admin4_code":"","population":"2381","elevation":"","dem":"2530","timezone":"America/Mexico_City","modification_date":"2014-06-05"},{"geonameid":"3524420","name":"Lázaro Cárdenas","asciiname":"Lazaro Cardenas","alternatenames":"Lazaro Cardenas,Lázaro Cárdenas","latitude":"15.71838","longitude":"-92.25531","feature_class":"P","feature_code":"PPL","country_code":"MX","cc2":"","admin1_code":"05","admin2_code":"030","admin3_code":"","admin4_code":"","population":"1321","elevation":"","dem":"605","timezone":"America/Mexico_City","modification_date":"2014-09-05"},{"geonameid":"3524527","name":"La Trinitaria","asciiname":"La Trinitaria","alternatenames":"La Trinitaria,Zapaluta","latitude":"16.12271","longitude":"-92.05521","feature_class":"P","feature_code":"PPL","country_code":"MX","cc2":"","admin1_code":"05","admin2_code":"099","admin3_code":"","admin4_code":"","population":"6655","elevation":"","dem":"1566","timezone":"America/Mexico_City","modification_date":"2015-06-22"},{"geonameid":"3524580","name":"Las Vigas de Ramírez","asciiname":"Las Vigas de Ramirez","alternatenames":"Las Vigas,Las Vigas de Ramirez,Las Vigas de Ramírez,Vigas","latitude":"19.63722","longitude":"-97.09821","feature_class":"P","feature_code":"PPLA2","country_code":"MX","cc2":"","admin1_code":"30","admin2_code":"132","admin3_code":"","admin4_code":"","population":"8037","elevation":"","dem":"2438","timezone":"America/Mexico_City","modification_date":"2016-02-07"},{"geonameid":"3524686","name":"Vegas de la Soledad y Soledad Dos","asciiname":"Vegas de la Soledad y Soledad Dos","alternatenames":"","latitude":"20.94476","longitude":"-97.83273","feature_class":"P","feature_code":"PPL","country_code":"MX","cc2":"","admin1_code":"30","admin2_code":"160","admin3_code":"","admin4_code":"","population":"1258","elevation":"","dem":"51","timezone":"America/Mexico_City","modification_date":"2013-08-01"},{"geonameid":"3524728","name":"Las Minas","asciiname":"Las Minas","alternatenames":"Las Minas","latitude":"19.69091","longitude":"-97.14597","feature_class":"P","feature_code":"PPLA2","country_code":"MX","cc2":"","admin1_code":"30","admin2_code":"107","admin3_code":"","admin4_code":"","population":"0","elevation":"","dem":"1353","timezone":"America/Mexico_City","modification_date":"2016-02-07"},{"geonameid":"3524744","name":"Las Margaritas","asciiname":"Las Margaritas","alternatenames":"Las Margaritas","latitude":"16.31265","longitude":"-91.98107","feature_class":"P","feature_code":"PPL","country_code":"MX","cc2":"","admin1_code":"05","admin2_code":"052","admin3_code":"","admin4_code":"","population":"103403","elevation":"","dem":"1516","timezone":"America/Mexico_City","modification_date":"2015-06-22"},{"geonameid":"3524752","name":"Las Lomas","asciiname":"Las Lomas","alternatenames":"Las Lomas,Loma","latitude":"19.44745","longitude":"-96.9061","feature_class":"P","feature_code":"PPL","country_code":"MX","cc2":"","admin1_code":"30","admin2_code":"038","admin3_code":"","admin4_code":"","population":"1541","elevation":"","dem":"1134","timezone":"America/Mexico_City","modification_date":"2014-06-05"},{"geonameid":"3524903","name":"Las Choapas","asciiname":"Las Choapas","alternatenames":"","latitude":"17.93333","longitude":"-94.08333","feature_class":"P","feature_code":"PPL","country_code":"MX","cc2":"","admin1_code":"30","admin2_code":"","admin3_code":"","admin4_code":"","population":"40304","elevation":"","dem":"7","timezone":"America/Mexico_City","modification_date":"2006-01-17"},{"geonameid":"3524965","name":"Las Amilpas","asciiname":"Las Amilpas","alternatenames":"Amilpas,Las Amilpas","latitude":"16.36667","longitude":"-94.61667","feature_class":"P","feature_code":"PPL","country_code":"MX","cc2":"","admin1_code":"20","admin2_code":"130","admin3_code":"","admin4_code":"","population":"8796","elevation":"","dem":"2","timezone":"America/Mexico_City","modification_date":"2015-06-22"},{"geonameid":"3525067","name":"La Reforma","asciiname":"La Reforma","alternatenames":"La Reforma","latitude":"24.69787","longitude":"-99.54151","feature_class":"P","feature_code":"PPL","country_code":"MX","cc2":"","admin1_code":"19","admin2_code":"033","admin3_code":"","admin4_code":"","population":"6145","elevation":"","dem":"355","timezone":"America/Monterrey","modification_date":"2015-06-22"},{"geonameid":"3525203","name":"La Perla","asciiname":"La Perla","alternatenames":"La Perla,Perla","latitude":"18.92817","longitude":"-97.13362","feature_class":"P","feature_code":"PPLA2","country_code":"MX","cc2":"","admin1_code":"30","admin2_code":"127","admin3_code":"","admin4_code":"","population":"3249","elevation":"","dem":"1624","timezone":"America/Mexico_City","modification_date":"2016-03-10"},{"geonameid":"3525228","name":"La Pedrera","asciiname":"La Pedrera","alternatenames":"La Pedrera","latitude":"22.39353","longitude":"-97.8821","feature_class":"P","feature_code":"PPL","country_code":"MX","cc2":"","admin1_code":"28","admin2_code":"003","admin3_code":"","admin4_code":"","population":"1104","elevation":"","dem":"13","timezone":"America/Monterrey","modification_date":"2014-04-11"},{"geonameid":"3525379","name":"La Misión","asciiname":"La Mision","alternatenames":"La Mision,La Misión","latitude":"23.80326","longitude":"-99.17025","feature_class":"P","feature_code":"PPL","country_code":"MX","cc2":"","admin1_code":"28","admin2_code":"041","admin3_code":"","admin4_code":"","population":"1004","elevation":"","dem":"287","timezone":"America/Monterrey","modification_date":"2014-01-10"},{"geonameid":"3525421","name":"La Magdalena Yancuitlalpan","asciiname":"La Magdalena Yancuitlalpan","alternatenames":"La Magdalena Yancuitlalpan,La Magdalena Yancuitlapan,Yancuitlalpan","latitude":"18.91083","longitude":"-98.58944","feature_class":"P","feature_code":"PPL","country_code":"MX","cc2":"MX","admin1_code":"21","admin2_code":"188","admin3_code":"","admin4_code":"","population":"2210","elevation":"","dem":"2218","timezone":"America/Mexico_City","modification_date":"2013-07-31"},{"geonameid":"3525491","name":"La Libertad","asciiname":"La Libertad","alternatenames":"La Libertad","latitude":"14.59167","longitude":"-92.19315","feature_class":"P","feature_code":"PPL","country_code":"MX","cc2":"","admin1_code":"05","admin2_code":"087","admin3_code":"","admin4_code":"","population":"4393","elevation":"","dem":"16","timezone":"America/Mexico_City","modification_date":"2015-06-22"},{"geonameid":"3525568","name":"La Joya","asciiname":"La Joya","alternatenames":"La Joya","latitude":"19.61099","longitude":"-97.02687","feature_class":"P","feature_code":"PPL","country_code":"MX","cc2":"","admin1_code":"30","admin2_code":"001","admin3_code":"","admin4_code":"","population":"1360","elevation":"","dem":"2169","timezone":"America/Mexico_City","modification_date":"2016-02-07"},{"geonameid":"3525570","name":"La Joya","asciiname":"La Joya","alternatenames":"","latitude":"18.66667","longitude":"-99.46667","feature_class":"P","feature_code":"PPL","country_code":"MX","cc2":"","admin1_code":"17","admin2_code":"005","admin3_code":"","admin4_code":"","population":"13158","elevation":"","dem":"1010","timezone":"America/Mexico_City","modification_date":"2015-06-22"},{"geonameid":"3525596","name":"La Isla","asciiname":"La Isla","alternatenames":"Isla,La Isla","latitude":"18.6","longitude":"-96.15","feature_class":"P","feature_code":"PPL","country_code":"MX","cc2":"","admin1_code":"30","admin2_code":"174","admin3_code":"","admin4_code":"","population":"24558","elevation":"","dem":"23","timezone":"America/Mexico_City","modification_date":"2015-06-22"},{"geonameid":"3525677","name":"Laguna Chica (Pueblo Nuevo)","asciiname":"Laguna Chica (Pueblo Nuevo)","alternatenames":"","latitude":"18.54306","longitude":"-96.73306","feature_class":"P","feature_code":"PPL","country_code":"MX","cc2":"","admin1_code":"30","admin2_code":"173","admin3_code":"","admin4_code":"","population":"1947","elevation":"","dem":"152","timezone":"America/Mexico_City","modification_date":"2013-08-01"},{"geonameid":"3525702","name":"La Guadalupe","asciiname":"La Guadalupe","alternatenames":"Guadalupe,La Guadalupe","latitude":"16.68883","longitude":"-98.26222","feature_class":"P","feature_code":"PPL","country_code":"MX","cc2":"","admin1_code":"12","admin2_code":"046","admin3_code":"","admin4_code":"","population":"1147","elevation":"","dem":"432","timezone":"America/Mexico_City","modification_date":"2014-10-01"},{"geonameid":"3525896","name":"La Defensa","asciiname":"La Defensa","alternatenames":"Defensa,La Defensa","latitude":"20.10507","longitude":"-96.96079","feature_class":"P","feature_code":"PPL","country_code":"MX","cc2":"","admin1_code":"30","admin2_code":"109","admin3_code":"","admin4_code":"","population":"1540","elevation":"","dem":"33","timezone":"America/Mexico_City","modification_date":"2014-03-07"},{"geonameid":"3525948","name":"Santo Tomás la Concordia","asciiname":"Santo Tomas la Concordia","alternatenames":"","latitude":"19.22917","longitude":"-98.31944","feature_class":"P","feature_code":"PPL","country_code":"MX","cc2":"","admin1_code":"29","admin2_code":"023","admin3_code":"","admin4_code":"","population":"2798","elevation":"","dem":"2199","timezone":"America/Mexico_City","modification_date":"2013-08-01"},{"geonameid":"3525950","name":"La Concordia","asciiname":"La Concordia","alternatenames":"La Concordia,Nueva Concordia","latitude":"16.11774","longitude":"-92.69018","feature_class":"P","feature_code":"PPLA2","country_code":"MX","cc2":"","admin1_code":"05","admin2_code":"020","admin3_code":"","admin4_code":"","population":"0","elevation":"","dem":"549","timezone":"America/Mexico_City","modification_date":"2015-06-22"},{"geonameid":"3525956","name":"La Concepción de los Baños","asciiname":"La Concepcion de los Banos","alternatenames":"Concepcion de los Banos,Concepcion de los Baños,La Concepcion,La Concepcion de los Banos,La Concepcion los Banos,La Concepción,La Concepción de los Baños,La Concepción los Baños","latitude":"19.63322","longitude":"-99.84424","feature_class":"P","feature_code":"PPL","country_code":"MX","cc2":"","admin1_code":"15","admin2_code":"042","admin3_code":"","admin4_code":"","population":"6503","elevation":"","dem":"2539","timezone":"America/Mexico_City","modification_date":"2015-06-22"},{"geonameid":"3525958","name":"La Concepción Coatipac (La Conchita)","asciiname":"La Concepcion Coatipac (La Conchita)","alternatenames":"Coatipac,Concepcion,Concepción,La Concepcion,La Concepcion Coatipac,La Concepción,La Concepción Coatipac","latitude":"19.18188","longitude":"-99.56833","feature_class":"P","feature_code":"PPL","country_code":"MX","cc2":"","admin1_code":"15","admin2_code":"018","admin3_code":"","admin4_code":"","population":"2163","elevation":"","dem":"2595","timezone":"America/Mexico_City","modification_date":"2013-08-01"},{"geonameid":"3526056","name":"La Ceiba","asciiname":"La Ceiba","alternatenames":"La Ceiba","latitude":"20.75287","longitude":"-97.9084","feature_class":"P","feature_code":"PPL","country_code":"MX","cc2":"","admin1_code":"30","admin2_code":"","admin3_code":"","admin4_code":"","population":"10190","elevation":"","dem":"110","timezone":"America/Mexico_City","modification_date":"2014-04-06"},{"geonameid":"3526275","name":"Komchén","asciiname":"Komchen","alternatenames":"Komchen,Komchén","latitude":"21.10342","longitude":"-89.66242","feature_class":"P","feature_code":"PPL","country_code":"MX","cc2":"","admin1_code":"31","admin2_code":"050","admin3_code":"","admin4_code":"","population":"4259","elevation":"","dem":"9","timezone":"America/Merida","modification_date":"2014-06-05"},{"geonameid":"3526284","name":"Kinchil","asciiname":"Kinchil","alternatenames":"Kinchil","latitude":"20.91519","longitude":"-89.94825","feature_class":"P","feature_code":"PPL","country_code":"MX","cc2":"","admin1_code":"31","admin2_code":"044","admin3_code":"","admin4_code":"","population":"5634","elevation":"","dem":"7","timezone":"America/Merida","modification_date":"2015-06-22"},{"geonameid":"3526301","name":"Kantunil","asciiname":"Kantunil","alternatenames":"Kantunil","latitude":"20.79645","longitude":"-89.03539","feature_class":"P","feature_code":"PPL","country_code":"MX","cc2":"","admin1_code":"31","admin2_code":"042","admin3_code":"","admin4_code":"","population":"3491","elevation":"","dem":"18","timezone":"America/Merida","modification_date":"2014-06-05"},{"geonameid":"3526323","name":"Kanasín","asciiname":"Kanasin","alternatenames":"Kanacin,Kanacín,Kanasin,Kanasín,Kanazin","latitude":"20.93482","longitude":"-89.55871","feature_class":"P","feature_code":"PPLA2","country_code":"MX","cc2":"","admin1_code":"31","admin2_code":"041","admin3_code":"","admin4_code":"","population":"77240","elevation":"","dem":"12","timezone":"America/Merida","modification_date":"2014-06-05"},{"geonameid":"3526355","name":"Juchitepec de Mariano Riva Palacio","asciiname":"Juchitepec de Mariano Riva Palacio","alternatenames":"Juchitepec,Juchitepec de Mariano Riva Palacio,Xuchitepec","latitude":"19.10224","longitude":"-98.87987","feature_class":"P","feature_code":"PPLA2","country_code":"MX","cc2":"","admin1_code":"15","admin2_code":"050","admin3_code":"","admin4_code":"","population":"14870","elevation":"","dem":"2543","timezone":"America/Mexico_City","modification_date":"2015-06-22"},{"geonameid":"3526357","name":"Juchitán de Zaragoza","asciiname":"Juchitan de Zaragoza","alternatenames":"Juchitan,Juchitan de Zaragoza,Juchitán,Juchitán de Zaragoza,Khuchitan-de-Saragosa,Opstina Heroica Ciudad de Juchitan de Zaragoza,Opština Heroica Ciudad de Juchitán de Zaragoza,Xochitlan Zaragoza,Хучитан-де-Сарагоса","latitude":"16.43603","longitude":"-95.01975","feature_class":"P","feature_code":"PPLA2","country_code":"MX","cc2":"","admin1_code":"20","admin2_code":"043","admin3_code":"","admin4_code":"","population":"67637","elevation":"","dem":"23","timezone":"America/Mexico_City","modification_date":"2015-06-22"},{"geonameid":"3526359","name":"Juchique de Ferrer","asciiname":"Juchique de Ferrer","alternatenames":"Juchique de Ferrer","latitude":"19.83985","longitude":"-96.69463","feature_class":"P","feature_code":"PPLA2","country_code":"MX","cc2":"","admin1_code":"30","admin2_code":"095","admin3_code":"","admin4_code":"","population":"0","elevation":"","dem":"385","timezone":"America/Mexico_City","modification_date":"2015-06-22"},{"geonameid":"3526378","name":"Colonia Juárez","asciiname":"Colonia Juarez","alternatenames":"","latitude":"16.20967","longitude":"-95.02722","feature_class":"P","feature_code":"PPL","country_code":"MX","cc2":"","admin1_code":"20","admin2_code":"248","admin3_code":"","admin4_code":"","population":"2803","elevation":"","dem":"8","timezone":"America/Mexico_City","modification_date":"2013-08-01"},{"geonameid":"3526391","name":"Juan Marcos (San José Buenavista)","asciiname":"Juan Marcos (San Jose Buenavista)","alternatenames":"","latitude":"19.72917","longitude":"-97.19667","feature_class":"P","feature_code":"PPL","country_code":"MX","cc2":"","admin1_code":"30","admin2_code":"010","admin3_code":"","admin4_code":"","population":"2777","elevation":"","dem":"2196","timezone":"America/Mexico_City","modification_date":"2013-08-01"},{"geonameid":"3526450","name":"Joquicingo de León Guzmán","asciiname":"Joquicingo de Leon Guzman","alternatenames":"Joquicingo,Joquicingo de Leon Guzman,Joquicingo de León Guzmán","latitude":"19.05032","longitude":"-99.53375","feature_class":"P","feature_code":"PPLA2","country_code":"MX","cc2":"","admin1_code":"17","admin2_code":"","admin3_code":"","admin4_code":"","population":"4206","elevation":"","dem":"2635","timezone":"America/Mexico_City","modification_date":"2014-09-05"},{"geonameid":"3526453","name":"Jonuta","asciiname":"Jonuta","alternatenames":"Jonuta","latitude":"18.08984","longitude":"-92.13807","feature_class":"P","feature_code":"PPLA2","country_code":"MX","cc2":"","admin1_code":"27","admin2_code":"011","admin3_code":"","admin4_code":"","population":"6483","elevation":"","dem":"8","timezone":"America/Mexico_City","modification_date":"2015-06-22"},{"geonameid":"3526454","name":"Jonotla","asciiname":"Jonotla","alternatenames":"Jonotla,Opstina Jonotla,Opština Jonotla","latitude":"20.03032","longitude":"-97.5753","feature_class":"P","feature_code":"PPLA2","country_code":"MX","cc2":"","admin1_code":"21","admin2_code":"088","admin3_code":"","admin4_code":"","population":"1084","elevation":"","dem":"1011","timezone":"America/Mexico_City","modification_date":"2014-06-05"},{"geonameid":"3526458","name":"Jonacatepec de Leandro Valle","asciiname":"Jonacatepec de Leandro Valle","alternatenames":"Jonacatepec,Jonacatepec de Leandro Valle","latitude":"18.68308","longitude":"-98.80302","feature_class":"P","feature_code":"PPL","country_code":"MX","cc2":"","admin1_code":"17","admin2_code":"013","admin3_code":"","admin4_code":"","population":"8252","elevation":"","dem":"1346","timezone":"America/Mexico_City","modification_date":"2015-06-22"},{"geonameid":"3526467","name":"Jojutla","asciiname":"Jojutla","alternatenames":"Jojutla,Jojutla de Juarez,Jojutla de Juárez","latitude":"18.61472","longitude":"-99.18028","feature_class":"P","feature_code":"PPL","country_code":"MX","cc2":"","admin1_code":"17","admin2_code":"012","admin3_code":"","admin4_code":"","population":"18867","elevation":"","dem":"896","timezone":"America/Mexico_City","modification_date":"2013-08-01"},{"geonameid":"3526473","name":"Jocotitlán","asciiname":"Jocotitlan","alternatenames":"Jocotitlan,Jocotitlán,Xocotitlan,Xocotitlán","latitude":"19.71068","longitude":"-99.78831","feature_class":"P","feature_code":"PPL","country_code":"MX","cc2":"","admin1_code":"15","admin2_code":"048","admin3_code":"","admin4_code":"","population":"7610","elevation":"","dem":"2673","timezone":"America/Mexico_City","modification_date":"2015-06-22"},{"geonameid":"3526485","name":"Jiutepec","asciiname":"Jiutepec","alternatenames":"Jiutepec,Xiutepec","latitude":"18.88139","longitude":"-99.17778","feature_class":"P","feature_code":"PPL","country_code":"MX","cc2":"","admin1_code":"17","admin2_code":"011","admin3_code":"","admin4_code":"","population":"162427","elevation":"","dem":"1361","timezone":"America/Mexico_City","modification_date":"2013-07-31"},{"geonameid":"3526486","name":"Jitotol de Zaragoza","asciiname":"Jitotol de Zaragoza","alternatenames":"Jitotol,Jitotol de Zaragoza","latitude":"17.06723","longitude":"-92.86111","feature_class":"P","feature_code":"PPL","country_code":"MX","cc2":"","admin1_code":"05","admin2_code":"047","admin3_code":"","admin4_code":"","population":"3278","elevation":"","dem":"1662","timezone":"America/Mexico_City","modification_date":"2015-06-22"},{"geonameid":"3526487","name":"Jiquipilco","asciiname":"Jiquipilco","alternatenames":"Jiquipilco,San Juan Jiquipilco,Xiquipilco","latitude":"19.55713","longitude":"-99.60772","feature_class":"P","feature_code":"PPL","country_code":"MX","cc2":"","admin1_code":"15","admin2_code":"047","admin3_code":"","admin4_code":"","population":"1938","elevation":"","dem":"2756","timezone":"America/Mexico_City","modification_date":"2013-07-31"},{"geonameid":"3526488","name":"Jiquipilas","asciiname":"Jiquipilas","alternatenames":"Jianipilas,Jiquipilas,Jiquipilla","latitude":"16.66806","longitude":"-93.64667","feature_class":"P","feature_code":"PPL","country_code":"MX","cc2":"","admin1_code":"05","admin2_code":"046","admin3_code":"","admin4_code":"","population":"9894","elevation":"","dem":"531","timezone":"America/Mexico_City","modification_date":"2013-07-31"},{"geonameid":"3526499","name":"Jilotzingo","asciiname":"Jilotzingo","alternatenames":"Jilotaingo,Jilotzingo,San Marcos Jilotzingo","latitude":"19.86889","longitude":"-99.06194","feature_class":"P","feature_code":"PPL","country_code":"MX","cc2":"","admin1_code":"15","admin2_code":"036","admin3_code":"","admin4_code":"","population":"8523","elevation":"","dem":"2328","timezone":"America/Mexico_City","modification_date":"2013-08-01"},{"geonameid":"3526501","name":"Jilotepec de Molina Enríquez","asciiname":"Jilotepec de Molina Enriquez","alternatenames":"Jilotepec,Jilotepec de Abasolo","latitude":"19.95194","longitude":"-99.53278","feature_class":"P","feature_code":"PPL","country_code":"MX","cc2":"","admin1_code":"15","admin2_code":"045","admin3_code":"","admin4_code":"","population":"11828","elevation":"","dem":"2451","timezone":"America/Mexico_City","modification_date":"2013-08-01"},{"geonameid":"3526505","name":"Jilotepec","asciiname":"Jilotepec","alternatenames":"Jilotepec","latitude":"19.61184","longitude":"-96.95169","feature_class":"P","feature_code":"PPL","country_code":"MX","cc2":"","admin1_code":"30","admin2_code":"093","admin3_code":"","admin4_code":"","population":"3219","elevation":"","dem":"1382","timezone":"America/Mexico_City","modification_date":"2015-06-22"},{"geonameid":"3526536","name":"Jesús del Monte","asciiname":"Jesus del Monte","alternatenames":"Jesus del Monte,Jesús del Monte","latitude":"19.12089","longitude":"-99.98786","feature_class":"P","feature_code":"PPL","country_code":"MX","cc2":"","admin1_code":"15","admin2_code":"086","admin3_code":"","admin4_code":"","population":"9649","elevation":"","dem":"2416","timezone":"America/Mexico_City","modification_date":"2015-06-22"},{"geonameid":"3526538","name":"Jesús Carranza","asciiname":"Jesus Carranza","alternatenames":"Jesus Carranza,Jesús Carranza,Santa Lucrecia","latitude":"17.43526","longitude":"-95.02637","feature_class":"P","feature_code":"PPL","country_code":"MX","cc2":"","admin1_code":"30","admin2_code":"091","admin3_code":"","admin4_code":"","population":"3615","elevation":"","dem":"41","timezone":"America/Mexico_City","modification_date":"2015-06-22"},{"geonameid":"3526560","name":"San Juan Bautista Jayacatlán","asciiname":"San Juan Bautista Jayacatlan","alternatenames":"Jayacatlan,Jayacatlán,San Juan Bautista Jayacatlan,San Juan Bautista Jayacatlán","latitude":"17.42443","longitude":"-96.82309","feature_class":"P","feature_code":"PPLA2","country_code":"MX","cc2":"","admin1_code":"20","admin2_code":"179","admin3_code":"","admin4_code":"","population":"0","elevation":"","dem":"1277","timezone":"America/Mexico_City","modification_date":"2015-06-22"},{"geonameid":"3526564","name":"Jaumave","asciiname":"Jaumave","alternatenames":"Jaumave","latitude":"23.40621","longitude":"-99.38072","feature_class":"P","feature_code":"PPL","country_code":"MX","cc2":"","admin1_code":"28","admin2_code":"017","admin3_code":"","admin4_code":"","population":"4421","elevation":"","dem":"753","timezone":"America/Monterrey","modification_date":"2015-06-22"},{"geonameid":"3526584","name":"Jantetelco","asciiname":"Jantetelco","alternatenames":"Jantetelco","latitude":"18.71694","longitude":"-98.77635","feature_class":"P","feature_code":"PPL","country_code":"MX","cc2":"","admin1_code":"17","admin2_code":"010","admin3_code":"","admin4_code":"","population":"4514","elevation":"","dem":"1436","timezone":"America/Mexico_City","modification_date":"2015-06-22"},{"geonameid":"3526588","name":"Jamapa","asciiname":"Jamapa","alternatenames":"Jamapa","latitude":"19.04179","longitude":"-96.24143","feature_class":"P","feature_code":"PPL","country_code":"MX","cc2":"","admin1_code":"30","admin2_code":"090","admin3_code":"","admin4_code":"","population":"3815","elevation":"","dem":"23","timezone":"America/Mexico_City","modification_date":"2015-06-22"},{"geonameid":"3526591","name":"Jaltocan","asciiname":"Jaltocan","alternatenames":"Jaltocan,Jaltocán,Xaltocan","latitude":"21.13284","longitude":"-98.53898","feature_class":"P","feature_code":"PPL","country_code":"MX","cc2":"","admin1_code":"13","admin2_code":"032","admin3_code":"","admin4_code":"","population":"5641","elevation":"","dem":"207","timezone":"America/Mexico_City","modification_date":"2015-06-22"},{"geonameid":"3526599","name":"Jaltepec","asciiname":"Jaltepec","alternatenames":"Jaltepec,Xaltepec","latitude":"19.7296","longitude":"-98.63456","feature_class":"P","feature_code":"PPL","country_code":"MX","cc2":"","admin1_code":"17","admin2_code":"","admin3_code":"","admin4_code":"","population":"5275","elevation":"","dem":"2539","timezone":"America/Mexico_City","modification_date":"2014-06-05"},{"geonameid":"3526600","name":"Jaltenco","asciiname":"Jaltenco","alternatenames":"Jaltenco,Jaltengo,San Andres Jaltenco,San Andres Jaltengo,San Andrés Jaltenco,San Andrés Jaltengo,Xaltenco","latitude":"19.75399","longitude":"-99.09367","feature_class":"P","feature_code":"PPLA2","country_code":"MX","cc2":"","admin1_code":"17","admin2_code":"","admin3_code":"","admin4_code":"","population":"9603","elevation":"","dem":"2252","timezone":"America/Mexico_City","modification_date":"2014-06-05"},{"geonameid":"3526601","name":"Jalpan","asciiname":"Jalpan","alternatenames":"Jalpan","latitude":"21.21802","longitude":"-99.47152","feature_class":"P","feature_code":"PPLA2","country_code":"MX","cc2":"","admin1_code":"22","admin2_code":"009","admin3_code":"","admin4_code":"","population":"9291","elevation":"","dem":"744","timezone":"America/Mexico_City","modification_date":"2015-06-22"},{"geonameid":"3526603","name":"Jalpa de Méndez","asciiname":"Jalpa de Mendez","alternatenames":"Jalpa,Jalpa de Mendez,Jalpa de Méndez","latitude":"18.17633","longitude":"-93.063","feature_class":"P","feature_code":"PPLA2","country_code":"MX","cc2":"","admin1_code":"27","admin2_code":"010","admin3_code":"","admin4_code":"","population":"15320","elevation":"","dem":"12","timezone":"America/Mexico_City","modification_date":"2015-06-22"},{"geonameid":"3526610","name":"Jalcomulco","asciiname":"Jalcomulco","alternatenames":"Jalcomulco,Jalconiulco","latitude":"19.33185","longitude":"-96.7625","feature_class":"P","feature_code":"PPLA2","country_code":"MX","cc2":"","admin1_code":"30","admin2_code":"088","admin3_code":"","admin4_code":"","population":"0","elevation":"","dem":"350","timezone":"America/Mexico_City","modification_date":"2015-06-22"},{"geonameid":"3526611","name":"Xalatlaco","asciiname":"Xalatlaco","alternatenames":"Jalatiaco,Jalatlaco,Xalatlaco","latitude":"19.18314","longitude":"-99.41844","feature_class":"P","feature_code":"PPLA2","country_code":"MX","cc2":"","admin1_code":"15","admin2_code":"043","admin3_code":"","admin4_code":"","population":"13663","elevation":"","dem":"2770","timezone":"America/Mexico_City","modification_date":"2015-06-22"},{"geonameid":"3526613","name":"Jalapilla","asciiname":"Jalapilla","alternatenames":"Jalapilla,Jalapillo","latitude":"18.82642","longitude":"-97.08865","feature_class":"P","feature_code":"PPL","country_code":"MX","cc2":"","admin1_code":"30","admin2_code":"135","admin3_code":"","admin4_code":"","population":"5561","elevation":"","dem":"1160","timezone":"America/Mexico_City","modification_date":"2016-03-10"},{"geonameid":"3526617","name":"Xalapa de Enríquez","asciiname":"Xalapa de Enriquez","alternatenames":"JAL,Jalapa,Jalapa Enriques,Jalapa Enriquez,Jalapa Enríquez,Xalapa,Xalapa de Enriquez,Xalapa de Enríquez,Xalapa-Enriquez,Xalapa-Enríquez","latitude":"19.53124","longitude":"-96.91589","feature_class":"P","feature_code":"PPLA","country_code":"MX","cc2":"","admin1_code":"30","admin2_code":"087","admin3_code":"","admin4_code":"","population":"425148","elevation":"","dem":"1396","timezone":"America/Mexico_City","modification_date":"2013-11-24"},{"geonameid":"3526621","name":"Jalapa","asciiname":"Jalapa","alternatenames":"Jalapa,Jalapa de Diaz,Khalapa,Халапа","latitude":"16.5","longitude":"-95.46667","feature_class":"P","feature_code":"PPL","country_code":"MX","cc2":"","admin1_code":"20","admin2_code":"418","admin3_code":"","admin4_code":"","population":"8289","elevation":"","dem":"126","timezone":"America/Mexico_City","modification_date":"2015-06-22"},{"geonameid":"3526625","name":"Jalacingo","asciiname":"Jalacingo","alternatenames":"Jalacingo","latitude":"19.80333","longitude":"-97.3083","feature_class":"P","feature_code":"PPLA2","country_code":"MX","cc2":"","admin1_code":"21","admin2_code":"","admin3_code":"","admin4_code":"","population":"10216","elevation":"","dem":"1889","timezone":"America/Mexico_City","modification_date":"2014-04-30"},{"geonameid":"3526646","name":"Jacala","asciiname":"Jacala","alternatenames":"Jacala,Jacala de Ledesma,Xacala","latitude":"21.00952","longitude":"-99.19134","feature_class":"P","feature_code":"PPL","country_code":"MX","cc2":"","admin1_code":"13","admin2_code":"031","admin3_code":"","admin4_code":"","population":"3908","elevation":"","dem":"1360","timezone":"America/Mexico_City","modification_date":"2015-06-22"},{"geonameid":"3526657","name":"Izúcar de Matamoros","asciiname":"Izucar de Matamoros","alternatenames":"Isukar-de-Matamoros,Izucar,Izucar de Matamoros,Izúcar,Izúcar de Matamoros,Matamoros,Matamoros de Izucar,Matamoros de Izúcar,Исукар-де-Матаморос","latitude":"18.60157","longitude":"-98.46152","feature_class":"P","feature_code":"PPLA2","country_code":"MX","cc2":"","admin1_code":"21","admin2_code":"085","admin3_code":"","admin4_code":"","population":"42936","elevation":"","dem":"1287","timezone":"America/Mexico_City","modification_date":"2016-03-10"},{"geonameid":"3526661","name":"1ra. Sección de Izapa","asciiname":"1ra. Seccion de Izapa","alternatenames":"Izapa","latitude":"14.92083","longitude":"-92.17083","feature_class":"P","feature_code":"PPL","country_code":"MX","cc2":"","admin1_code":"05","admin2_code":"102","admin3_code":"","admin4_code":"","population":"1329","elevation":"","dem":"279","timezone":"America/Mexico_City","modification_date":"2014-04-11"},{"geonameid":"3526662","name":"Izamal","asciiname":"Izamal","alternatenames":"Izamal","latitude":"20.93537","longitude":"-89.01802","feature_class":"P","feature_code":"PPL","country_code":"MX","cc2":"","admin1_code":"31","admin2_code":"040","admin3_code":"","admin4_code":"","population":"14954","elevation":"","dem":"15","timezone":"America/Merida","modification_date":"2015-06-22"},{"geonameid":"3526670","name":"Ixtlahuaca de Rayón","asciiname":"Ixtlahuaca de Rayon","alternatenames":"Ixtlahuaca,Ixtlahuaca de Rayon,Ixtlahuaca de Rayón","latitude":"19.56889","longitude":"-99.76694","feature_class":"P","feature_code":"PPL","country_code":"MX","cc2":"MX","admin1_code":"15","admin2_code":"042","admin3_code":"","admin4_code":"","population":"6934","elevation":"","dem":"2553","timezone":"America/Mexico_City","modification_date":"2013-07-31"},{"geonameid":"3526674","name":"San Jerónimo Ixtepec","asciiname":"San Jeronimo Ixtepec","alternatenames":"IZT,Ixtepec,San Geronimo Ixtepec","latitude":"16.57855","longitude":"-95.10223","feature_class":"P","feature_code":"PPL","country_code":"MX","cc2":"","admin1_code":"20","admin2_code":"014","admin3_code":"","admin4_code":"","population":"23150","elevation":"","dem":"65","timezone":"America/Mexico_City","modification_date":"2015-06-22"},{"geonameid":"3526681","name":"Ixtapan de la Sal","asciiname":"Ixtapan de la Sal","alternatenames":"Ixtapan de la Sal","latitude":"18.84369","longitude":"-99.67671","feature_class":"P","feature_code":"PPLA2","country_code":"MX","cc2":"","admin1_code":"15","admin2_code":"040","admin3_code":"","admin4_code":"","population":"17648","elevation":"","dem":"1871","timezone":"America/Mexico_City","modification_date":"2015-06-22"},{"geonameid":"3526682","name":"Ixtapaluca","asciiname":"Ixtapaluca","alternatenames":"Ixtapaluca,Iztapaluca","latitude":"19.31556","longitude":"-98.88284","feature_class":"P","feature_code":"PPL","country_code":"MX","cc2":"","admin1_code":"15","admin2_code":"039","admin3_code":"","admin4_code":"","population":"351001","elevation":"","dem":"2253","timezone":"America/Mexico_City","modification_date":"2015-06-22"},{"geonameid":"3526683","name":"Iztapalapa","asciiname":"Iztapalapa","alternatenames":"Delegazione Iztapalapa,Istapalapa,Ixtapalapa,Iztaoalaoa,Iztapalapa,Iztapalapan,Iztapalāpan,yi si ta pa la pa,Истапалапа,伊斯塔帕拉帕","latitude":"19.35738","longitude":"-99.0671","feature_class":"P","feature_code":"PPL","country_code":"MX","cc2":"","admin1_code":"09","admin2_code":"007","admin3_code":"","admin4_code":"","population":"1820888","elevation":"","dem":"2239","timezone":"America/Mexico_City","modification_date":"2015-06-22"},{"geonameid":"3526687","name":"Ixtapa","asciiname":"Ixtapa","alternatenames":"Ixtapa","latitude":"16.80368","longitude":"-92.90626","feature_class":"P","feature_code":"PPL","country_code":"MX","cc2":"","admin1_code":"05","admin2_code":"044","admin3_code":"","admin4_code":"","population":"4559","elevation":"","dem":"1112","timezone":"America/Mexico_City","modification_date":"2015-06-22"},{"geonameid":"3526696","name":"Ixtaczoquitlán","asciiname":"Ixtaczoquitlan","alternatenames":"Ixtac Zoquitlan,Ixtac Zoquitlán,Ixtaczoquitlan,Ixtaczoquitlán","latitude":"18.85364","longitude":"-97.06229","feature_class":"P","feature_code":"PPLA2","country_code":"MX","cc2":"","admin1_code":"30","admin2_code":"085","admin3_code":"","admin4_code":"","population":"23522","elevation":"","dem":"1130","timezone":"America/Mexico_City","modification_date":"2016-03-10"},{"geonameid":"3526698","name":"Ixtacomitán","asciiname":"Ixtacomitan","alternatenames":"Ixtacomitan,Ixtacomitán","latitude":"17.43093","longitude":"-93.09704","feature_class":"P","feature_code":"PPL","country_code":"MX","cc2":"","admin1_code":"05","admin2_code":"043","admin3_code":"","admin4_code":"","population":"4478","elevation":"","dem":"154","timezone":"America/Mexico_City","modification_date":"2015-06-22"},{"geonameid":"3526699","name":"Ixtacamaxtitlán","asciiname":"Ixtacamaxtitlan","alternatenames":"Ixtacamaxtitlan,Ixtacamaxtitlán,San Francisco","latitude":"19.62352","longitude":"-97.81539","feature_class":"P","feature_code":"PPLA2","country_code":"MX","cc2":"","admin1_code":"21","admin2_code":"083","admin3_code":"","admin4_code":"","population":"0","elevation":"","dem":"2117","timezone":"America/Mexico_City","modification_date":"2016-01-07"},{"geonameid":"3526700","name":"Iztacalco","asciiname":"Iztacalco","alternatenames":"Delegacion de Ixtacalco,Delegación de Ixtacalco,Ixtacalco,Iztacalco","latitude":"19.39528","longitude":"-99.09778","feature_class":"P","feature_code":"PPL","country_code":"MX","cc2":"MX","admin1_code":"09","admin2_code":"006","admin3_code":"","admin4_code":"","population":"384326","elevation":"","dem":"2239","timezone":"America/Mexico_City","modification_date":"2013-07-31"},{"geonameid":"3526708","name":"Ixmiquilpan","asciiname":"Ixmiquilpan","alternatenames":"Iximiquilpan,Ixmiquilpan","latitude":"20.47841","longitude":"-99.21697","feature_class":"P","feature_code":"PPLA2","country_code":"MX","cc2":"","admin1_code":"13","admin2_code":"030","admin3_code":"","admin4_code":"","population":"32474","elevation":"","dem":"1711","timezone":"America/Mexico_City","modification_date":"2015-06-22"},{"geonameid":"3526711","name":"Ixil","asciiname":"Ixil","alternatenames":"Ixil","latitude":"21.15235","longitude":"-89.48182","feature_class":"P","feature_code":"PPLA2","country_code":"MX","cc2":"","admin1_code":"31","admin2_code":"039","admin3_code":"","admin4_code":"","population":"3728","elevation":"","dem":"7","timezone":"America/Merida","modification_date":"2014-06-05"},{"geonameid":"3526713","name":"Ixhuatlán del Café","asciiname":"Ixhuatlan del Cafe","alternatenames":"Ixhuatlan,Ixhuatlan del Cafe,Ixhuatlan-Cordoba,Ixhuatlán,Ixhuatlán del Café,Ixhuatlán-Córdoba","latitude":"19.05118","longitude":"-96.98391","feature_class":"P","feature_code":"PPLA2","country_code":"MX","cc2":"","admin1_code":"30","admin2_code":"080","admin3_code":"","admin4_code":"","population":"0","elevation":"","dem":"1355","timezone":"America/Mexico_City","modification_date":"2015-06-22"},{"geonameid":"3526714","name":"Ixhuatlancillo","asciiname":"Ixhuatlancillo","alternatenames":"Ixhuatlancillo","latitude":"18.89766","longitude":"-97.14899","feature_class":"P","feature_code":"PPLA2","country_code":"MX","cc2":"","admin1_code":"30","admin2_code":"081","admin3_code":"","admin4_code":"","population":"4680","elevation":"","dem":"1446","timezone":"America/Mexico_City","modification_date":"2016-03-10"},{"geonameid":"3526715","name":"San Francisco Ixhuatan","asciiname":"San Francisco Ixhuatan","alternatenames":"Ixhuatan,Ixhuatán,San Francisco Ixhuatan","latitude":"16.35109","longitude":"-94.48402","feature_class":"P","feature_code":"PPL","country_code":"MX","cc2":"","admin1_code":"20","admin2_code":"143","admin3_code":"","admin4_code":"","population":"5654","elevation":"","dem":"19","timezone":"America/Mexico_City","modification_date":"2015-06-22"},{"geonameid":"3526722","name":"Ixcatlán","asciiname":"Ixcatlan","alternatenames":"","latitude":"21.08134","longitude":"-98.53468","feature_class":"P","feature_code":"PPL","country_code":"MX","cc2":"","admin1_code":"13","admin2_code":"028","admin3_code":"","admin4_code":"","population":"1873","elevation":"","dem":"865","timezone":"America/Mexico_City","modification_date":"2013-07-31"},{"geonameid":"3526725","name":"Ixcatepec","asciiname":"Ixcatepec","alternatenames":"Ixcatepec,Santa Maria Ixcatepec","latitude":"21.23695","longitude":"-98.00689","feature_class":"P","feature_code":"PPL","country_code":"MX","cc2":"","admin1_code":"30","admin2_code":"078","admin3_code":"","admin4_code":"","population":"3975","elevation":"","dem":"208","timezone":"America/Mexico_City","modification_date":"2013-07-31"},{"geonameid":"3526730","name":"Ixcateopan de Cuauhtémoc","asciiname":"Ixcateopan de Cuauhtemoc","alternatenames":"Ichcateopan,Ixcateopan,Ixcateopan de Cuauhtemoc,Ixcateopan de Cuauhtémoc","latitude":"18.50139","longitude":"-99.79139","feature_class":"P","feature_code":"PPL","country_code":"MX","cc2":"MX","admin1_code":"12","admin2_code":"037","admin3_code":"","admin4_code":"","population":"2502","elevation":"","dem":"1827","timezone":"America/Mexico_City","modification_date":"2013-08-01"},{"geonameid":"3526733","name":"Ixcapuzalco","asciiname":"Ixcapuzalco","alternatenames":"Ixcapuzalco","latitude":"18.51204","longitude":"-99.88755","feature_class":"P","feature_code":"PPLA2","country_code":"MX","cc2":"","admin1_code":"12","admin2_code":"047","admin3_code":"","admin4_code":"","population":"0","elevation":"","dem":"1796","timezone":"America/Mexico_City","modification_date":"2016-03-10"},{"geonameid":"3526756","name":"Isla Mujeres","asciiname":"Isla Mujeres","alternatenames":"ISJ,Mujeres","latitude":"21.23114","longitude":"-86.73105","feature_class":"P","feature_code":"PPL","country_code":"MX","cc2":"","admin1_code":"23","admin2_code":"003","admin3_code":"","admin4_code":"","population":"12491","elevation":"","dem":"1","timezone":"America/Cancun","modification_date":"2015-06-22"},{"geonameid":"3526766","name":"Isla Aguada","asciiname":"Isla Aguada","alternatenames":"Aguada,Isla Aguada,Isla de Aguada,La Aguada","latitude":"18.78714","longitude":"-91.49277","feature_class":"P","feature_code":"PPL","country_code":"MX","cc2":"","admin1_code":"04","admin2_code":"003","admin3_code":"","admin4_code":"","population":"4440","elevation":"","dem":"2","timezone":"America/Merida","modification_date":"2015-06-22"},{"geonameid":"3526769","name":"Ixhuatán","asciiname":"Ixhuatan","alternatenames":"Ishuatan,Ishuatán,Ixhuatan,Ixhuatán","latitude":"17.29341","longitude":"-93.00829","feature_class":"P","feature_code":"PPL","country_code":"MX","cc2":"","admin1_code":"05","admin2_code":"042","admin3_code":"","admin4_code":"","population":"3392","elevation":"","dem":"459","timezone":"America/Mexico_City","modification_date":"2015-06-22"},{"geonameid":"3526798","name":"Iguala de la Independencia","asciiname":"Iguala de la Independencia","alternatenames":"Iguala,Iguala de la Independencia,Iguala-de-la-Independensija,aygwala,yi gua la zi zhi shi,Игуала-де-ла-Индепенденсия,ایگوالا,伊瓜拉自治市","latitude":"18.34536","longitude":"-99.5413","feature_class":"P","feature_code":"PPLA2","country_code":"MX","cc2":"","admin1_code":"12","admin2_code":"035","admin3_code":"","admin4_code":"","population":"112106","elevation":"","dem":"757","timezone":"America/Mexico_City","modification_date":"2016-03-10"},{"geonameid":"3526808","name":"Mixtequilla","asciiname":"Mixtequilla","alternatenames":"Ignacio de la Llave,Mixtequilla,San Cristobal Llave,San Cristobal de la Llave,San Cristóbal Llave","latitude":"18.7258","longitude":"-95.98696","feature_class":"P","feature_code":"PPL","country_code":"MX","cc2":"","admin1_code":"30","admin2_code":"075","admin3_code":"","admin4_code":"","population":"4888","elevation":"","dem":"12","timezone":"America/Mexico_City","modification_date":"2015-06-22"},{"geonameid":"3526816","name":"Itzincab Palomeque","asciiname":"Itzincab Palomeque","alternatenames":"Idzincab,Itzincab,Itzincab Palomeque","latitude":"20.91644","longitude":"-89.69823","feature_class":"P","feature_code":"PPL","country_code":"MX","cc2":"","admin1_code":"31","admin2_code":"101","admin3_code":"","admin4_code":"","population":"5013","elevation":"","dem":"9","timezone":"America/Merida","modification_date":"2015-06-22"},{"geonameid":"3526838","name":"Hunucmá","asciiname":"Hunucma","alternatenames":"Hunucma,Hunucmá","latitude":"21.01723","longitude":"-89.87551","feature_class":"P","feature_code":"PPLA2","country_code":"MX","cc2":"","admin1_code":"31","admin2_code":"038","admin3_code":"","admin4_code":"","population":"22288","elevation":"","dem":"6","timezone":"America/Merida","modification_date":"2015-06-22"},{"geonameid":"3526855","name":"Huixtla","asciiname":"Huixtla","alternatenames":"Huixtla","latitude":"15.1402","longitude":"-92.46587","feature_class":"P","feature_code":"PPL","country_code":"MX","cc2":"","admin1_code":"05","admin2_code":"040","admin3_code":"","admin4_code":"","population":"29257","elevation":"","dem":"46","timezone":"America/Mexico_City","modification_date":"2015-06-22"},{"geonameid":"3526857","name":"Huixtán","asciiname":"Huixtan","alternatenames":"Huistan,Huistán,Huixtan,Huixtán","latitude":"16.71062","longitude":"-92.45317","feature_class":"P","feature_code":"PPLA2","country_code":"MX","cc2":"","admin1_code":"05","admin2_code":"038","admin3_code":"","admin4_code":"","population":"0","elevation":"","dem":"2011","timezone":"America/Mexico_City","modification_date":"2015-06-22"},{"geonameid":"3526858","name":"Huixquilucan de Degollado","asciiname":"Huixquilucan de Degollado","alternatenames":"Huixouilucan de Degollado,Huixquilucan,Huixquilucan de Degollado","latitude":"19.36028","longitude":"-99.3498","feature_class":"P","feature_code":"PPLA2","country_code":"MX","cc2":"","admin1_code":"15","admin2_code":"037","admin3_code":"","admin4_code":"","population":"0","elevation":"","dem":"2712","timezone":"America/Mexico_City","modification_date":"2015-06-22"},{"geonameid":"3526864","name":"Ciudad de Huitzuco","asciiname":"Ciudad de Huitzuco","alternatenames":"Ciudad Huitzuco,Ciudad de Huitzuco,Huitzuco,Huitzuco de los Figueroa,Huizuco","latitude":"18.30334","longitude":"-99.33376","feature_class":"P","feature_code":"PPLA2","country_code":"MX","cc2":"","admin1_code":"12","admin2_code":"034","admin3_code":"","admin4_code":"","population":"16238","elevation":"","dem":"954","timezone":"America/Mexico_City","modification_date":"2016-03-10"},{"geonameid":"3526877","name":"Huitziltepec","asciiname":"Huitziltepec","alternatenames":"Huitziltepec,Huixiltepec","latitude":"17.75633","longitude":"-99.48013","feature_class":"P","feature_code":"PPL","country_code":"MX","cc2":"","admin1_code":"12","admin2_code":"075","admin3_code":"","admin4_code":"","population":"4419","elevation":"","dem":"1316","timezone":"America/Mexico_City","modification_date":"2015-06-22"},{"geonameid":"3526880","name":"Huitzilan","asciiname":"Huitzilan","alternatenames":"Huitzilan,Huitzilan de Serdan,Huitzilán de Serdán,Huitzitlan","latitude":"19.9675","longitude":"-97.69441","feature_class":"P","feature_code":"PPLA2","country_code":"MX","cc2":"","admin1_code":"21","admin2_code":"078","admin3_code":"","admin4_code":"","population":"0","elevation":"","dem":"922","timezone":"America/Mexico_City","modification_date":"2016-01-07"},{"geonameid":"3526883","name":"Huitzilac","asciiname":"Huitzilac","alternatenames":"Huitzilac","latitude":"19.02983","longitude":"-99.26788","feature_class":"P","feature_code":"PPL","country_code":"MX","cc2":"","admin1_code":"17","admin2_code":"009","admin3_code":"","admin4_code":"","population":"4328","elevation":"","dem":"2560","timezone":"America/Mexico_City","modification_date":"2015-06-22"},{"geonameid":"3526888","name":"Huitiupán","asciiname":"Huitiupan","alternatenames":"Huitiupan","latitude":"17.17174","longitude":"-92.68578","feature_class":"P","feature_code":"PPL","country_code":"MX","cc2":"","admin1_code":"05","admin2_code":"039","admin3_code":"","admin4_code":"","population":"2857","elevation":"","dem":"306","timezone":"America/Mexico_City","modification_date":"2013-08-01"},{"geonameid":"3526896","name":"Huixtepec","asciiname":"Huixtepec","alternatenames":"Huistepec,Huitepec,Huixtepec","latitude":"16.65361","longitude":"-98.30455","feature_class":"P","feature_code":"PPL","country_code":"MX","cc2":"","admin1_code":"12","admin2_code":"046","admin3_code":"","admin4_code":"","population":"3370","elevation":"","dem":"371","timezone":"America/Mexico_City","modification_date":"2013-08-01"},{"geonameid":"3526908","name":"Huimanguillo","asciiname":"Huimanguillo","alternatenames":"","latitude":"17.83386","longitude":"-93.39198","feature_class":"P","feature_code":"PPL","country_code":"MX","cc2":"","admin1_code":"27","admin2_code":"008","admin3_code":"","admin4_code":"","population":"26602","elevation":"","dem":"38","timezone":"America/Mexico_City","modification_date":"2015-06-22"},{"geonameid":"3526915","name":"Huiloapan de Cuauhtémoc","asciiname":"Huiloapan de Cuauhtemoc","alternatenames":"","latitude":"18.81722","longitude":"-97.15444","feature_class":"P","feature_code":"PPL","country_code":"MX","cc2":"","admin1_code":"30","admin2_code":"074","admin3_code":"","admin4_code":"","population":"4125","elevation":"","dem":"1289","timezone":"America/Mexico_City","modification_date":"2013-08-01"},{"geonameid":"3526916","name":"Huiloapan","asciiname":"Huiloapan","alternatenames":"","latitude":"18.75","longitude":"-97.31667","feature_class":"P","feature_code":"PPL","country_code":"MX","cc2":"","admin1_code":"30","admin2_code":"006","admin3_code":"","admin4_code":"","population":"3780","elevation":"","dem":"2248","timezone":"America/Mexico_City","modification_date":"2015-06-22"},{"geonameid":"3526923","name":"Huichapan","asciiname":"Huichapan","alternatenames":"Huichapan","latitude":"20.37593","longitude":"-99.64869","feature_class":"P","feature_code":"PPL","country_code":"MX","cc2":"","admin1_code":"13","admin2_code":"029","admin3_code":"","admin4_code":"","population":"8035","elevation":"","dem":"2107","timezone":"America/Mexico_City","modification_date":"2015-06-22"},{"geonameid":"3526924","name":"Huhi","asciiname":"Huhi","alternatenames":"Huhi,Huhí","latitude":"20.72603","longitude":"-89.16072","feature_class":"P","feature_code":"PPL","country_code":"MX","cc2":"","admin1_code":"31","admin2_code":"037","admin3_code":"","admin4_code":"","population":"4367","elevation":"","dem":"15","timezone":"America/Merida","modification_date":"2015-06-22"},{"geonameid":"3526927","name":"Hueytamalco","asciiname":"Hueytamalco","alternatenames":"Hueytamalco","latitude":"19.94029","longitude":"-97.28848","feature_class":"P","feature_code":"PPLA2","country_code":"MX","cc2":"","admin1_code":"21","admin2_code":"076","admin3_code":"","admin4_code":"","population":"4255","elevation":"","dem":"922","timezone":"America/Mexico_City","modification_date":"2015-06-22"},{"geonameid":"3526928","name":"Hueypoxtla","asciiname":"Hueypoxtla","alternatenames":"Hueypoxtla","latitude":"19.91301","longitude":"-99.07384","feature_class":"P","feature_code":"PPLA2","country_code":"MX","cc2":"","admin1_code":"17","admin2_code":"","admin3_code":"","admin4_code":"","population":"3566","elevation":"","dem":"2275","timezone":"America/Mexico_City","modification_date":"2014-06-05"},{"geonameid":"3526929","name":"Hueyotlipan","asciiname":"Hueyotlipan","alternatenames":"Hueyotlipan,Hueyotlipan de Hidalgo,San Ildefonso,San Ildefonso Hueyotlipan","latitude":"19.47088","longitude":"-98.34778","feature_class":"P","feature_code":"PPLA2","country_code":"MX","cc2":"","admin1_code":"29","admin2_code":"014","admin3_code":"","admin4_code":"","population":"4798","elevation":"","dem":"2580","timezone":"America/Mexico_City","modification_date":"2015-06-22"},{"geonameid":"3526932","name":"Hueyapan de Ocampo","asciiname":"Hueyapan de Ocampo","alternatenames":"Hueyapan","latitude":"18.14479","longitude":"-95.14873","feature_class":"P","feature_code":"PPL","country_code":"MX","cc2":"","admin1_code":"30","admin2_code":"073","admin3_code":"","admin4_code":"","population":"3541","elevation":"","dem":"44","timezone":"America/Mexico_City","modification_date":"2015-06-22"},{"geonameid":"3526934","name":"Hueyapan","asciiname":"Hueyapan","alternatenames":"Hueyapan","latitude":"18.88587","longitude":"-98.68948","feature_class":"P","feature_code":"PPL","country_code":"MX","cc2":"","admin1_code":"17","admin2_code":"022","admin3_code":"","admin4_code":"","population":"6353","elevation":"","dem":"2297","timezone":"America/Mexico_City","modification_date":"2015-06-22"},{"geonameid":"3526951","name":"Huepalcalco (San Miguel)","asciiname":"Huepalcalco (San Miguel)","alternatenames":"","latitude":"18.90889","longitude":"-98.75","feature_class":"P","feature_code":"PPL","country_code":"MX","cc2":"","admin1_code":"17","admin2_code":"016","admin3_code":"","admin4_code":"","population":"1094","elevation":"","dem":"2286","timezone":"America/Mexico_City","modification_date":"2013-08-01"},{"geonameid":"3526952","name":"Huejutla de Reyes","asciiname":"Huejutla de Reyes","alternatenames":"Huejutla,Huejutla de Reyes,Uehkhutla-de-Rejes,Уэхутла-де-Рейес","latitude":"21.14","longitude":"-98.41944","feature_class":"P","feature_code":"PPL","country_code":"MX","cc2":"","admin1_code":"13","admin2_code":"028","admin3_code":"","admin4_code":"","population":"40015","elevation":"","dem":"152","timezone":"America/Mexico_City","modification_date":"2013-07-31"},{"geonameid":"3526953","name":"Huejotzingo","asciiname":"Huejotzingo","alternatenames":"Huejotzingo","latitude":"19.15945","longitude":"-98.40734","feature_class":"P","feature_code":"PPLA2","country_code":"MX","cc2":"","admin1_code":"21","admin2_code":"074","admin3_code":"","admin4_code":"","population":"21763","elevation":"","dem":"2277","timezone":"America/Mexico_City","modification_date":"2015-06-22"},{"geonameid":"3526957","name":"Huehuetoca","asciiname":"Huehuetoca","alternatenames":"Huehuetoca","latitude":"19.83567","longitude":"-99.20131","feature_class":"P","feature_code":"PPL","country_code":"MX","cc2":"","admin1_code":"15","admin2_code":"035","admin3_code":"","admin4_code":"","population":"6951","elevation":"","dem":"2261","timezone":"America/Mexico_City","modification_date":"2015-06-22"},{"geonameid":"3526960","name":"Huehuetla","asciiname":"Huehuetla","alternatenames":"Huehuetla","latitude":"20.4605","longitude":"-98.07627","feature_class":"P","feature_code":"PPLA2","country_code":"MX","cc2":"","admin1_code":"13","admin2_code":"027","admin3_code":"","admin4_code":"","population":"0","elevation":"","dem":"426","timezone":"America/Mexico_City","modification_date":"2015-06-22"},{"geonameid":"3526961","name":"Huehuetla","asciiname":"Huehuetla","alternatenames":"Huehuetla,Huehuetlan","latitude":"20.10578","longitude":"-97.62517","feature_class":"P","feature_code":"PPLA2","country_code":"MX","cc2":"","admin1_code":"21","admin2_code":"072","admin3_code":"","admin4_code":"","population":"0","elevation":"","dem":"545","timezone":"America/Mexico_City","modification_date":"2015-06-22"},{"geonameid":"3526966","name":"Huehuetán","asciiname":"Huehuetan","alternatenames":"Huehuetan,Huehuetán","latitude":"15.01981","longitude":"-92.38249","feature_class":"P","feature_code":"PPL","country_code":"MX","cc2":"","admin1_code":"05","admin2_code":"037","admin3_code":"","admin4_code":"","population":"7265","elevation":"","dem":"64","timezone":"America/Mexico_City","modification_date":"2015-06-22"},{"geonameid":"3526976","name":"Huazuntlán","asciiname":"Huazuntlan","alternatenames":"Guasuntlan,Huazuntlan,Huazuntlán","latitude":"18.15667","longitude":"-94.79306","feature_class":"P","feature_code":"PPL","country_code":"MX","cc2":"MX","admin1_code":"30","admin2_code":"104","admin3_code":"","admin4_code":"","population":"3160","elevation":"","dem":"73","timezone":"America/Mexico_City","modification_date":"2013-07-31"},{"geonameid":"3526977","name":"Huazulco","asciiname":"Huazulco","alternatenames":"","latitude":"18.75309","longitude":"-98.77551","feature_class":"P","feature_code":"PPL","country_code":"MX","cc2":"","admin1_code":"17","admin2_code":"033","admin3_code":"","admin4_code":"","population":"3847","elevation":"","dem":"1541","timezone":"America/Mexico_City","modification_date":"2013-07-31"},{"geonameid":"3526987","name":"Huautla de Jiménez","asciiname":"Huautla de Jimenez","alternatenames":"Huautla","latitude":"18.1315","longitude":"-96.84088","feature_class":"P","feature_code":"PPL","country_code":"MX","cc2":"","admin1_code":"21","admin2_code":"","admin3_code":"","admin4_code":"","population":"9972","elevation":"","dem":"1696","timezone":"America/Mexico_City","modification_date":"2008-08-01"},{"geonameid":"3526989","name":"Huautla","asciiname":"Huautla","alternatenames":"Huautla","latitude":"21.03105","longitude":"-98.28685","feature_class":"P","feature_code":"PPL","country_code":"MX","cc2":"","admin1_code":"13","admin2_code":"025","admin3_code":"","admin4_code":"","population":"3407","elevation":"","dem":"521","timezone":"America/Mexico_City","modification_date":"2015-06-22"},{"geonameid":"3526992","name":"Huauchinango","asciiname":"Huauchinango","alternatenames":"Huauchinango","latitude":"20.17376","longitude":"-98.05491","feature_class":"P","feature_code":"PPLA2","country_code":"MX","cc2":"","admin1_code":"21","admin2_code":"071","admin3_code":"","admin4_code":"","population":"49852","elevation":"","dem":"1531","timezone":"America/Mexico_City","modification_date":"2015-06-22"},{"geonameid":"3526993","name":"Huatusco de Chicuellar","asciiname":"Huatusco de Chicuellar","alternatenames":"Huatusco,Huatusco de Chicuellar","latitude":"19.14876","longitude":"-96.9676","feature_class":"P","feature_code":"PPLA2","country_code":"MX","cc2":"","admin1_code":"30","admin2_code":"071","admin3_code":"","admin4_code":"","population":"29387","elevation":"","dem":"1290","timezone":"America/Mexico_City","modification_date":"2015-06-22"},{"geonameid":"3526995","name":"Huatlatlauca","asciiname":"Huatlatlauca","alternatenames":"Huatlatlahuac,Huatlatlahuca,Huatlatlauca","latitude":"18.68147","longitude":"-98.05042","feature_class":"P","feature_code":"PPLA2","country_code":"MX","cc2":"","admin1_code":"21","admin2_code":"070","admin3_code":"","admin4_code":"","population":"0","elevation":"","dem":"1580","timezone":"America/Mexico_City","modification_date":"2015-06-22"},{"geonameid":"3527006","name":"Huaquechula","asciiname":"Huaquechula","alternatenames":"Huaquechula","latitude":"18.77116","longitude":"-98.5446","feature_class":"P","feature_code":"PPLA2","country_code":"MX","cc2":"","admin1_code":"21","admin2_code":"069","admin3_code":"","admin4_code":"","population":"3380","elevation":"","dem":"1594","timezone":"America/Mexico_City","modification_date":"2016-03-10"},{"geonameid":"3527017","name":"Huamuxtitlán","asciiname":"Huamuxtitlan","alternatenames":"Huamuctitilan,Huamuxtitan,Huamuxtitlan,Huamuxtitlán","latitude":"17.80287","longitude":"-98.56417","feature_class":"P","feature_code":"PPL","country_code":"MX","cc2":"","admin1_code":"12","admin2_code":"033","admin3_code":"","admin4_code":"","population":"5921","elevation":"","dem":"893","timezone":"America/Mexico_City","modification_date":"2015-06-22"},{"geonameid":"3527021","name":"Hualahuises","asciiname":"Hualahuises","alternatenames":"Hualahuises","latitude":"24.88572","longitude":"-99.67439","feature_class":"P","feature_code":"PPL","country_code":"MX","cc2":"","admin1_code":"19","admin2_code":"029","admin3_code":"","admin4_code":"","population":"5439","elevation":"","dem":"409","timezone":"America/Monterrey","modification_date":"2015-06-22"},{"geonameid":"3527023","name":"Ciudad de Huajuapan de León","asciiname":"Ciudad de Huajuapan de Leon","alternatenames":"Ciudad de Huajuapam de Leon,Ciudad de Huajuapam de León,Huajuapam,Huajuapam de Leon,Huajuapan,Huajuapan de Leon,Huajuapan de León,Huajuápam,Huajuápam de León","latitude":"17.80787","longitude":"-97.77956","feature_class":"P","feature_code":"PPLA2","country_code":"MX","cc2":"","admin1_code":"20","admin2_code":"039","admin3_code":"","admin4_code":"","population":"47844","elevation":"","dem":"1594","timezone":"America/Mexico_City","modification_date":"2015-06-22"},{"geonameid":"3527042","name":"Ex-Hacienda el Hospital","asciiname":"Ex-Hacienda el Hospital","alternatenames":"","latitude":"18.83111","longitude":"-98.99667","feature_class":"P","feature_code":"PPL","country_code":"MX","cc2":"","admin1_code":"17","admin2_code":"006","admin3_code":"","admin4_code":"","population":"2053","elevation":"","dem":"1280","timezone":"America/Mexico_City","modification_date":"2013-08-01"},{"geonameid":"3527048","name":"Hornitos","asciiname":"Hornitos","alternatenames":"","latitude":"19.46083","longitude":"-96.42111","feature_class":"P","feature_code":"PPL","country_code":"MX","cc2":"","admin1_code":"30","admin2_code":"004","admin3_code":"","admin4_code":"","population":"1177","elevation":"","dem":"37","timezone":"America/Mexico_City","modification_date":"2013-08-01"},{"geonameid":"3527065","name":"Hopelchén","asciiname":"Hopelchen","alternatenames":"Hopelchen,Hopelchén","latitude":"19.74671","longitude":"-89.84437","feature_class":"P","feature_code":"PPLA2","country_code":"MX","cc2":"","admin1_code":"04","admin2_code":"006","admin3_code":"","admin4_code":"","population":"7021","elevation":"","dem":"88","timezone":"America/Merida","modification_date":"2015-06-22"},{"geonameid":"3527080","name":"Homun","asciiname":"Homun","alternatenames":"Homun,Homún","latitude":"20.73918","longitude":"-89.2849","feature_class":"P","feature_code":"PPL","country_code":"MX","cc2":"","admin1_code":"31","admin2_code":"036","admin3_code":"","admin4_code":"","population":"5423","elevation":"","dem":"15","timezone":"America/Merida","modification_date":"2015-06-22"},{"geonameid":"3527092","name":"Hoctun","asciiname":"Hoctun","alternatenames":"Hoctun,Hoctún","latitude":"20.86513","longitude":"-89.20125","feature_class":"P","feature_code":"PPL","country_code":"MX","cc2":"","admin1_code":"31","admin2_code":"035","admin3_code":"","admin4_code":"","population":"4916","elevation":"","dem":"17","timezone":"America/Merida","modification_date":"2015-06-22"},{"geonameid":"3527094","name":"Hocaba","asciiname":"Hocaba","alternatenames":"Hocaba,Hocabá","latitude":"20.8162","longitude":"-89.24626","feature_class":"P","feature_code":"PPL","country_code":"MX","cc2":"","admin1_code":"31","admin2_code":"034","admin3_code":"","admin4_code":"","population":"3866","elevation":"","dem":"21","timezone":"America/Merida","modification_date":"2015-06-22"},{"geonameid":"3527113","name":"Hidalgotitlán","asciiname":"Hidalgotitlan","alternatenames":"Hidalgotitlan,Hidalgotitlán","latitude":"17.77127","longitude":"-94.64713","feature_class":"P","feature_code":"PPL","country_code":"MX","cc2":"","admin1_code":"30","admin2_code":"070","admin3_code":"","admin4_code":"","population":"3770","elevation":"","dem":"27","timezone":"America/Mexico_City","modification_date":"2015-06-22"},{"geonameid":"3527117","name":"Hidalgo","asciiname":"Hidalgo","alternatenames":"","latitude":"26.05","longitude":"-98.2","feature_class":"P","feature_code":"PPL","country_code":"MX","cc2":"","admin1_code":"28","admin2_code":"032","admin3_code":"","admin4_code":"","population":"4810","elevation":"","dem":"33","timezone":"America/Matamoros","modification_date":"2015-06-22"},{"geonameid":"3527121","name":"Santa Cruz Hidalgo","asciiname":"Santa Cruz Hidalgo","alternatenames":"Hidalgo,Santa Cruz Hidalgo","latitude":"19.96663","longitude":"-96.87998","feature_class":"P","feature_code":"PPL","country_code":"MX","cc2":"","admin1_code":"30","admin2_code":"109","admin3_code":"","admin4_code":"","population":"5802","elevation":"","dem":"110","timezone":"America/Mexico_City","modification_date":"2015-06-22"},{"geonameid":"3527149","name":"Hecelchakán","asciiname":"Hecelchakan","alternatenames":"Hecelchacan,Hecelchakan,Hecelchakán","latitude":"20.17735","longitude":"-90.13357","feature_class":"P","feature_code":"PPLA2","country_code":"MX","cc2":"","admin1_code":"04","admin2_code":"005","admin3_code":"","admin4_code":"","population":"10153","elevation":"","dem":"12","timezone":"America/Merida","modification_date":"2015-06-22"},{"geonameid":"3527164","name":"Halachó","asciiname":"Halacho","alternatenames":"Halacho,Halachó","latitude":"20.4777","longitude":"-90.08104","feature_class":"P","feature_code":"PPLA2","country_code":"MX","cc2":"","admin1_code":"31","admin2_code":"033","admin3_code":"","admin4_code":"","population":"9165","elevation":"","dem":"10","timezone":"America/Merida","modification_date":"2015-06-22"},{"geonameid":"3527186","name":"Gutiérrez Zamora","asciiname":"Gutierrez Zamora","alternatenames":"Guetierrez Zamora,Gutierrez Zamora,Gutiérrez Zamora","latitude":"20.45347","longitude":"-97.08588","feature_class":"P","feature_code":"PPL","country_code":"MX","cc2":"","admin1_code":"30","admin2_code":"069","admin3_code":"","admin4_code":"","population":"14735","elevation":"","dem":"12","timezone":"America/Mexico_City","modification_date":"2015-06-22"},{"geonameid":"3527378","name":"Nuevo Juan del Grijalva","asciiname":"Nuevo Juan del Grijalva","alternatenames":"","latitude":"17.42722","longitude":"-93.37222","feature_class":"P","feature_code":"PPL","country_code":"MX","cc2":"","admin1_code":"05","admin2_code":"062","admin3_code":"","admin4_code":"","population":"1598","elevation":"","dem":"286","timezone":"America/Mexico_City","modification_date":"2013-08-01"},{"geonameid":"3527413","name":"Graciano Sánchez","asciiname":"Graciano Sanchez","alternatenames":"Graciano Sanchez,Graciano Sánchez","latitude":"23.92569","longitude":"-99.2961","feature_class":"P","feature_code":"PPL","country_code":"MX","cc2":"","admin1_code":"28","admin2_code":"013","admin3_code":"","admin4_code":"","population":"4411","elevation":"","dem":"302","timezone":"America/Monterrey","modification_date":"2015-06-22"},{"geonameid":"3527451","name":"General Teran","asciiname":"General Teran","alternatenames":"General Teran,General Terán","latitude":"25.25857","longitude":"-99.68371","feature_class":"P","feature_code":"PPL","country_code":"MX","cc2":"","admin1_code":"19","admin2_code":"022","admin3_code":"","admin4_code":"","population":"7487","elevation":"","dem":"316","timezone":"America/Monterrey","modification_date":"2015-06-22"},{"geonameid":"3527454","name":"Tancanhuitz de Santos","asciiname":"Tancanhuitz de Santos","alternatenames":"Ciudad Santos,General Pedro Antonio Santos,Pedro Antonio Santos,Pedro Antonio de Santos,Tancanhuitz,Tancanhuitz de Santos","latitude":"21.5979","longitude":"-98.96773","feature_class":"P","feature_code":"PPL","country_code":"MX","cc2":"","admin1_code":"24","admin2_code":"012","admin3_code":"","admin4_code":"","population":"3039","elevation":"","dem":"216","timezone":"America/Mexico_City","modification_date":"2015-06-22"},{"geonameid":"3527457","name":"General Bravo","asciiname":"General Bravo","alternatenames":"General Bravo","latitude":"25.79239","longitude":"-99.18147","feature_class":"P","feature_code":"PPLA2","country_code":"MX","cc2":"","admin1_code":"19","admin2_code":"020","admin3_code":"","admin4_code":"","population":"4073","elevation":"","dem":"130","timezone":"America/Monterrey","modification_date":"2015-06-22"},{"geonameid":"3527541","name":"Frontera Hidalgo","asciiname":"Frontera Hidalgo","alternatenames":"Frontera Hidalgo","latitude":"14.77744","longitude":"-92.17741","feature_class":"P","feature_code":"PPLA2","country_code":"MX","cc2":"","admin1_code":"05","admin2_code":"035","admin3_code":"","admin4_code":"","population":"3364","elevation":"","dem":"72","timezone":"America/Mexico_City","modification_date":"2016-01-07"},{"geonameid":"3527542","name":"Frontera Comalapa","asciiname":"Frontera Comalapa","alternatenames":"Comalapa,Frontera Comalapa,Laguna Camalapa","latitude":"15.66046","longitude":"-92.14282","feature_class":"P","feature_code":"PPL","country_code":"MX","cc2":"","admin1_code":"05","admin2_code":"034","admin3_code":"","admin4_code":"","population":"18704","elevation":"","dem":"658","timezone":"America/Mexico_City","modification_date":"2015-06-22"},{"geonameid":"3527545","name":"Frontera","asciiname":"Frontera","alternatenames":"Alvaro Obregon,Frontera,Ponta Frontera,Puerto Alvaro Obregon,Puerto Obregon,Puerto Álvaro Obregon,Álvaro Obregón,Фронтера","latitude":"18.54326","longitude":"-92.6453","feature_class":"P","feature_code":"PPL","country_code":"MX","cc2":"","admin1_code":"27","admin2_code":"003","admin3_code":"","admin4_code":"","population":"22621","elevation":"","dem":"5","timezone":"America/Mexico_City","modification_date":"2015-06-22"},{"geonameid":"3527582","name":"Francisco I. Madero","asciiname":"Francisco I. Madero","alternatenames":"Francisco I. Madero","latitude":"15.07099","longitude":"-92.54548","feature_class":"P","feature_code":"PPL","country_code":"MX","cc2":"","admin1_code":"05","admin2_code":"040","admin3_code":"","admin4_code":"","population":"1804","elevation":"","dem":"17","timezone":"America/Mexico_City","modification_date":"2014-09-05"},{"geonameid":"3527596","name":"Fortín de las Flores","asciiname":"Fortin de las Flores","alternatenames":"El Fortin,El Fortín,Fortin,Fortin de las Flores,Fortín,Fortín de las Flores","latitude":"18.90806","longitude":"-97","feature_class":"P","feature_code":"PPL","country_code":"MX","cc2":"","admin1_code":"30","admin2_code":"068","admin3_code":"","admin4_code":"","population":"21370","elevation":"","dem":"1048","timezone":"America/Mexico_City","modification_date":"2013-07-31"},{"geonameid":"3527600","name":"Fontezuelas","asciiname":"Fontezuelas","alternatenames":"","latitude":"20.48861","longitude":"-98.87306","feature_class":"P","feature_code":"PPL","country_code":"MX","cc2":"","admin1_code":"13","admin2_code":"037","admin3_code":"","admin4_code":"","population":"1236","elevation":"","dem":"2036","timezone":"America/Mexico_City","modification_date":"2013-07-31"},{"geonameid":"3527621","name":"Flor de Cacao","asciiname":"Flor de Cacao","alternatenames":"","latitude":"16.12889","longitude":"-90.45111","feature_class":"P","feature_code":"PPL","country_code":"MX","cc2":"","admin1_code":"05","admin2_code":"114","admin3_code":"","admin4_code":"","population":"1655","elevation":"","dem":"133","timezone":"America/Mexico_City","modification_date":"2013-07-31"},{"geonameid":"3527624","name":"Filomeno Mata","asciiname":"Filomeno Mata","alternatenames":"Filomeno Mata,Santo Domingo","latitude":"20.20004","longitude":"-97.70392","feature_class":"P","feature_code":"PPL","country_code":"MX","cc2":"","admin1_code":"21","admin2_code":"","admin3_code":"","admin4_code":"","population":"8973","elevation":"","dem":"705","timezone":"America/Mexico_City","modification_date":"2014-06-05"},{"geonameid":"3527639","name":"Felipe Carrillo Puerto","asciiname":"Felipe Carrillo Puerto","alternatenames":"Felipe Carillo Puerto,Felipe Carrillo Puerto,Santa Cruz de Bravo","latitude":"19.5775","longitude":"-88.04529","feature_class":"P","feature_code":"PPL","country_code":"MX","cc2":"","admin1_code":"23","admin2_code":"002","admin3_code":"","admin4_code":"","population":"23109","elevation":"","dem":"15","timezone":"America/Cancun","modification_date":"2015-06-22"},{"geonameid":"3527656","name":"Ezequiel Montes","asciiname":"Ezequiel Montes","alternatenames":"Corrat Blanco,Ezequiel Montes","latitude":"20.6646","longitude":"-99.89697","feature_class":"P","feature_code":"PPL","country_code":"MX","cc2":"","admin1_code":"22","admin2_code":"007","admin3_code":"","admin4_code":"","population":"12443","elevation":"","dem":"1982","timezone":"America/Mexico_City","modification_date":"2015-06-22"},{"geonameid":"3527679","name":"Puntilla Aldama","asciiname":"Puntilla Aldama","alternatenames":"Estero,Puntilla Aldama","latitude":"20.18915","longitude":"-96.90693","feature_class":"P","feature_code":"PPL","country_code":"MX","cc2":"","admin1_code":"30","admin2_code":"211","admin3_code":"","admin4_code":"","population":"4774","elevation":"","dem":"15","timezone":"America/Mexico_City","modification_date":"2015-06-22"},{"geonameid":"3527720","name":"Espita","asciiname":"Espita","alternatenames":"Ehspita,Espita,Эспита","latitude":"21.0101","longitude":"-88.30686","feature_class":"P","feature_code":"PPL","country_code":"MX","cc2":"","admin1_code":"31","admin2_code":"032","admin3_code":"","admin4_code":"","population":"9960","elevation":"","dem":"26","timezone":"America/Merida","modification_date":"2015-06-22"},{"geonameid":"3527737","name":"El Espinal","asciiname":"El Espinal","alternatenames":"El Espinal,Espinal,Santa Cruz","latitude":"16.48525","longitude":"-95.03995","feature_class":"P","feature_code":"PPLA2","country_code":"MX","cc2":"","admin1_code":"20","admin2_code":"030","admin3_code":"","admin4_code":"","population":"0","elevation":"","dem":"34","timezone":"America/Mexico_City","modification_date":"2015-06-22"},{"geonameid":"3527748","name":"San José Esperanza","asciiname":"San Jose Esperanza","alternatenames":"Esperanza,San Jose Esperanza,San José Esperanza","latitude":"18.86279","longitude":"-97.40628","feature_class":"P","feature_code":"PPL","country_code":"MX","cc2":"","admin1_code":"21","admin2_code":"063","admin3_code":"","admin4_code":"","population":"8190","elevation":"","dem":"2418","timezone":"America/Mexico_City","modification_date":"2015-06-22"},{"geonameid":"3527760","name":"Españita","asciiname":"Espanita","alternatenames":"Espanita,Españita","latitude":"19.46286","longitude":"-98.42434","feature_class":"P","feature_code":"PPLA2","country_code":"MX","cc2":"","admin1_code":"29","admin2_code":"012","admin3_code":"","admin4_code":"","population":"0","elevation":"","dem":"2653","timezone":"America/Mexico_City","modification_date":"2015-06-22"},{"geonameid":"3527768","name":"Escuintla","asciiname":"Escuintla","alternatenames":"Escuintla","latitude":"15.31944","longitude":"-92.65833","feature_class":"P","feature_code":"PPL","country_code":"MX","cc2":"","admin1_code":"05","admin2_code":"032","admin3_code":"","admin4_code":"","population":"9570","elevation":"","dem":"80","timezone":"America/Mexico_City","modification_date":"2013-08-01"},{"geonameid":"3527795","name":"Escárcega","asciiname":"Escarcega","alternatenames":"Ehskarsega,Escarcega de Matamoros,Francisco Escarcega,Francisco Escárcega,Kilometro 45,Kilómetro 45,Эскарсега","latitude":"18.60891","longitude":"-90.74544","feature_class":"P","feature_code":"PPL","country_code":"MX","cc2":"","admin1_code":"04","admin2_code":"009","admin3_code":"","admin4_code":"","population":"28159","elevation":"","dem":"83","timezone":"America/Merida","modification_date":"2015-06-22"},{"geonameid":"3527869","name":"Villa Emilio Carranza","asciiname":"Villa Emilio Carranza","alternatenames":"Emilio Carranza,Santa Barbara,Santa Bárbara,Villa Emilio Carranza","latitude":"19.9702","longitude":"-96.61162","feature_class":"P","feature_code":"PPL","country_code":"MX","cc2":"","admin1_code":"30","admin2_code":"192","admin3_code":"","admin4_code":"","population":"5887","elevation":"","dem":"65","timezone":"America/Mexico_City","modification_date":"2015-06-22"},{"geonameid":"3527876","name":"Emiliano Zapata","asciiname":"Emiliano Zapata","alternatenames":"Emiliano Zapata","latitude":"19.6549","longitude":"-98.54497","feature_class":"P","feature_code":"PPLA2","country_code":"MX","cc2":"","admin1_code":"13","admin2_code":"021","admin3_code":"","admin4_code":"","population":"8555","elevation":"","dem":"2496","timezone":"America/Mexico_City","modification_date":"2015-06-22"},{"geonameid":"3527879","name":"Emiliano Zapata","asciiname":"Emiliano Zapata","alternatenames":"Emiliano Zapata","latitude":"18.83677","longitude":"-99.18207","feature_class":"P","feature_code":"PPL","country_code":"MX","cc2":"","admin1_code":"17","admin2_code":"008","admin3_code":"","admin4_code":"","population":"37724","elevation":"","dem":"1250","timezone":"America/Mexico_City","modification_date":"2015-06-22"},{"geonameid":"3527880","name":"Emiliano Zapata","asciiname":"Emiliano Zapata","alternatenames":"Ehmiliano Sapata,Emiliano Zapata,Montecristo,Montecrito,Эмилиано Сапата","latitude":"17.74058","longitude":"-91.76635","feature_class":"P","feature_code":"PPL","country_code":"MX","cc2":"","admin1_code":"05","admin2_code":"","admin3_code":"","admin4_code":"","population":"18608","elevation":"","dem":"27","timezone":"America/Mexico_City","modification_date":"2014-10-01"},{"geonameid":"3527920","name":"San Lucas","asciiname":"San Lucas","alternatenames":"El Zapotal,San Lucas","latitude":"16.61167","longitude":"-92.71806","feature_class":"P","feature_code":"PPL","country_code":"MX","cc2":"","admin1_code":"05","admin2_code":"110","admin3_code":"","admin4_code":"","population":"4716","elevation":"","dem":"665","timezone":"America/Mexico_City","modification_date":"2013-08-01"},{"geonameid":"3528046","name":"El Tejar","asciiname":"El Tejar","alternatenames":"","latitude":"19.07433","longitude":"-96.16097","feature_class":"P","feature_code":"PPL","country_code":"MX","cc2":"","admin1_code":"30","admin2_code":"105","admin3_code":"","admin4_code":"","population":"10511","elevation":"","dem":"15","timezone":"America/Mexico_City","modification_date":"2015-06-22"},{"geonameid":"3528260","name":"El Rincón","asciiname":"El Rincon","alternatenames":"El Rincon,El Rincón,Rincon,Rincón","latitude":"20.74111","longitude":"-99.78472","feature_class":"P","feature_code":"PPL","country_code":"MX","cc2":"MX","admin1_code":"22","admin2_code":"004","admin3_code":"","admin4_code":"","population":"1240","elevation":"","dem":"2071","timezone":"America/Mexico_City","modification_date":"2013-07-31"},{"geonameid":"3528433","name":"El Porvenir de Velasco Suárez","asciiname":"El Porvenir de Velasco Suarez","alternatenames":"El Porvenir,El Porvenir de Velasco Suarez,El Porvenir de Velasco Suárez,Porvenir","latitude":"15.45695","longitude":"-92.27987","feature_class":"P","feature_code":"PPLA2","country_code":"MX","cc2":"","admin1_code":"05","admin2_code":"070","admin3_code":"","admin4_code":"","population":"0","elevation":"","dem":"2849","timezone":"America/Mexico_City","modification_date":"2016-01-07"},{"geonameid":"3528568","name":"San Marcos Eloxochitlán","asciiname":"San Marcos Eloxochitlan","alternatenames":"","latitude":"20.02528","longitude":"-97.87194","feature_class":"P","feature_code":"PPL","country_code":"MX","cc2":"","admin1_code":"21","admin2_code":"006","admin3_code":"","admin4_code":"","population":"1113","elevation":"","dem":"1555","timezone":"America/Mexico_City","modification_date":"2013-08-01"},{"geonameid":"3528601","name":"El Ocotito","asciiname":"El Ocotito","alternatenames":"El Ocotito,Ocotito","latitude":"17.24621","longitude":"-99.51646","feature_class":"P","feature_code":"PPL","country_code":"MX","cc2":"","admin1_code":"12","admin2_code":"029","admin3_code":"","admin4_code":"","population":"5983","elevation":"","dem":"713","timezone":"America/Mexico_City","modification_date":"2015-06-22"},{"geonameid":"3528620","name":"El Nopal","asciiname":"El Nopal","alternatenames":"El Nopal,Nopal","latitude":"16.91181","longitude":"-92.8452","feature_class":"P","feature_code":"PPL","country_code":"MX","cc2":"","admin1_code":"05","admin2_code":"044","admin3_code":"","admin4_code":"","population":"1903","elevation":"","dem":"1549","timezone":"America/Mexico_City","modification_date":"2014-10-01"},{"geonameid":"3528756","name":"Ciudad Mante","asciiname":"Ciudad Mante","alternatenames":"Ciudad Mante,El Mante,Juarez,Juárez,MMC,Villa Juarez,Villa Juárez,Villa Mante","latitude":"22.74304","longitude":"-98.9739","feature_class":"P","feature_code":"PPL","country_code":"MX","cc2":"","admin1_code":"28","admin2_code":"021","admin3_code":"","admin4_code":"","population":"79981","elevation":"","dem":"86","timezone":"America/Monterrey","modification_date":"2015-06-22"},{"geonameid":"3528788","name":"El Llano","asciiname":"El Llano","alternatenames":"El Llano","latitude":"20.06537","longitude":"-99.31976","feature_class":"P","feature_code":"PPL","country_code":"MX","cc2":"","admin1_code":"13","admin2_code":"076","admin3_code":"","admin4_code":"","population":"11794","elevation":"","dem":"2086","timezone":"America/Mexico_City","modification_date":"2015-06-22"},{"geonameid":"3528796","name":"El Limonar","asciiname":"El Limonar","alternatenames":"El Limonar","latitude":"16.97026","longitude":"-91.3782","feature_class":"P","feature_code":"PPL","country_code":"MX","cc2":"","admin1_code":"05","admin2_code":"059","admin3_code":"","admin4_code":"","population":"1289","elevation":"","dem":"492","timezone":"America/Mexico_City","modification_date":"2014-10-01"},{"geonameid":"3528894","name":"El Higo","asciiname":"El Higo","alternatenames":"El Higo","latitude":"21.76708","longitude":"-98.45186","feature_class":"P","feature_code":"PPLA2","country_code":"MX","cc2":"","admin1_code":"30","admin2_code":"205","admin3_code":"","admin4_code":"","population":"8175","elevation":"","dem":"34","timezone":"America/Mexico_City","modification_date":"2015-06-22"},{"geonameid":"3528975","name":"El Espinal","asciiname":"El Espinal","alternatenames":"El Espinal,Espinal","latitude":"16.36862","longitude":"-94.10449","feature_class":"P","feature_code":"PPL","country_code":"MX","cc2":"","admin1_code":"05","admin2_code":"","admin3_code":"","admin4_code":"","population":"7616","elevation":"","dem":"234","timezone":"America/Mexico_City","modification_date":"2014-09-05"},{"geonameid":"3529235","name":"El Cazadero","asciiname":"El Cazadero","alternatenames":"Cazadero,El Cazadero","latitude":"20.30222","longitude":"-99.87067","feature_class":"P","feature_code":"PPL","country_code":"MX","cc2":"","admin1_code":"22","admin2_code":"016","admin3_code":"","admin4_code":"","population":"3401","elevation":"","dem":"2257","timezone":"America/Mexico_City","modification_date":"2013-07-31"},{"geonameid":"3529243","name":"El Castillo","asciiname":"El Castillo","alternatenames":"El Castillo","latitude":"19.54661","longitude":"-96.86425","feature_class":"P","feature_code":"PPL","country_code":"MX","cc2":"","admin1_code":"30","admin2_code":"087","admin3_code":"","admin4_code":"","population":"4107","elevation":"","dem":"1167","timezone":"America/Mexico_City","modification_date":"2015-06-22"},{"geonameid":"3529269","name":"El Carmen Aztama","asciiname":"El Carmen Aztama","alternatenames":"Carmen,El Carmen Aztama","latitude":"19.22972","longitude":"-98.21944","feature_class":"P","feature_code":"PPL","country_code":"MX","cc2":"MX","admin1_code":"29","admin2_code":"028","admin3_code":"","admin4_code":"","population":"2612","elevation":"","dem":"2253","timezone":"America/Mexico_City","modification_date":"2013-07-31"},{"geonameid":"3529372","name":"El Bosque","asciiname":"El Bosque","alternatenames":"El Bosque,San Juan","latitude":"17.06273","longitude":"-92.72147","feature_class":"P","feature_code":"PPL","country_code":"MX","cc2":"","admin1_code":"05","admin2_code":"014","admin3_code":"","admin4_code":"","population":"4158","elevation":"","dem":"1082","timezone":"America/Mexico_City","modification_date":"2015-06-22"},{"geonameid":"3529437","name":"El Arenal","asciiname":"El Arenal","alternatenames":"Arenal,El Arenal","latitude":"20.22139","longitude":"-98.91222","feature_class":"P","feature_code":"PPL","country_code":"MX","cc2":"","admin1_code":"13","admin2_code":"009","admin3_code":"","admin4_code":"","population":"3318","elevation":"","dem":"2036","timezone":"America/Mexico_City","modification_date":"2015-06-22"},{"geonameid":"3529510","name":"Ejutla de Crespo","asciiname":"Ejutla de Crespo","alternatenames":"Ejutla,Ejutla de Crespo","latitude":"16.56623","longitude":"-96.73123","feature_class":"P","feature_code":"PPLA2","country_code":"MX","cc2":"","admin1_code":"20","admin2_code":"028","admin3_code":"","admin4_code":"","population":"8117","elevation":"","dem":"1448","timezone":"America/Mexico_City","modification_date":"2015-06-22"},{"geonameid":"3529609","name":"Ecatzingo de Hidalgo","asciiname":"Ecatzingo de Hidalgo","alternatenames":"Ecatzingo,Ecatzingo de Hidalgo","latitude":"18.95508","longitude":"-98.75198","feature_class":"P","feature_code":"PPL","country_code":"MX","cc2":"","admin1_code":"15","admin2_code":"034","admin3_code":"","admin4_code":"","population":"6373","elevation":"","dem":"2393","timezone":"America/Mexico_City","modification_date":"2015-06-22"},{"geonameid":"3529612","name":"Ecatepec","asciiname":"Ecatepec","alternatenames":"Ecatepec,Ecatepec Morelos,Ecatepec de Morelos,Morelos,San Cristobal,San Cristobal Ecatepec,San Cristobal Ecatepec de Morelos,San Cristóbal,San Cristóbal Ecatepec,San Cristóbal Ecatepec de Morelos","latitude":"19.61725","longitude":"-99.06601","feature_class":"P","feature_code":"PPL","country_code":"MX","cc2":"","admin1_code":"15","admin2_code":"033","admin3_code":"","admin4_code":"","population":"1806226","elevation":"","dem":"2274","timezone":"America/Mexico_City","modification_date":"2015-06-22"},{"geonameid":"3529647","name":"Dzitnup","asciiname":"Dzitnup","alternatenames":"Dzitnup","latitude":"20.64725","longitude":"-88.24453","feature_class":"P","feature_code":"PPL","country_code":"MX","cc2":"","admin1_code":"31","admin2_code":"102","admin3_code":"","admin4_code":"","population":"1248","elevation":"","dem":"23","timezone":"America/Merida","modification_date":"2014-06-05"},{"geonameid":"3529650","name":"Dzitbalché","asciiname":"Dzitbalche","alternatenames":"Dzibalche,Dzibalché,Dzitbalche,Dzitbalché,Tzitbalche,Tzitbalché","latitude":"20.31857","longitude":"-90.05611","feature_class":"P","feature_code":"PPL","country_code":"MX","cc2":"","admin1_code":"04","admin2_code":"001","admin3_code":"","admin4_code":"","population":"10902","elevation":"","dem":"17","timezone":"America/Merida","modification_date":"2015-06-22"},{"geonameid":"3529652","name":"Dzitás","asciiname":"Dzitas","alternatenames":"Dzitas,Dzitás,Tzitas","latitude":"20.84089","longitude":"-88.52908","feature_class":"P","feature_code":"PPLA2","country_code":"MX","cc2":"","admin1_code":"31","admin2_code":"030","admin3_code":"","admin4_code":"","population":"2909","elevation":"","dem":"33","timezone":"America/Merida","modification_date":"2015-06-22"},{"geonameid":"3529654","name":"Dzilam González","asciiname":"Dzilam Gonzalez","alternatenames":"Dzilam,Dzilam Gonzalez,Dzilam González,Tzilam Gonzalez,Tzilam González","latitude":"21.28098","longitude":"-88.92957","feature_class":"P","feature_code":"PPLA2","country_code":"MX","cc2":"","admin1_code":"31","admin2_code":"029","admin3_code":"","admin4_code":"","population":"5941","elevation":"","dem":"6","timezone":"America/Merida","modification_date":"2015-06-22"},{"geonameid":"3529655","name":"Dzilam de Bravo","asciiname":"Dzilam de Bravo","alternatenames":"Dzilam,Dzilam de Bravo,Tzilam de Bravo","latitude":"21.39194","longitude":"-88.8941","feature_class":"P","feature_code":"PPLA2","country_code":"MX","cc2":"","admin1_code":"31","admin2_code":"028","admin3_code":"","admin4_code":"","population":"0","elevation":"","dem":"2","timezone":"America/Merida","modification_date":"2015-06-22"},{"geonameid":"3529660","name":"Dzidzantun","asciiname":"Dzidzantun","alternatenames":"Dzidzantum,Dzidzantun,Dzidzantún,Tzitzantun,Tzitzantún","latitude":"21.24898","longitude":"-89.04205","feature_class":"P","feature_code":"PPL","country_code":"MX","cc2":"","admin1_code":"31","admin2_code":"027","admin3_code":"","admin4_code":"","population":"8301","elevation":"","dem":"10","timezone":"America/Merida","modification_date":"2015-06-22"},{"geonameid":"3529666","name":"Dzibalchen","asciiname":"Dzibalchen","alternatenames":"Dzibalchen,Dzibalchén,Dzitbalchen","latitude":"19.45847","longitude":"-89.73111","feature_class":"P","feature_code":"PPL","country_code":"MX","cc2":"","admin1_code":"04","admin2_code":"006","admin3_code":"","admin4_code":"","population":"2340","elevation":"","dem":"162","timezone":"America/Merida","modification_date":"2014-06-05"},{"geonameid":"3529669","name":"Dzemul","asciiname":"Dzemul","alternatenames":"Dzemul,Tzemul","latitude":"21.21036","longitude":"-89.30956","feature_class":"P","feature_code":"PPL","country_code":"MX","cc2":"","admin1_code":"31","admin2_code":"026","admin3_code":"","admin4_code":"","population":"3072","elevation":"","dem":"12","timezone":"America/Merida","modification_date":"2015-06-22"},{"geonameid":"3529672","name":"Dzan","asciiname":"Dzan","alternatenames":"Dzan","latitude":"20.38888","longitude":"-89.46855","feature_class":"P","feature_code":"PPL","country_code":"MX","cc2":"","admin1_code":"31","admin2_code":"025","admin3_code":"","admin4_code":"","population":"4532","elevation":"","dem":"31","timezone":"America/Merida","modification_date":"2015-06-22"},{"geonameid":"3529688","name":"Doxhicho","asciiname":"Doxhicho","alternatenames":"","latitude":"19.92914","longitude":"-99.55769","feature_class":"P","feature_code":"PPL","country_code":"MX","cc2":"","admin1_code":"15","admin2_code":"045","admin3_code":"","admin4_code":"","population":"1992","elevation":"","dem":"2499","timezone":"America/Mexico_City","modification_date":"2013-08-01"},{"geonameid":"3529689","name":"Doxey","asciiname":"Doxey","alternatenames":"Doxey,Doxhey","latitude":"20.09169","longitude":"-99.24362","feature_class":"P","feature_code":"PPL","country_code":"MX","cc2":"","admin1_code":"13","admin2_code":"074","admin3_code":"","admin4_code":"","population":"6339","elevation":"","dem":"2081","timezone":"America/Mexico_City","modification_date":"2015-06-22"},{"geonameid":"3529691","name":"Dos Ríos","asciiname":"Dos Rios","alternatenames":"","latitude":"19.48417","longitude":"-96.79944","feature_class":"P","feature_code":"PPL","country_code":"MX","cc2":"","admin1_code":"30","admin2_code":"065","admin3_code":"","admin4_code":"","population":"1307","elevation":"","dem":"937","timezone":"America/Mexico_City","modification_date":"2013-08-01"},{"geonameid":"3529730","name":"Domingo Arenas","asciiname":"Domingo Arenas","alternatenames":"Domingo Arenas","latitude":"19.14064","longitude":"-98.45751","feature_class":"P","feature_code":"PPLA2","country_code":"MX","cc2":"","admin1_code":"21","admin2_code":"060","admin3_code":"","admin4_code":"","population":"5812","elevation":"","dem":"2452","timezone":"America/Mexico_City","modification_date":"2015-06-22"},{"geonameid":"3529760","name":"Doctor Coss","asciiname":"Doctor Coss","alternatenames":"Doctor Cos,Doctor Coss","latitude":"25.92492","longitude":"-99.18316","feature_class":"P","feature_code":"PPLA2","country_code":"MX","cc2":"","admin1_code":"19","admin2_code":"015","admin3_code":"","admin4_code":"","population":"0","elevation":"","dem":"115","timezone":"America/Monterrey","modification_date":"2015-06-22"},{"geonameid":"3529778","name":"Villa Díaz Ordaz","asciiname":"Villa Diaz Ordaz","alternatenames":"Diaz Ordaz,Díaz Ordaz,Villa Diaz Ordaz,Villa Díaz Ordaz","latitude":"16.99578","longitude":"-96.43231","feature_class":"P","feature_code":"PPLA2","country_code":"MX","cc2":"","admin1_code":"20","admin2_code":"560","admin3_code":"","admin4_code":"","population":"0","elevation":"","dem":"1717","timezone":"America/Mexico_City","modification_date":"2015-06-22"},{"geonameid":"3529863","name":"Cuzama","asciiname":"Cuzama","alternatenames":"Cuzama,Cuzamá,Guzama","latitude":"20.74202","longitude":"-89.31732","feature_class":"P","feature_code":"PPL","country_code":"MX","cc2":"","admin1_code":"31","admin2_code":"015","admin3_code":"","admin4_code":"","population":"3459","elevation":"","dem":"16","timezone":"America/Merida","modification_date":"2015-06-22"},{"geonameid":"3529886","name":"Cunduacán","asciiname":"Cunduacan","alternatenames":"Conduacan,Conduacán,Cunduacan,Cunduacán","latitude":"18.06557","longitude":"-93.17302","feature_class":"P","feature_code":"PPLA2","country_code":"MX","cc2":"","admin1_code":"27","admin2_code":"006","admin3_code":"","admin4_code":"","population":"17904","elevation":"","dem":"14","timezone":"America/Mexico_City","modification_date":"2015-06-22"},{"geonameid":"3529911","name":"Cuitláhuac","asciiname":"Cuitlahuac","alternatenames":"Cuitlahuac,Cuitláhuac,San Juan de la Punta","latitude":"18.8138","longitude":"-96.72392","feature_class":"P","feature_code":"PPL","country_code":"MX","cc2":"","admin1_code":"30","admin2_code":"053","admin3_code":"","admin4_code":"","population":"12331","elevation":"","dem":"383","timezone":"America/Mexico_City","modification_date":"2015-06-22"},