{"nextFile":"cities.106.json","rows":[{"geonameid":"1717569","name":"Cayanguan","asciiname":"Cayanguan","alternatenames":"Cayanguan,Cayangwan","latitude":"11.689","longitude":"122.2909","feature_class":"P","feature_code":"PPL","country_code":"PH","cc2":"","admin1_code":"06","admin2_code":"04","admin3_code":"","admin4_code":"","population":"2070","elevation":"","dem":"6","timezone":"Asia/Manila","modification_date":"2012-01-17"},{"geonameid":"1717573","name":"Cayanga","asciiname":"Cayanga","alternatenames":"Cayanga","latitude":"16.11508","longitude":"120.39875","feature_class":"P","feature_code":"PPL","country_code":"PH","cc2":"","admin1_code":"01","admin2_code":"51","admin3_code":"","admin4_code":"","population":"2181","elevation":"","dem":"4","timezone":"Asia/Manila","modification_date":"2013-02-08"},{"geonameid":"1717576","name":"Cayang","asciiname":"Cayang","alternatenames":"Cayang","latitude":"11.06667","longitude":"123.98333","feature_class":"P","feature_code":"PPL","country_code":"PH","cc2":"","admin1_code":"07","admin2_code":"21","admin3_code":"","admin4_code":"","population":"6353","elevation":"","dem":"11","timezone":"Asia/Manila","modification_date":"2012-02-01"},{"geonameid":"1717592","name":"Kauit","asciiname":"Kauit","alternatenames":"Cauit,Cawit Norte,Kauit,Kawit","latitude":"11.186","longitude":"123.9459","feature_class":"P","feature_code":"PPL","country_code":"PH","cc2":"","admin1_code":"07","admin2_code":"21","admin3_code":"","admin4_code":"","population":"5771","elevation":"","dem":"8","timezone":"Asia/Manila","modification_date":"2012-01-17"},{"geonameid":"1717605","name":"Cawayan Bugtong","asciiname":"Cawayan Bugtong","alternatenames":"Cawayan Bugtang,Cawayan Bugtong,Cawayang Bugtong,Kawayah Bugtong","latitude":"15.63362","longitude":"120.77695","feature_class":"P","feature_code":"PPL","country_code":"PH","cc2":"","admin1_code":"03","admin2_code":"47","admin3_code":"","admin4_code":"","population":"3605","elevation":"","dem":"35","timezone":"Asia/Manila","modification_date":"2013-03-05"},{"geonameid":"1717617","name":"Cawayan","asciiname":"Cawayan","alternatenames":"Cawayan","latitude":"13.3672","longitude":"122.5094","feature_class":"P","feature_code":"PPL","country_code":"PH","cc2":"","admin1_code":"40","admin2_code":"H2","admin3_code":"","admin4_code":"","population":"5549","elevation":"","dem":"11","timezone":"Asia/Manila","modification_date":"2012-06-05"},{"geonameid":"1717619","name":"Cawayan","asciiname":"Cawayan","alternatenames":"Cawayan","latitude":"12.6557","longitude":"121.5456","feature_class":"P","feature_code":"PPL","country_code":"PH","cc2":"","admin1_code":"41","admin2_code":"41","admin3_code":"","admin4_code":"","population":"2892","elevation":"","dem":"7","timezone":"Asia/Manila","modification_date":"2012-01-17"},{"geonameid":"1717621","name":"Cawayan","asciiname":"Cawayan","alternatenames":"Cauayan,Cawayan","latitude":"11.6237","longitude":"122.4649","feature_class":"P","feature_code":"PPL","country_code":"PH","cc2":"","admin1_code":"06","admin2_code":"04","admin3_code":"","admin4_code":"","population":"3122","elevation":"","dem":"10","timezone":"Asia/Manila","modification_date":"2012-01-17"},{"geonameid":"1717640","name":"Cavite","asciiname":"Cavite","alternatenames":"Cavite","latitude":"15.67785","longitude":"120.76978","feature_class":"P","feature_code":"PPL","country_code":"PH","cc2":"","admin1_code":"03","admin2_code":"47","admin3_code":"","admin4_code":"","population":"2402","elevation":"","dem":"41","timezone":"Asia/Manila","modification_date":"2013-03-05"},{"geonameid":"1717641","name":"Cavite City","asciiname":"Cavite City","alternatenames":"Bandar Cavite,Cavite,Cavite City,Cavite Lakanbalen,Ciudad ti Cavite,Dakbayan sa Cavite,Kavite,Lungsod ng Kabite,Siyudad na Cavite,Syudad han Cavite,jia mi de,kabite,kavu~ite,Кавите,カヴィテ,甲米地,카비테","latitude":"14.48369","longitude":"120.89878","feature_class":"P","feature_code":"PPL","country_code":"PH","cc2":"","admin1_code":"40","admin2_code":"20","admin3_code":"","admin4_code":"","population":"115932","elevation":"","dem":"7","timezone":"Asia/Manila","modification_date":"2014-11-25"},{"geonameid":"1717649","name":"Cavinti","asciiname":"Cavinti","alternatenames":"Cavinti","latitude":"14.24482","longitude":"121.50797","feature_class":"P","feature_code":"PPLA3","country_code":"PH","cc2":"","admin1_code":"40","admin2_code":"33","admin3_code":"1717650","admin4_code":"","population":"9758","elevation":"","dem":"219","timezone":"Asia/Manila","modification_date":"2011-07-31"},{"geonameid":"1717665","name":"Causwagan","asciiname":"Causwagan","alternatenames":"Causwagan,Kauswagan","latitude":"8.4475","longitude":"125.84028","feature_class":"P","feature_code":"PPL","country_code":"PH","cc2":"","admin1_code":"13","admin2_code":"03","admin3_code":"","admin4_code":"","population":"2225","elevation":"","dem":"24","timezone":"Asia/Manila","modification_date":"2012-01-17"},{"geonameid":"1717667","name":"Causip","asciiname":"Causip","alternatenames":"Causip","latitude":"13.5159","longitude":"123.2834","feature_class":"P","feature_code":"PPL","country_code":"PH","cc2":"","admin1_code":"05","admin2_code":"16","admin3_code":"","admin4_code":"","population":"2033","elevation":"","dem":"19","timezone":"Asia/Manila","modification_date":"2012-01-17"},{"geonameid":"1717729","name":"Cauayan","asciiname":"Cauayan","alternatenames":"Cauayan,Cauayan City,Cauayan Lakanbalen,Cauayán,Cauyan,Kota Cauayan","latitude":"16.93472","longitude":"121.7725","feature_class":"P","feature_code":"PPLA3","country_code":"PH","cc2":"PH","admin1_code":"02","admin2_code":"31","admin3_code":"1717740","admin4_code":"","population":"0","elevation":"","dem":"63","timezone":"Asia/Manila","modification_date":"2011-07-31"},{"geonameid":"1717730","name":"Cauayan","asciiname":"Cauayan","alternatenames":"Cauayan,San Ildefonso","latitude":"15.15149","longitude":"120.67166","feature_class":"P","feature_code":"PPL","country_code":"PH","cc2":"","admin1_code":"03","admin2_code":"50","admin3_code":"","admin4_code":"","population":"6436","elevation":"","dem":"40","timezone":"Asia/Manila","modification_date":"2013-01-10"},{"geonameid":"1717738","name":"Cawayan","asciiname":"Cawayan","alternatenames":"Cauayan,Cavayan,Cawayan","latitude":"9.9718","longitude":"122.6249","feature_class":"P","feature_code":"PPL","country_code":"PH","cc2":"","admin1_code":"06","admin2_code":"H3","admin3_code":"","admin4_code":"","population":"8855","elevation":"","dem":"13","timezone":"Asia/Manila","modification_date":"2012-01-17"},{"geonameid":"1717758","name":"Catungawan Sur","asciiname":"Catungawan Sur","alternatenames":"Catungawan,Catungawan Sur,Katungauan","latitude":"9.7817","longitude":"124.4693","feature_class":"P","feature_code":"PPL","country_code":"PH","cc2":"","admin1_code":"07","admin2_code":"11","admin3_code":"","admin4_code":"","population":"3342","elevation":"","dem":"46","timezone":"Asia/Manila","modification_date":"2012-01-17"},{"geonameid":"1717762","name":"Catungan","asciiname":"Catungan","alternatenames":"Catungan","latitude":"10.7706","longitude":"122.0149","feature_class":"P","feature_code":"PPL","country_code":"PH","cc2":"","admin1_code":"06","admin2_code":"06","admin3_code":"","admin4_code":"","population":"2318","elevation":"","dem":"19","timezone":"Asia/Manila","modification_date":"2012-01-17"},{"geonameid":"1717787","name":"Catuday","asciiname":"Catuday","alternatenames":"Catuday","latitude":"16.2923","longitude":"119.8062","feature_class":"P","feature_code":"PPL","country_code":"PH","cc2":"","admin1_code":"01","admin2_code":"51","admin3_code":"","admin4_code":"","population":"2149","elevation":"","dem":"147","timezone":"Asia/Manila","modification_date":"2012-01-17"},{"geonameid":"1717792","name":"Catubig","asciiname":"Catubig","alternatenames":"Catubig","latitude":"12.4098","longitude":"125.0548","feature_class":"P","feature_code":"PPLA3","country_code":"PH","cc2":"","admin1_code":"08","admin2_code":"67","admin3_code":"1717794","admin4_code":"","population":"4728","elevation":"","dem":"4","timezone":"Asia/Manila","modification_date":"2011-07-31"},{"geonameid":"1717812","name":"Cato","asciiname":"Cato","alternatenames":"Cato","latitude":"15.8362","longitude":"119.9151","feature_class":"P","feature_code":"PPL","country_code":"PH","cc2":"","admin1_code":"01","admin2_code":"51","admin3_code":"","admin4_code":"","population":"4529","elevation":"","dem":"6","timezone":"Asia/Manila","modification_date":"2012-01-17"},{"geonameid":"1717825","name":"Catmondaan","asciiname":"Catmondaan","alternatenames":"Catmondaan,Daan Catmon","latitude":"10.68692","longitude":"124.01494","feature_class":"P","feature_code":"PPL","country_code":"PH","cc2":"","admin1_code":"07","admin2_code":"21","admin3_code":"","admin4_code":"","population":"2861","elevation":"","dem":"20","timezone":"Asia/Manila","modification_date":"2012-05-05"},{"geonameid":"1717844","name":"Catmon","asciiname":"Catmon","alternatenames":"Catmon","latitude":"11.53516","longitude":"124.43115","feature_class":"P","feature_code":"PPL","country_code":"PH","cc2":"","admin1_code":"08","admin2_code":"H9","admin3_code":"","admin4_code":"","population":"2475","elevation":"","dem":"163","timezone":"Asia/Manila","modification_date":"2014-09-26"},{"geonameid":"1717849","name":"Catmon","asciiname":"Catmon","alternatenames":"Catmon","latitude":"10.71667","longitude":"124","feature_class":"P","feature_code":"PPLA3","country_code":"PH","cc2":"","admin1_code":"07","admin2_code":"21","admin3_code":"1717852","admin4_code":"","population":"7812","elevation":"","dem":"85","timezone":"Asia/Manila","modification_date":"2011-07-31"},{"geonameid":"1717883","name":"Caticugan","asciiname":"Caticugan","alternatenames":"Caticugan","latitude":"9.1","longitude":"123","feature_class":"P","feature_code":"PPL","country_code":"PH","cc2":"","admin1_code":"07","admin2_code":"46","admin3_code":"","admin4_code":"","population":"2558","elevation":"","dem":"216","timezone":"Asia/Manila","modification_date":"2012-02-01"},{"geonameid":"1717884","name":"Katico","asciiname":"Katico","alternatenames":"Catico,Katico","latitude":"6.76167","longitude":"124.73","feature_class":"P","feature_code":"PPL","country_code":"PH","cc2":"","admin1_code":"14","admin2_code":"56","admin3_code":"","admin4_code":"","population":"3932","elevation":"","dem":"22","timezone":"Asia/Manila","modification_date":"2012-01-17"},{"geonameid":"1717886","name":"Caticlan","asciiname":"Caticlan","alternatenames":"Caticlan,Katiklan,MPH,Tican,Ticlan,Катиклан","latitude":"11.93337","longitude":"121.95981","feature_class":"P","feature_code":"PPL","country_code":"PH","cc2":"","admin1_code":"06","admin2_code":"04","admin3_code":"","admin4_code":"","population":"4223","elevation":"0","dem":"6","timezone":"Asia/Manila","modification_date":"2015-10-02"},{"geonameid":"1717890","name":"Caterman","asciiname":"Caterman","alternatenames":"Catarman,Caterman","latitude":"17.21738","longitude":"120.42442","feature_class":"P","feature_code":"PPL","country_code":"PH","cc2":"","admin1_code":"01","admin2_code":"29","admin3_code":"","admin4_code":"","population":"2195","elevation":"","dem":"5","timezone":"Asia/Manila","modification_date":"2012-07-04"},{"geonameid":"1717896","name":"Cateel","asciiname":"Cateel","alternatenames":"Cateel","latitude":"7.79139","longitude":"126.45333","feature_class":"P","feature_code":"PPL","country_code":"PH","cc2":"","admin1_code":"11","admin2_code":"26","admin3_code":"","admin4_code":"","population":"6624","elevation":"","dem":"14","timezone":"Asia/Manila","modification_date":"2012-01-17"},{"geonameid":"1717911","name":"Catbalogan","asciiname":"Catbalogan","alternatenames":"Catbalogan,Catbalogan City,Kota Catbalogan,Lungsod ng Catbalogan,katbalwgan,کاتبالوگان","latitude":"11.77528","longitude":"124.88611","feature_class":"P","feature_code":"PPLA3","country_code":"PH","cc2":"","admin1_code":"08","admin2_code":"55","admin3_code":"1717912","admin4_code":"","population":"68081","elevation":"","dem":"12","timezone":"Asia/Manila","modification_date":"2011-07-31"},{"geonameid":"1717916","name":"Catayauan","asciiname":"Catayauan","alternatenames":"Catayauan,Catayuan","latitude":"18.16072","longitude":"121.65271","feature_class":"P","feature_code":"PPL","country_code":"PH","cc2":"","admin1_code":"02","admin2_code":"14","admin3_code":"","admin4_code":"","population":"3843","elevation":"","dem":"10","timezone":"Asia/Manila","modification_date":"2013-06-04"},{"geonameid":"1717926","name":"Catarman","asciiname":"Catarman","alternatenames":"CRM,Catarman,Catarmán,katarman  shmaly samar,کاتارمان، شمالی سامار","latitude":"12.4989","longitude":"124.6377","feature_class":"P","feature_code":"PPLA3","country_code":"PH","cc2":"","admin1_code":"08","admin2_code":"67","admin3_code":"1717933","admin4_code":"","population":"47449","elevation":"","dem":"11","timezone":"Asia/Manila","modification_date":"2011-07-31"},{"geonameid":"1717930","name":"Catarman","asciiname":"Catarman","alternatenames":"Catarman","latitude":"9.60169","longitude":"123.86111","feature_class":"P","feature_code":"PPL","country_code":"PH","cc2":"","admin1_code":"07","admin2_code":"11","admin3_code":"","admin4_code":"","population":"3688","elevation":"","dem":"51","timezone":"Asia/Manila","modification_date":"2012-04-05"},{"geonameid":"1717931","name":"Catarman","asciiname":"Catarman","alternatenames":"Catarman","latitude":"9.12556","longitude":"124.67556","feature_class":"P","feature_code":"PPLA3","country_code":"PH","cc2":"","admin1_code":"10","admin2_code":"17","admin3_code":"1717934","admin4_code":"","population":"2521","elevation":"","dem":"15","timezone":"Asia/Manila","modification_date":"2011-07-31"},{"geonameid":"1717960","name":"Catanauan","asciiname":"Catanauan","alternatenames":"Catanauan,Catanuan","latitude":"13.5926","longitude":"122.3215","feature_class":"P","feature_code":"PPL","country_code":"PH","cc2":"","admin1_code":"40","admin2_code":"H2","admin3_code":"","admin4_code":"","population":"26804","elevation":"","dem":"7","timezone":"Asia/Manila","modification_date":"2012-06-05"},{"geonameid":"1717994","name":"Cataingan","asciiname":"Cataingan","alternatenames":"Cataigan,Cataingan","latitude":"12.003","longitude":"123.992","feature_class":"P","feature_code":"PPL","country_code":"PH","cc2":"","admin1_code":"05","admin2_code":"39","admin3_code":"","admin4_code":"","population":"7809","elevation":"","dem":"54","timezone":"Asia/Manila","modification_date":"2012-01-17"},{"geonameid":"1718033","name":"Catablan","asciiname":"Catablan","alternatenames":"Catablan","latitude":"15.9757","longitude":"120.4953","feature_class":"P","feature_code":"PPL","country_code":"PH","cc2":"","admin1_code":"01","admin2_code":"51","admin3_code":"","admin4_code":"","population":"5091","elevation":"","dem":"22","timezone":"Asia/Manila","modification_date":"2012-08-04"},{"geonameid":"1718042","name":"Catabangan","asciiname":"Catabangan","alternatenames":"Catabangan","latitude":"13.8777","longitude":"122.6615","feature_class":"P","feature_code":"PPL","country_code":"PH","cc2":"","admin1_code":"05","admin2_code":"16","admin3_code":"","admin4_code":"","population":"3665","elevation":"","dem":"70","timezone":"Asia/Manila","modification_date":"2012-01-17"},{"geonameid":"1718073","name":"Castillo","asciiname":"Castillo","alternatenames":"Casillo,Castillo","latitude":"13.7313","longitude":"123.1166","feature_class":"P","feature_code":"PPL","country_code":"PH","cc2":"","admin1_code":"05","admin2_code":"16","admin3_code":"","admin4_code":"","population":"4203","elevation":"","dem":"5","timezone":"Asia/Manila","modification_date":"2012-01-17"},{"geonameid":"1718078","name":"Castillejos","asciiname":"Castillejos","alternatenames":"Caslillejos,Castillejos,Kastil'ekhosu,Кастильехосу","latitude":"14.93363","longitude":"120.19785","feature_class":"P","feature_code":"PPLA3","country_code":"PH","cc2":"","admin1_code":"03","admin2_code":"64","admin3_code":"1718080","admin4_code":"","population":"27301","elevation":"","dem":"50","timezone":"Asia/Manila","modification_date":"2015-04-19"},{"geonameid":"1718084","name":"Castilla","asciiname":"Castilla","alternatenames":"Castilla","latitude":"12.94861","longitude":"123.88222","feature_class":"P","feature_code":"PPLA3","country_code":"PH","cc2":"","admin1_code":"05","admin2_code":"58","admin3_code":"1718086","admin4_code":"","population":"2771","elevation":"","dem":"-9999","timezone":"Asia/Manila","modification_date":"2011-07-31"},{"geonameid":"1718089","name":"Castañas","asciiname":"Castanas","alternatenames":"Castanas,Castañas","latitude":"13.8744","longitude":"121.5533","feature_class":"P","feature_code":"PPL","country_code":"PH","cc2":"","admin1_code":"40","admin2_code":"H2","admin3_code":"","admin4_code":"","population":"9040","elevation":"","dem":"4","timezone":"Asia/Manila","modification_date":"2012-06-05"},{"geonameid":"1718103","name":"Casisang","asciiname":"Casisang","alternatenames":"Casisang","latitude":"8.13806","longitude":"125.125","feature_class":"P","feature_code":"PPL","country_code":"PH","cc2":"","admin1_code":"10","admin2_code":"12","admin3_code":"","admin4_code":"","population":"13722","elevation":"","dem":"592","timezone":"Asia/Manila","modification_date":"2012-01-17"},{"geonameid":"1718154","name":"Casiguran","asciiname":"Casiguran","alternatenames":"Casiguran","latitude":"12.87361","longitude":"124.00972","feature_class":"P","feature_code":"PPLA3","country_code":"PH","cc2":"","admin1_code":"05","admin2_code":"58","admin3_code":"1718156","admin4_code":"","population":"8605","elevation":"","dem":"12","timezone":"Asia/Manila","modification_date":"2011-07-31"},{"geonameid":"1718170","name":"Casian","asciiname":"Casian","alternatenames":"Casian","latitude":"11.035","longitude":"119.7136","feature_class":"P","feature_code":"PPL","country_code":"PH","cc2":"","admin1_code":"41","admin2_code":"49","admin3_code":"","admin4_code":"","population":"2677","elevation":"","dem":"7","timezone":"Asia/Manila","modification_date":"2012-01-17"},{"geonameid":"1718181","name":"Casay","asciiname":"Casay","alternatenames":"Casay,Oasay","latitude":"13.2632","longitude":"122.5217","feature_class":"P","feature_code":"PPL","country_code":"PH","cc2":"","admin1_code":"40","admin2_code":"H2","admin3_code":"","admin4_code":"","population":"3596","elevation":"","dem":"16","timezone":"Asia/Manila","modification_date":"2012-06-05"},{"geonameid":"1718206","name":"Cassanayan","asciiname":"Cassanayan","alternatenames":"Casanayan,Cassanayan","latitude":"11.5169","longitude":"123.0512","feature_class":"P","feature_code":"PPL","country_code":"PH","cc2":"","admin1_code":"06","admin2_code":"18","admin3_code":"","admin4_code":"","population":"3453","elevation":"","dem":"6","timezone":"Asia/Manila","modification_date":"2012-01-17"},{"geonameid":"1718214","name":"Casambalangan","asciiname":"Casambalangan","alternatenames":"Casambalangan","latitude":"18.37646","longitude":"122.12745","feature_class":"P","feature_code":"PPL","country_code":"PH","cc2":"","admin1_code":"02","admin2_code":"14","admin3_code":"","admin4_code":"","population":"3281","elevation":"","dem":"10","timezone":"Asia/Manila","modification_date":"2012-01-17"},{"geonameid":"1718220","name":"Casala-an","asciiname":"Casala-an","alternatenames":"Casala-an","latitude":"9.11667","longitude":"123.05","feature_class":"P","feature_code":"PPL","country_code":"PH","cc2":"","admin1_code":"07","admin2_code":"46","admin3_code":"","admin4_code":"","population":"2875","elevation":"","dem":"156","timezone":"Asia/Manila","modification_date":"2012-02-01"},{"geonameid":"1718234","name":"Caruray","asciiname":"Caruray","alternatenames":"Caruray","latitude":"10.3094","longitude":"119.0128","feature_class":"P","feature_code":"PPL","country_code":"PH","cc2":"","admin1_code":"41","admin2_code":"49","admin3_code":"","admin4_code":"","population":"4115","elevation":"","dem":"6","timezone":"Asia/Manila","modification_date":"2012-01-17"},{"geonameid":"1718236","name":"Caronoan West","asciiname":"Caronoan West","alternatenames":"Caronoan West,Caronuan,Carunoan","latitude":"16.2633","longitude":"120.4463","feature_class":"P","feature_code":"PPL","country_code":"PH","cc2":"","admin1_code":"01","admin2_code":"36","admin3_code":"","admin4_code":"","population":"2593","elevation":"","dem":"151","timezone":"Asia/Manila","modification_date":"2012-01-17"},{"geonameid":"1718247","name":"Cartagena","asciiname":"Cartagena","alternatenames":"Cartagena","latitude":"9.8203","longitude":"122.4004","feature_class":"P","feature_code":"PPL","country_code":"PH","cc2":"","admin1_code":"06","admin2_code":"H3","admin3_code":"","admin4_code":"","population":"3396","elevation":"","dem":"7","timezone":"Asia/Manila","modification_date":"2012-08-04"},{"geonameid":"1718253","name":"Carriedo","asciiname":"Carriedo","alternatenames":"Carriedo","latitude":"16.031","longitude":"120.7549","feature_class":"P","feature_code":"PPL","country_code":"PH","cc2":"","admin1_code":"01","admin2_code":"51","admin3_code":"","admin4_code":"","population":"2524","elevation":"","dem":"67","timezone":"Asia/Manila","modification_date":"2012-01-17"},{"geonameid":"1718254","name":"Carriedo","asciiname":"Carriedo","alternatenames":"Carriedo","latitude":"12.9344","longitude":"124.105","feature_class":"P","feature_code":"PPL","country_code":"PH","cc2":"","admin1_code":"05","admin2_code":"58","admin3_code":"","admin4_code":"","population":"2091","elevation":"","dem":"15","timezone":"Asia/Manila","modification_date":"2012-01-17"},{"geonameid":"1718262","name":"Carrascal","asciiname":"Carrascal","alternatenames":"Carrascal","latitude":"9.37028","longitude":"125.94917","feature_class":"P","feature_code":"PPLA3","country_code":"PH","cc2":"","admin1_code":"13","admin2_code":"62","admin3_code":"1718263","admin4_code":"","population":"4385","elevation":"","dem":"8","timezone":"Asia/Manila","modification_date":"2011-07-31"},{"geonameid":"1718266","name":"Carranglan","asciiname":"Carranglan","alternatenames":"Carraglan,Carranglan","latitude":"15.9613","longitude":"121.0641","feature_class":"P","feature_code":"PPL","country_code":"PH","cc2":"","admin1_code":"03","admin2_code":"47","admin3_code":"","admin4_code":"","population":"11017","elevation":"","dem":"247","timezone":"Asia/Manila","modification_date":"2012-01-17"},{"geonameid":"1718271","name":"Carpenter","asciiname":"Carpenter","alternatenames":"Carpenter","latitude":"6.45417","longitude":"124.8725","feature_class":"P","feature_code":"PPL","country_code":"PH","cc2":"","admin1_code":"12","admin2_code":"70","admin3_code":"","admin4_code":"","population":"5344","elevation":"","dem":"95","timezone":"Asia/Manila","modification_date":"2012-02-01"},{"geonameid":"1718276","name":"Carot","asciiname":"Carot","alternatenames":"Carot","latitude":"16.34468","longitude":"119.98005","feature_class":"P","feature_code":"PPL","country_code":"PH","cc2":"","admin1_code":"01","admin2_code":"51","admin3_code":"","admin4_code":"","population":"2939","elevation":"","dem":"8","timezone":"Asia/Manila","modification_date":"2013-03-05"},{"geonameid":"1718277","name":"Carusucan","asciiname":"Carusucan","alternatenames":"Carosucan,Carusucan","latitude":"15.96589","longitude":"120.63598","feature_class":"P","feature_code":"PPL","country_code":"PH","cc2":"","admin1_code":"01","admin2_code":"51","admin3_code":"","admin4_code":"","population":"7083","elevation":"","dem":"41","timezone":"Asia/Manila","modification_date":"2012-08-04"},{"geonameid":"1718306","name":"Carmona","asciiname":"Carmona","alternatenames":"Carmona","latitude":"14.3132","longitude":"121.0576","feature_class":"P","feature_code":"PPLA3","country_code":"PH","cc2":"","admin1_code":"40","admin2_code":"20","admin3_code":"1718307","admin4_code":"","population":"55887","elevation":"","dem":"28","timezone":"Asia/Manila","modification_date":"2011-08-22"},{"geonameid":"1718319","name":"Carmen","asciiname":"Carmen","alternatenames":"Carmay,Carmen,Karmen,Кармен","latitude":"15.88642","longitude":"120.59984","feature_class":"P","feature_code":"PPL","country_code":"PH","cc2":"","admin1_code":"01","admin2_code":"51","admin3_code":"","admin4_code":"","population":"10250","elevation":"","dem":"32","timezone":"Asia/Manila","modification_date":"2012-08-04"},{"geonameid":"1718320","name":"Carmen","asciiname":"Carmen","alternatenames":"Carmen","latitude":"15.44702","longitude":"120.82676","feature_class":"P","feature_code":"PPL","country_code":"PH","cc2":"","admin1_code":"03","admin2_code":"47","admin3_code":"","admin4_code":"","population":"2835","elevation":"","dem":"25","timezone":"Asia/Manila","modification_date":"2012-12-05"},{"geonameid":"1718324","name":"Carmen","asciiname":"Carmen","alternatenames":"Carman,Carmen,Karmen,Кармен","latitude":"12.6171","longitude":"122.1211","feature_class":"P","feature_code":"PPL","country_code":"PH","cc2":"","admin1_code":"41","admin2_code":"54","admin3_code":"","admin4_code":"","population":"2677","elevation":"","dem":"9","timezone":"Asia/Manila","modification_date":"2012-01-17"},{"geonameid":"1718328","name":"Cogan","asciiname":"Cogan","alternatenames":"Carmen,Cogan,Karmen,Old Carmen,Кармен","latitude":"10.59306","longitude":"124.01778","feature_class":"P","feature_code":"PPL","country_code":"PH","cc2":"","admin1_code":"07","admin2_code":"21","admin3_code":"","admin4_code":"","population":"21898","elevation":"","dem":"13","timezone":"Asia/Manila","modification_date":"2012-01-17"},{"geonameid":"1718330","name":"Carmen Grande","asciiname":"Carmen Grande","alternatenames":"Carmen,Carmen Grande,Karmen,Кармен","latitude":"10.3787","longitude":"122.9156","feature_class":"P","feature_code":"PPL","country_code":"PH","cc2":"","admin1_code":"06","admin2_code":"H3","admin3_code":"","admin4_code":"","population":"4945","elevation":"0","dem":"16","timezone":"Asia/Manila","modification_date":"2012-01-17"},{"geonameid":"1718332","name":"Carmen","asciiname":"Carmen","alternatenames":"Carmen,Karmen,Кармен","latitude":"9.8223","longitude":"124.1964","feature_class":"P","feature_code":"PPLA3","country_code":"PH","cc2":"","admin1_code":"07","admin2_code":"11","admin3_code":"1718341","admin4_code":"","population":"8214","elevation":"","dem":"221","timezone":"Asia/Manila","modification_date":"2011-07-31"},{"geonameid":"1718333","name":"Carmen","asciiname":"Carmen","alternatenames":"","latitude":"9.22639","longitude":"126.01722","feature_class":"P","feature_code":"PPLA3","country_code":"PH","cc2":"","admin1_code":"13","admin2_code":"62","admin3_code":"1718342","admin4_code":"","population":"2805","elevation":"","dem":"13","timezone":"Asia/Manila","modification_date":"2011-07-31"},{"geonameid":"1718334","name":"Carmen","asciiname":"Carmen","alternatenames":"Carmen,Karmen,Кармен","latitude":"8.98861","longitude":"125.2925","feature_class":"P","feature_code":"PPLA3","country_code":"PH","cc2":"","admin1_code":"13","admin2_code":"02","admin3_code":"1718343","admin4_code":"","population":"4847","elevation":"","dem":"9","timezone":"Asia/Manila","modification_date":"2011-07-31"},{"geonameid":"1718337","name":"Carmen","asciiname":"Carmen","alternatenames":"Carmen,Ising,Karmen,Кармен","latitude":"7.36056","longitude":"125.70639","feature_class":"P","feature_code":"PPLA3","country_code":"PH","cc2":"","admin1_code":"11","admin2_code":"I7","admin3_code":"1718344","admin4_code":"","population":"9833","elevation":"","dem":"5","timezone":"Asia/Manila","modification_date":"2011-07-31"},{"geonameid":"1718338","name":"Carmen","asciiname":"Carmen","alternatenames":"Carmen,Karmen,Кармен","latitude":"7.20444","longitude":"124.79167","feature_class":"P","feature_code":"PPL","country_code":"PH","cc2":"","admin1_code":"12","admin2_code":"57","admin3_code":"","admin4_code":"","population":"8759","elevation":"","dem":"43","timezone":"Asia/Manila","modification_date":"2012-01-17"},{"geonameid":"1718347","name":"Carmelo","asciiname":"Carmelo","alternatenames":"Carmelo","latitude":"11.01667","longitude":"122.81667","feature_class":"P","feature_code":"PPL","country_code":"PH","cc2":"","admin1_code":"06","admin2_code":"30","admin3_code":"","admin4_code":"","population":"2678","elevation":"","dem":"9","timezone":"Asia/Manila","modification_date":"2012-02-01"},{"geonameid":"1718349","name":"Carmelo","asciiname":"Carmelo","alternatenames":"Carmelo","latitude":"10.7051","longitude":"123.7935","feature_class":"P","feature_code":"PPL","country_code":"PH","cc2":"","admin1_code":"07","admin2_code":"21","admin3_code":"","admin4_code":"","population":"2175","elevation":"","dem":"6","timezone":"Asia/Manila","modification_date":"2012-01-17"},{"geonameid":"1718362","name":"Carles","asciiname":"Carles","alternatenames":"Carles","latitude":"11.5726","longitude":"123.1342","feature_class":"P","feature_code":"PPL","country_code":"PH","cc2":"","admin1_code":"06","admin2_code":"30","admin3_code":"","admin4_code":"","population":"2697","elevation":"","dem":"3","timezone":"Asia/Manila","modification_date":"2012-01-17"},{"geonameid":"1718367","name":"Carlagan","asciiname":"Carlagan","alternatenames":"Carlagan","latitude":"14.975","longitude":"122.04556","feature_class":"P","feature_code":"PPL","country_code":"PH","cc2":"","admin1_code":"40","admin2_code":"H2","admin3_code":"","admin4_code":"","population":"2562","elevation":"","dem":"12","timezone":"Asia/Manila","modification_date":"2012-06-05"},{"geonameid":"1718393","name":"Carigara","asciiname":"Carigara","alternatenames":"Carigara,Garigara","latitude":"11.29917","longitude":"124.67556","feature_class":"P","feature_code":"PPLA3","country_code":"PH","cc2":"","admin1_code":"08","admin2_code":"37","admin3_code":"1718394","admin4_code":"","population":"17495","elevation":"","dem":"7","timezone":"Asia/Manila","modification_date":"2011-07-31"},{"geonameid":"1718396","name":"Carig","asciiname":"Carig","alternatenames":"Carig","latitude":"17.65929","longitude":"121.74357","feature_class":"P","feature_code":"PPL","country_code":"PH","cc2":"","admin1_code":"02","admin2_code":"14","admin3_code":"","admin4_code":"","population":"2924","elevation":"","dem":"19","timezone":"Asia/Manila","modification_date":"2013-04-03"},{"geonameid":"1718412","name":"Caridad","asciiname":"Caridad","alternatenames":"Caridad","latitude":"10.8315","longitude":"124.7518","feature_class":"P","feature_code":"PPL","country_code":"PH","cc2":"","admin1_code":"08","admin2_code":"37","admin3_code":"","admin4_code":"","population":"3688","elevation":"","dem":"8","timezone":"Asia/Manila","modification_date":"2012-01-17"},{"geonameid":"1718415","name":"Caridad","asciiname":"Caridad","alternatenames":"Caridad,Caridao","latitude":"10.4967","longitude":"122.8974","feature_class":"P","feature_code":"PPL","country_code":"PH","cc2":"","admin1_code":"06","admin2_code":"H3","admin3_code":"","admin4_code":"","population":"3267","elevation":"","dem":"20","timezone":"Asia/Manila","modification_date":"2012-06-05"},{"geonameid":"1718425","name":"Cardona","asciiname":"Cardona","alternatenames":"Cardona","latitude":"15.5722","longitude":"120.5897","feature_class":"P","feature_code":"PPL","country_code":"PH","cc2":"","admin1_code":"03","admin2_code":"63","admin3_code":"","admin4_code":"","population":"2594","elevation":"","dem":"37","timezone":"Asia/Manila","modification_date":"2012-01-17"},{"geonameid":"1718426","name":"Cardona","asciiname":"Cardona","alternatenames":"Cardona,Kardona,Кардона","latitude":"14.48646","longitude":"121.22752","feature_class":"P","feature_code":"PPLA3","country_code":"PH","cc2":"","admin1_code":"40","admin2_code":"53","admin3_code":"1718427","admin4_code":"","population":"30222","elevation":"","dem":"14","timezone":"Asia/Manila","modification_date":"2015-01-30"},{"geonameid":"1718436","name":"Carcar","asciiname":"Carcar","alternatenames":"Carcar","latitude":"10.1061","longitude":"123.6402","feature_class":"P","feature_code":"PPLA3","country_code":"PH","cc2":"","admin1_code":"07","admin2_code":"21","admin3_code":"1718437","admin4_code":"","population":"40739","elevation":"","dem":"21","timezone":"Asia/Manila","modification_date":"2011-07-31"},{"geonameid":"1718446","name":"Caraycayon","asciiname":"Caraycayon","alternatenames":"Caraycayon","latitude":"13.61667","longitude":"123.48333","feature_class":"P","feature_code":"PPL","country_code":"PH","cc2":"","admin1_code":"05","admin2_code":"16","admin3_code":"","admin4_code":"","population":"3017","elevation":"","dem":"69","timezone":"Asia/Manila","modification_date":"2012-02-01"},{"geonameid":"1718448","name":"Caraycaray","asciiname":"Caraycaray","alternatenames":"Caraycaray,Caraycary","latitude":"11.5551","longitude":"124.415","feature_class":"P","feature_code":"PPL","country_code":"PH","cc2":"","admin1_code":"08","admin2_code":"H9","admin3_code":"","admin4_code":"","population":"3174","elevation":"","dem":"18","timezone":"Asia/Manila","modification_date":"2012-01-17"},{"geonameid":"1718465","name":"Carasi","asciiname":"Carasi","alternatenames":"Carasi,Carazi","latitude":"18.19889","longitude":"120.86833","feature_class":"P","feature_code":"PPLA3","country_code":"PH","cc2":"PH","admin1_code":"01","admin2_code":"28","admin3_code":"1718466","admin4_code":"","population":"0","elevation":"","dem":"428","timezone":"Asia/Manila","modification_date":"2011-07-31"},{"geonameid":"1718495","name":"Caranan","asciiname":"Caranan","alternatenames":"Caranan,Carinan","latitude":"13.5167","longitude":"123.0156","feature_class":"P","feature_code":"PPL","country_code":"PH","cc2":"","admin1_code":"05","admin2_code":"16","admin3_code":"","admin4_code":"","population":"7265","elevation":"","dem":"8","timezone":"Asia/Manila","modification_date":"2012-01-17"},{"geonameid":"1718497","name":"Caramutan","asciiname":"Caramutan","alternatenames":"Caramutan","latitude":"15.92074","longitude":"120.61012","feature_class":"P","feature_code":"PPL","country_code":"PH","cc2":"","admin1_code":"01","admin2_code":"51","admin3_code":"","admin4_code":"","population":"6524","elevation":"","dem":"31","timezone":"Asia/Manila","modification_date":"2012-08-04"},{"geonameid":"1718503","name":"Caramoran","asciiname":"Caramoran","alternatenames":"Caramoan,Caramoran","latitude":"13.9849","longitude":"124.1347","feature_class":"P","feature_code":"PPL","country_code":"PH","cc2":"","admin1_code":"05","admin2_code":"19","admin3_code":"","admin4_code":"","population":"4791","elevation":"","dem":"11","timezone":"Asia/Manila","modification_date":"2012-01-17"},{"geonameid":"1718508","name":"Caramoan","asciiname":"Caramoan","alternatenames":"Caramoan","latitude":"13.7707","longitude":"123.8631","feature_class":"P","feature_code":"PPLA3","country_code":"PH","cc2":"","admin1_code":"05","admin2_code":"16","admin3_code":"1718509","admin4_code":"","population":"3471","elevation":"","dem":"14","timezone":"Asia/Manila","modification_date":"2011-07-31"},{"geonameid":"1718517","name":"Caramay","asciiname":"Caramay","alternatenames":"Caramay","latitude":"10.1815","longitude":"119.236","feature_class":"P","feature_code":"PPL","country_code":"PH","cc2":"","admin1_code":"41","admin2_code":"49","admin3_code":"","admin4_code":"","population":"2524","elevation":"","dem":"6","timezone":"Asia/Manila","modification_date":"2012-01-17"},{"geonameid":"1718530","name":"Caraga","asciiname":"Caraga","alternatenames":"Caraga","latitude":"7.32972","longitude":"126.5675","feature_class":"P","feature_code":"PPL","country_code":"PH","cc2":"","admin1_code":"11","admin2_code":"26","admin3_code":"","admin4_code":"","population":"4410","elevation":"","dem":"29","timezone":"Asia/Manila","modification_date":"2012-01-17"},{"geonameid":"1718541","name":"Caracal","asciiname":"Caracal","alternatenames":"Caracal","latitude":"8.12722","longitude":"122.845","feature_class":"P","feature_code":"PPL","country_code":"PH","cc2":"","admin1_code":"09","admin2_code":"65","admin3_code":"","admin4_code":"","population":"2611","elevation":"","dem":"7","timezone":"Asia/Manila","modification_date":"2012-02-01"},{"geonameid":"1718558","name":"Carabalan","asciiname":"Carabalan","alternatenames":"Carabalan","latitude":"10.0964","longitude":"122.946","feature_class":"P","feature_code":"PPL","country_code":"PH","cc2":"","admin1_code":"06","admin2_code":"H3","admin3_code":"","admin4_code":"","population":"7557","elevation":"","dem":"123","timezone":"Asia/Manila","modification_date":"2012-06-05"},{"geonameid":"1718564","name":"Capuy","asciiname":"Capuy","alternatenames":"Capuy","latitude":"12.98333","longitude":"123.93333","feature_class":"P","feature_code":"PPL","country_code":"PH","cc2":"","admin1_code":"05","admin2_code":"58","admin3_code":"","admin4_code":"","population":"2328","elevation":"","dem":"15","timezone":"Asia/Manila","modification_date":"2012-02-01"},{"geonameid":"1718585","name":"Capuluan","asciiname":"Capuluan","alternatenames":"Capuluan,Capuluan Central","latitude":"13.8162","longitude":"122.5158","feature_class":"P","feature_code":"PPL","country_code":"PH","cc2":"","admin1_code":"40","admin2_code":"H2","admin3_code":"","admin4_code":"","population":"2234","elevation":"","dem":"8","timezone":"Asia/Manila","modification_date":"2012-06-05"},{"geonameid":"1718593","name":"Capulaan","asciiname":"Capulaan","alternatenames":"Capulaan","latitude":"15.90497","longitude":"120.53719","feature_class":"P","feature_code":"PPL","country_code":"PH","cc2":"","admin1_code":"01","admin2_code":"51","admin3_code":"","admin4_code":"","population":"2949","elevation":"","dem":"41","timezone":"Asia/Manila","modification_date":"2012-08-04"},{"geonameid":"1718594","name":"Capul","asciiname":"Capul","alternatenames":"Capul","latitude":"12.4237","longitude":"124.1811","feature_class":"P","feature_code":"PPLA3","country_code":"PH","cc2":"","admin1_code":"08","admin2_code":"67","admin3_code":"1718595","admin4_code":"","population":"4756","elevation":"","dem":"6","timezone":"Asia/Manila","modification_date":"2011-07-31"},{"geonameid":"1718600","name":"Capucnasan","asciiname":"Capucnasan","alternatenames":"Capocnasan","latitude":"13.6","longitude":"123.21667","feature_class":"P","feature_code":"PPL","country_code":"PH","cc2":"","admin1_code":"05","admin2_code":"E2","admin3_code":"","admin4_code":"","population":"2049","elevation":"","dem":"18","timezone":"Asia/Manila","modification_date":"2014-03-01"},{"geonameid":"1718621","name":"Capoocan","asciiname":"Capoocan","alternatenames":"Capoocan","latitude":"11.29333","longitude":"124.64194","feature_class":"P","feature_code":"PPLA3","country_code":"PH","cc2":"","admin1_code":"08","admin2_code":"37","admin3_code":"1718622","admin4_code":"","population":"8473","elevation":"","dem":"7","timezone":"Asia/Manila","modification_date":"2011-07-31"},{"geonameid":"1718661","name":"Capissayan Sur","asciiname":"Capissayan Sur","alternatenames":"Capissavan,Capissayan,Capissayan Sur","latitude":"18.0509","longitude":"121.8177","feature_class":"P","feature_code":"PPL","country_code":"PH","cc2":"","admin1_code":"02","admin2_code":"14","admin3_code":"","admin4_code":"","population":"2882","elevation":"","dem":"37","timezone":"Asia/Manila","modification_date":"2013-04-03"},{"geonameid":"1718722","name":"Capas","asciiname":"Capas","alternatenames":"Capas,Capaz,Kapas,Капас","latitude":"15.33117","longitude":"120.5898","feature_class":"P","feature_code":"PPL","country_code":"PH","cc2":"","admin1_code":"03","admin2_code":"63","admin3_code":"","admin4_code":"","population":"72070","elevation":"","dem":"53","timezone":"Asia/Manila","modification_date":"2013-01-10"},{"geonameid":"1718754","name":"Capandanan","asciiname":"Capandanan","alternatenames":"Capandanall,Capandanan","latitude":"15.95943","longitude":"120.69519","feature_class":"P","feature_code":"PPL","country_code":"PH","cc2":"","admin1_code":"01","admin2_code":"51","admin3_code":"","admin4_code":"","population":"2462","elevation":"","dem":"41","timezone":"Asia/Manila","modification_date":"2012-08-04"},{"geonameid":"1718762","name":"Capalonga","asciiname":"Capalonga","alternatenames":"Capalonga","latitude":"14.3306","longitude":"122.4937","feature_class":"P","feature_code":"PPLA3","country_code":"PH","cc2":"","admin1_code":"05","admin2_code":"15","admin3_code":"1718763","admin4_code":"","population":"3900","elevation":"","dem":"5","timezone":"Asia/Manila","modification_date":"2011-07-31"},{"geonameid":"1718767","name":"Capalayan","asciiname":"Capalayan","alternatenames":"Capalayan","latitude":"9.74056","longitude":"125.54444","feature_class":"P","feature_code":"PPL","country_code":"PH","cc2":"","admin1_code":"13","admin2_code":"61","admin3_code":"","admin4_code":"","population":"2151","elevation":"","dem":"9","timezone":"Asia/Manila","modification_date":"2013-03-05"},{"geonameid":"1718774","name":"Capaga","asciiname":"Capaga","alternatenames":"Capaga,Capagab,Capagao","latitude":"11.4379","longitude":"122.7479","feature_class":"P","feature_code":"PPL","country_code":"PH","cc2":"","admin1_code":"06","admin2_code":"18","admin3_code":"","admin4_code":"","population":"2801","elevation":"","dem":"16","timezone":"Asia/Manila","modification_date":"2012-01-17"},{"geonameid":"1718804","name":"Caoayan","asciiname":"Caoayan","alternatenames":"Caoayan,Cavayan","latitude":"17.56194","longitude":"120.3975","feature_class":"P","feature_code":"PPLA3","country_code":"PH","cc2":"","admin1_code":"01","admin2_code":"29","admin3_code":"1718807","admin4_code":"","population":"3386","elevation":"","dem":"9","timezone":"Asia/Manila","modification_date":"2011-07-31"},{"geonameid":"1718828","name":"Canubing No 2","asciiname":"Canubing No 2","alternatenames":"Canubing No 2","latitude":"13.35","longitude":"121.13333","feature_class":"P","feature_code":"PPL","country_code":"PH","cc2":"","admin1_code":"41","admin2_code":"41","admin3_code":"","admin4_code":"","population":"9569","elevation":"","dem":"13","timezone":"Asia/Manila","modification_date":"2012-02-01"},{"geonameid":"1718834","name":"Canturay","asciiname":"Canturay","alternatenames":"Canturay","latitude":"9.7937","longitude":"122.4543","feature_class":"P","feature_code":"PPL","country_code":"PH","cc2":"","admin1_code":"06","admin2_code":"H3","admin3_code":"","admin4_code":"","population":"5135","elevation":"","dem":"22","timezone":"Asia/Manila","modification_date":"2012-08-04"},{"geonameid":"1718848","name":"Cantoria","asciiname":"Cantoria","alternatenames":"Cantoria","latitude":"16.8441","longitude":"120.4045","feature_class":"P","feature_code":"PPL","country_code":"PH","cc2":"","admin1_code":"01","admin2_code":"36","admin3_code":"","admin4_code":"","population":"2552","elevation":"","dem":"8","timezone":"Asia/Manila","modification_date":"2012-01-17"},{"geonameid":"1718866","name":"Cantilan","asciiname":"Cantilan","alternatenames":"Cantilan,Cantilán","latitude":"9.33361","longitude":"125.9775","feature_class":"P","feature_code":"PPLA3","country_code":"PH","cc2":"","admin1_code":"13","admin2_code":"62","admin3_code":"1718867","admin4_code":"","population":"9408","elevation":"","dem":"7","timezone":"Asia/Manila","modification_date":"2011-07-31"},{"geonameid":"1718869","name":"Cantel","asciiname":"Cantel","alternatenames":"Cantel,Cantil","latitude":"12.6176","longitude":"121.5136","feature_class":"P","feature_code":"PPL","country_code":"PH","cc2":"","admin1_code":"41","admin2_code":"41","admin3_code":"","admin4_code":"","population":"2648","elevation":"","dem":"17","timezone":"Asia/Manila","modification_date":"2012-01-17"},{"geonameid":"1718886","name":"Cantapoy","asciiname":"Cantapoy","alternatenames":"Cantapoy","latitude":"9.49056","longitude":"125.43639","feature_class":"P","feature_code":"PPL","country_code":"PH","cc2":"","admin1_code":"13","admin2_code":"61","admin3_code":"","admin4_code":"","population":"2259","elevation":"","dem":"9","timezone":"Asia/Manila","modification_date":"2013-03-05"},{"geonameid":"1718888","name":"Cantao-an","asciiname":"Cantao-an","alternatenames":"Cantao-an,Kantauan","latitude":"10.24258","longitude":"123.7496","feature_class":"P","feature_code":"PPL","country_code":"PH","cc2":"","admin1_code":"07","admin2_code":"21","admin3_code":"","admin4_code":"","population":"4177","elevation":"0","dem":"188","timezone":"Asia/Manila","modification_date":"2012-01-17"},{"geonameid":"1718909","name":"Cansolungon","asciiname":"Cansolungon","alternatenames":"Cansalongon,Cansaloñgon,Cansolungon,Cansulungon Hacienda,Casalongon","latitude":"10.151","longitude":"122.9978","feature_class":"P","feature_code":"PPL","country_code":"PH","cc2":"","admin1_code":"06","admin2_code":"H3","admin3_code":"","admin4_code":"","population":"2405","elevation":"","dem":"74","timezone":"Asia/Manila","modification_date":"2012-01-17"},{"geonameid":"1718910","name":"Cansuje","asciiname":"Cansuje","alternatenames":"Cansuje","latitude":"9.92314","longitude":"123.49629","feature_class":"P","feature_code":"PPL","country_code":"PH","cc2":"","admin1_code":"07","admin2_code":"21","admin3_code":"","admin4_code":"","population":"2436","elevation":"","dem":"645","timezone":"Asia/Manila","modification_date":"2012-04-05"},{"geonameid":"1718957","name":"Canroma","asciiname":"Canroma","alternatenames":"Canroma","latitude":"10.3606","longitude":"122.879","feature_class":"P","feature_code":"PPL","country_code":"PH","cc2":"","admin1_code":"06","admin2_code":"H3","admin3_code":"","admin4_code":"","population":"2170","elevation":"","dem":"14","timezone":"Asia/Manila","modification_date":"2012-01-17"},{"geonameid":"1718969","name":"Canomoy","asciiname":"Canomoy","alternatenames":"Canomoy","latitude":"12.15735","longitude":"123.27011","feature_class":"P","feature_code":"PPL","country_code":"PH","cc2":"","admin1_code":"05","admin2_code":"39","admin3_code":"","admin4_code":"","population":"2754","elevation":"","dem":"8","timezone":"Asia/Manila","modification_date":"2012-01-17"},{"geonameid":"1718985","name":"Corocotan","asciiname":"Corocotan","alternatenames":"Canocotan,Corocotan","latitude":"7.3998","longitude":"125.7727","feature_class":"P","feature_code":"PPL","country_code":"PH","cc2":"","admin1_code":"11","admin2_code":"I7","admin3_code":"","admin4_code":"","population":"9025","elevation":"","dem":"11","timezone":"Asia/Manila","modification_date":"2012-08-04"},{"geonameid":"1718998","name":"Canmaya Diot","asciiname":"Canmaya Diot","alternatenames":"Cangmaya,Canmaya,Canmaya Diot","latitude":"9.9384","longitude":"124.0942","feature_class":"P","feature_code":"PPL","country_code":"PH","cc2":"","admin1_code":"07","admin2_code":"11","admin3_code":"","admin4_code":"","population":"2610","elevation":"","dem":"233","timezone":"Asia/Manila","modification_date":"2012-01-17"},{"geonameid":"1719053","name":"Canlaon","asciiname":"Canlaon","alternatenames":"Canlaon,Canlaon City","latitude":"10.38697","longitude":"123.2227","feature_class":"P","feature_code":"PPL","country_code":"PH","cc2":"","admin1_code":"07","admin2_code":"46","admin3_code":"","admin4_code":"","population":"44851","elevation":"","dem":"479","timezone":"Asia/Manila","modification_date":"2012-06-05"},{"geonameid":"1719075","name":"Canjulao","asciiname":"Canjulao","alternatenames":"Canjulao,Kanhulao","latitude":"9.6605","longitude":"124.3532","feature_class":"P","feature_code":"PPL","country_code":"PH","cc2":"","admin1_code":"07","admin2_code":"11","admin3_code":"","admin4_code":"","population":"2693","elevation":"","dem":"96","timezone":"Asia/Manila","modification_date":"2012-01-17"},{"geonameid":"1719115","name":"Caningay","asciiname":"Caningay","alternatenames":"Caningay","latitude":"9.8297","longitude":"122.6442","feature_class":"P","feature_code":"PPL","country_code":"PH","cc2":"","admin1_code":"06","admin2_code":"H3","admin3_code":"","admin4_code":"","population":"3296","elevation":"","dem":"165","timezone":"Asia/Manila","modification_date":"2012-01-17"},{"geonameid":"1719149","name":"Canhaway","asciiname":"Canhaway","alternatenames":"Canhaway,Kanhaway","latitude":"9.7501","longitude":"124.4722","feature_class":"P","feature_code":"PPL","country_code":"PH","cc2":"","admin1_code":"07","admin2_code":"11","admin3_code":"","admin4_code":"","population":"3157","elevation":"","dem":"12","timezone":"Asia/Manila","modification_date":"2012-01-17"},{"geonameid":"1719153","name":"Canhandugan","asciiname":"Canhandugan","alternatenames":"Canhandugan","latitude":"11.135","longitude":"124.77972","feature_class":"P","feature_code":"PPL","country_code":"PH","cc2":"","admin1_code":"08","admin2_code":"37","admin3_code":"","admin4_code":"","population":"2104","elevation":"","dem":"206","timezone":"Asia/Manila","modification_date":"2012-02-01"},{"geonameid":"1719246","name":"Candoni","asciiname":"Candoni","alternatenames":"Candoni","latitude":"9.817","longitude":"122.6043","feature_class":"P","feature_code":"PPL","country_code":"PH","cc2":"","admin1_code":"06","admin2_code":"H3","admin3_code":"","admin4_code":"","population":"6191","elevation":"","dem":"181","timezone":"Asia/Manila","modification_date":"2012-01-17"},{"geonameid":"1719251","name":"Candon","asciiname":"Candon","alternatenames":"Candon Lakanbalen,Kota Candon,kandwn,کاندون","latitude":"17.19472","longitude":"120.45167","feature_class":"P","feature_code":"PPLA3","country_code":"PH","cc2":"","admin1_code":"01","admin2_code":"29","admin3_code":"1719252","admin4_code":"","population":"11236","elevation":"","dem":"10","timezone":"Asia/Manila","modification_date":"2011-07-31"},{"geonameid":"1719262","name":"Candijay","asciiname":"Candijay","alternatenames":"Candijay","latitude":"9.8182","longitude":"124.4977","feature_class":"P","feature_code":"PPLA3","country_code":"PH","cc2":"","admin1_code":"07","admin2_code":"11","admin3_code":"1719263","admin4_code":"","population":"4125","elevation":"","dem":"14","timezone":"Asia/Manila","modification_date":"2011-07-31"},{"geonameid":"1719267","name":"Candiis","asciiname":"Candiis","alternatenames":"Candiis","latitude":"8.97028","longitude":"125.18417","feature_class":"P","feature_code":"PPL","country_code":"PH","cc2":"","admin1_code":"10","admin2_code":"43","admin3_code":"","admin4_code":"","population":"2323","elevation":"","dem":"10","timezone":"Asia/Manila","modification_date":"2012-02-01"},{"geonameid":"1719274","name":"Candelaria","asciiname":"Candelaria","alternatenames":"Candelaria","latitude":"13.93111","longitude":"121.42333","feature_class":"P","feature_code":"PPLA3","country_code":"PH","cc2":"","admin1_code":"40","admin2_code":"H2","admin3_code":"1719278","admin4_code":"","population":"60881","elevation":"","dem":"72","timezone":"Asia/Manila","modification_date":"2012-06-08"},{"geonameid":"1719276","name":"Candelaria","asciiname":"Candelaria","alternatenames":"Candelaria","latitude":"11.2893","longitude":"122.5228","feature_class":"P","feature_code":"PPL","country_code":"PH","cc2":"","admin1_code":"06","admin2_code":"18","admin3_code":"","admin4_code":"","population":"2178","elevation":"","dem":"44","timezone":"Asia/Manila","modification_date":"2012-01-17"},{"geonameid":"1719287","name":"Candating","asciiname":"Candating","alternatenames":"Candating","latitude":"15.15056","longitude":"120.81847","feature_class":"P","feature_code":"PPL","country_code":"PH","cc2":"","admin1_code":"03","admin2_code":"50","admin3_code":"","admin4_code":"","population":"4307","elevation":"","dem":"13","timezone":"Asia/Manila","modification_date":"2013-02-08"},{"geonameid":"1719326","name":"Candabong","asciiname":"Candabong","alternatenames":"Candabong,Kandabong","latitude":"9.7343","longitude":"124.5383","feature_class":"P","feature_code":"PPL","country_code":"PH","cc2":"","admin1_code":"07","admin2_code":"11","admin3_code":"","admin4_code":"","population":"2405","elevation":"","dem":"20","timezone":"Asia/Manila","modification_date":"2012-01-17"},{"geonameid":"1719327","name":"Kandabong","asciiname":"Kandabong","alternatenames":"Candabong,Kandabong","latitude":"9.6859","longitude":"123.0728","feature_class":"P","feature_code":"PPL","country_code":"PH","cc2":"","admin1_code":"07","admin2_code":"46","admin3_code":"","admin4_code":"","population":"2367","elevation":"","dem":"358","timezone":"Asia/Manila","modification_date":"2012-01-17"},{"geonameid":"1719329","name":"Candaba","asciiname":"Candaba","alternatenames":"Candaba","latitude":"15.0956","longitude":"120.8267","feature_class":"P","feature_code":"PPLA3","country_code":"PH","cc2":"","admin1_code":"03","admin2_code":"50","admin3_code":"1719330","admin4_code":"","population":"47326","elevation":"","dem":"11","timezone":"Asia/Manila","modification_date":"2011-07-31"},{"geonameid":"1719343","name":"Cansilayan","asciiname":"Cansilayan","alternatenames":"Cancilayan,Cansilayan","latitude":"10.55976","longitude":"123.0184","feature_class":"P","feature_code":"PPL","country_code":"PH","cc2":"","admin1_code":"06","admin2_code":"H3","admin3_code":"","admin4_code":"","population":"3809","elevation":"","dem":"68","timezone":"Asia/Manila","modification_date":"2012-01-17"},{"geonameid":"1719386","name":"Canayan","asciiname":"Canayan","alternatenames":"Canayan","latitude":"8.19556","longitude":"125.14472","feature_class":"P","feature_code":"PPL","country_code":"PH","cc2":"","admin1_code":"10","admin2_code":"12","admin3_code":"","admin4_code":"","population":"4639","elevation":"","dem":"661","timezone":"Asia/Manila","modification_date":"2012-01-17"},{"geonameid":"1719390","name":"Canauay","asciiname":"Canauay","alternatenames":"Canauay,Canaway","latitude":"9.0651","longitude":"123.0524","feature_class":"P","feature_code":"PPL","country_code":"PH","cc2":"","admin1_code":"07","admin2_code":"46","admin3_code":"","admin4_code":"","population":"3712","elevation":"","dem":"13","timezone":"Asia/Manila","modification_date":"2012-01-17"},{"geonameid":"1719395","name":"Can-Avid","asciiname":"Can-Avid","alternatenames":"Can-Avid,Canavio,Kanavid","latitude":"11.99528","longitude":"125.44722","feature_class":"P","feature_code":"PPLA3","country_code":"PH","cc2":"","admin1_code":"08","admin2_code":"23","admin3_code":"1719396","admin4_code":"","population":"5928","elevation":"","dem":"8","timezone":"Asia/Manila","modification_date":"2011-07-31"},{"geonameid":"1719410","name":"Can-asujan","asciiname":"Can-asujan","alternatenames":"Can-asujan,Kanasujan,Kanasulan","latitude":"10.1299","longitude":"123.6574","feature_class":"P","feature_code":"PPL","country_code":"PH","cc2":"","admin1_code":"07","admin2_code":"21","admin3_code":"","admin4_code":"","population":"6994","elevation":"","dem":"54","timezone":"Asia/Manila","modification_date":"2012-01-17"},{"geonameid":"1719433","name":"Ganapi","asciiname":"Ganapi","alternatenames":"Canapi,Ganapi","latitude":"17.20174","longitude":"121.86524","feature_class":"P","feature_code":"PPL","country_code":"PH","cc2":"","admin1_code":"02","admin2_code":"31","admin3_code":"","admin4_code":"","population":"2815","elevation":"","dem":"43","timezone":"Asia/Manila","modification_date":"2012-01-17"},{"geonameid":"1719438","name":"Canaoalan","asciiname":"Canaoalan","alternatenames":"Canaoalan,Canoalan,Ganadalan","latitude":"16.02902","longitude":"120.29641","feature_class":"P","feature_code":"PPL","country_code":"PH","cc2":"","admin1_code":"01","admin2_code":"51","admin3_code":"","admin4_code":"","population":"4005","elevation":"","dem":"9","timezone":"Asia/Manila","modification_date":"2013-02-08"},{"geonameid":"1719442","name":"Canan Norte","asciiname":"Canan Norte","alternatenames":"Canan,Canan Norte","latitude":"15.90986","longitude":"120.47763","feature_class":"P","feature_code":"PPL","country_code":"PH","cc2":"","admin1_code":"01","admin2_code":"51","admin3_code":"","admin4_code":"","population":"2780","elevation":"","dem":"41","timezone":"Asia/Manila","modification_date":"2013-01-10"},{"geonameid":"1719463","name":"Canaman","asciiname":"Canaman","alternatenames":"Canaman","latitude":"13.648","longitude":"123.1699","feature_class":"P","feature_code":"PPLA3","country_code":"PH","cc2":"","admin1_code":"05","admin2_code":"16","admin3_code":"1719464","admin4_code":"","population":"3010","elevation":"","dem":"3","timezone":"Asia/Manila","modification_date":"2011-07-31"},{"geonameid":"1719530","name":"Camohaguin","asciiname":"Camohaguin","alternatenames":"Camohaguin,Camuhaguin","latitude":"13.9089","longitude":"122.1666","feature_class":"P","feature_code":"PPL","country_code":"PH","cc2":"","admin1_code":"40","admin2_code":"H2","admin3_code":"","admin4_code":"","population":"4363","elevation":"","dem":"11","timezone":"Asia/Manila","modification_date":"2012-06-05"},{"geonameid":"1719557","name":"Campoyo","asciiname":"Campoyo","alternatenames":"Campoyo,Campuyo","latitude":"9.6564","longitude":"123.1479","feature_class":"P","feature_code":"PPL","country_code":"PH","cc2":"","admin1_code":"07","admin2_code":"46","admin3_code":"","admin4_code":"","population":"2794","elevation":"","dem":"11","timezone":"Asia/Manila","modification_date":"2012-01-17"},{"geonameid":"1719564","name":"Campusong","asciiname":"Campusong","alternatenames":"Camposong,Campusong","latitude":"10.81583","longitude":"124.03222","feature_class":"P","feature_code":"PPL","country_code":"PH","cc2":"","admin1_code":"07","admin2_code":"11","admin3_code":"","admin4_code":"","population":"2161","elevation":"","dem":"15","timezone":"Asia/Manila","modification_date":"2012-01-17"},{"geonameid":"1719675","name":"Camingawan","asciiname":"Camingawan","alternatenames":"Camingawan","latitude":"9.8958","longitude":"122.8625","feature_class":"P","feature_code":"PPL","country_code":"PH","cc2":"","admin1_code":"06","admin2_code":"H3","admin3_code":"","admin4_code":"","population":"7820","elevation":"","dem":"102","timezone":"Asia/Manila","modification_date":"2012-07-04"},{"geonameid":"1719677","name":"Camindangan","asciiname":"Camindangan","alternatenames":"Camindagan,Camindangan,Gamindangan","latitude":"9.9184","longitude":"122.6296","feature_class":"P","feature_code":"PPL","country_code":"PH","cc2":"","admin1_code":"06","admin2_code":"H3","admin3_code":"","admin4_code":"","population":"5100","elevation":"","dem":"217","timezone":"Asia/Manila","modification_date":"2012-01-17"},{"geonameid":"1719679","name":"Caminauit","asciiname":"Caminauit","alternatenames":"Caminauit,Caminawit","latitude":"12.33135","longitude":"121.08251","feature_class":"P","feature_code":"PPL","country_code":"PH","cc2":"","admin1_code":"41","admin2_code":"40","admin3_code":"","admin4_code":"","population":"11161","elevation":"","dem":"6","timezone":"Asia/Manila","modification_date":"2012-01-17"},{"geonameid":"1719683","name":"Camiling","asciiname":"Camiling","alternatenames":"Camiling","latitude":"15.6866","longitude":"120.4128","feature_class":"P","feature_code":"PPLA3","country_code":"PH","cc2":"","admin1_code":"03","admin2_code":"63","admin3_code":"1719685","admin4_code":"","population":"39655","elevation":"","dem":"25","timezone":"Asia/Manila","modification_date":"2011-07-31"},{"geonameid":"1719699","name":"Camias","asciiname":"Camias","alternatenames":"Camias,Kamias","latitude":"15.16679","longitude":"120.97416","feature_class":"P","feature_code":"PPL","country_code":"PH","cc2":"","admin1_code":"03","admin2_code":"13","admin3_code":"","admin4_code":"","population":"7412","elevation":"","dem":"23","timezone":"Asia/Manila","modification_date":"2013-02-08"},{"geonameid":"1719702","name":"Camp Flora","asciiname":"Camp Flora","alternatenames":"Camflora,Camp Flora","latitude":"13.3508","longitude":"122.6641","feature_class":"P","feature_code":"PPL","country_code":"PH","cc2":"","admin1_code":"40","admin2_code":"H2","admin3_code":"","admin4_code":"","population":"6146","elevation":"","dem":"72","timezone":"Asia/Manila","modification_date":"2012-06-05"},{"geonameid":"1719722","name":"Cambuga","asciiname":"Cambuga","alternatenames":"Cambuga","latitude":"13.61667","longitude":"122.45","feature_class":"P","feature_code":"PPL","country_code":"PH","cc2":"","admin1_code":"40","admin2_code":"H2","admin3_code":"","admin4_code":"","population":"6432","elevation":"","dem":"95","timezone":"Asia/Manila","modification_date":"2012-06-05"},{"geonameid":"1719790","name":"Cambanay","asciiname":"Cambanay","alternatenames":"Cambanay","latitude":"10.54361","longitude":"123.98611","feature_class":"P","feature_code":"PPL","country_code":"PH","cc2":"","admin1_code":"07","admin2_code":"21","admin3_code":"","admin4_code":"","population":"2658","elevation":"","dem":"225","timezone":"Asia/Manila","modification_date":"2012-02-01"},{"geonameid":"1719803","name":"Gambalidio","asciiname":"Gambalidio","alternatenames":"Cambalidio,Cambalidió,Gambalidio","latitude":"13.6205","longitude":"122.8913","feature_class":"P","feature_code":"PPL","country_code":"PH","cc2":"","admin1_code":"05","admin2_code":"16","admin3_code":"","admin4_code":"","population":"2253","elevation":"","dem":"83","timezone":"Asia/Manila","modification_date":"2012-01-17"},{"geonameid":"1719886","name":"Camangcamang","asciiname":"Camangcamang","alternatenames":"Camangcamang,Camangeamang,Mambulan,Mambulung","latitude":"10.1791","longitude":"122.9865","feature_class":"P","feature_code":"PPL","country_code":"PH","cc2":"","admin1_code":"06","admin2_code":"H3","admin3_code":"","admin4_code":"","population":"4131","elevation":"","dem":"35","timezone":"Asia/Manila","modification_date":"2012-01-17"},{"geonameid":"1719908","name":"Camandag","asciiname":"Camandag","alternatenames":"Camandag","latitude":"10.33333","longitude":"123.06667","feature_class":"P","feature_code":"PPL","country_code":"PH","cc2":"","admin1_code":"06","admin2_code":"H3","admin3_code":"","admin4_code":"","population":"4058","elevation":"","dem":"126","timezone":"Asia/Manila","modification_date":"2012-02-01"},{"geonameid":"1719922","name":"Camambugan","asciiname":"Camambugan","alternatenames":"Camambugan,Camanbugan","latitude":"10.05844","longitude":"124.43811","feature_class":"P","feature_code":"PPL","country_code":"PH","cc2":"","admin1_code":"07","admin2_code":"11","admin3_code":"","admin4_code":"","population":"2265","elevation":"","dem":"11","timezone":"Asia/Manila","modification_date":"2012-01-17"},{"geonameid":"1719926","name":"Camalobalo","asciiname":"Camalobalo","alternatenames":"Camalobalo","latitude":"10.2731","longitude":"122.9505","feature_class":"P","feature_code":"PPL","country_code":"PH","cc2":"","admin1_code":"06","admin2_code":"H3","admin3_code":"","admin4_code":"","population":"2539","elevation":"","dem":"29","timezone":"Asia/Manila","modification_date":"2012-01-17"},{"geonameid":"1719931","name":"Camaligan","asciiname":"Camaligan","alternatenames":"Camaligan","latitude":"13.6224","longitude":"123.1667","feature_class":"P","feature_code":"PPLA3","country_code":"PH","cc2":"","admin1_code":"05","admin2_code":"16","admin3_code":"1719933","admin4_code":"","population":"5950","elevation":"","dem":"5","timezone":"Asia/Manila","modification_date":"2011-07-31"},{"geonameid":"1719935","name":"Camalig","asciiname":"Camalig","alternatenames":"Camalig","latitude":"13.1821","longitude":"123.6543","feature_class":"P","feature_code":"PPLA3","country_code":"PH","cc2":"","admin1_code":"05","admin2_code":"05","admin3_code":"1719937","admin4_code":"","population":"0","elevation":"","dem":"131","timezone":"Asia/Manila","modification_date":"2011-07-31"},{"geonameid":"1719939","name":"Camaley","asciiname":"Camaley","alternatenames":"Camaley","latitude":"15.99724","longitude":"120.30107","feature_class":"P","feature_code":"PPL","country_code":"PH","cc2":"","admin1_code":"01","admin2_code":"51","admin3_code":"","admin4_code":"","population":"2297","elevation":"","dem":"6","timezone":"Asia/Manila","modification_date":"2013-01-10"},{"geonameid":"1719940","name":"Camalaniugan","asciiname":"Camalaniugan","alternatenames":"Camalaniugan","latitude":"18.274","longitude":"121.6748","feature_class":"P","feature_code":"PPLA3","country_code":"PH","cc2":"","admin1_code":"02","admin2_code":"14","admin3_code":"1719941","admin4_code":"","population":"0","elevation":"","dem":"5","timezone":"Asia/Manila","modification_date":"2011-07-31"},{"geonameid":"1719944","name":"Cama Juan","asciiname":"Cama Juan","alternatenames":"Cama Juan","latitude":"15.39223","longitude":"120.76848","feature_class":"P","feature_code":"PPL","country_code":"PH","cc2":"","admin1_code":"03","admin2_code":"47","admin3_code":"","admin4_code":"","population":"2357","elevation":"","dem":"20","timezone":"Asia/Manila","modification_date":"2012-12-05"},{"geonameid":"1719966","name":"Camachile","asciiname":"Camachile","alternatenames":"Camachile,Camachili","latitude":"14.64361","longitude":"120.58083","feature_class":"P","feature_code":"PPL","country_code":"PH","cc2":"","admin1_code":"03","admin2_code":"13","admin3_code":"","admin4_code":"","population":"2767","elevation":"","dem":"4","timezone":"Asia/Manila","modification_date":"2012-01-17"},{"geonameid":"1719991","name":"Caluya","asciiname":"Caluya","alternatenames":"Caluya","latitude":"11.931","longitude":"121.5477","feature_class":"P","feature_code":"PPLA3","country_code":"PH","cc2":"","admin1_code":"06","admin2_code":"06","admin3_code":"1719993","admin4_code":"","population":"0","elevation":"","dem":"7","timezone":"Asia/Manila","modification_date":"2011-07-31"},{"geonameid":"1720034","name":"Calumpit","asciiname":"Calumpit","alternatenames":"Calumpit","latitude":"14.91639","longitude":"120.76583","feature_class":"P","feature_code":"PPLA3","country_code":"PH","cc2":"","admin1_code":"03","admin2_code":"13","admin3_code":"1720038","admin4_code":"","population":"91815","elevation":"","dem":"9","timezone":"Asia/Manila","modification_date":"2011-07-31"},{"geonameid":"1720050","name":"Calumpang","asciiname":"Calumpang","alternatenames":"Calumpang","latitude":"15.174","longitude":"121.0249","feature_class":"P","feature_code":"PPL","country_code":"PH","cc2":"","admin1_code":"03","admin2_code":"13","admin3_code":"","admin4_code":"","population":"4433","elevation":"","dem":"50","timezone":"Asia/Manila","modification_date":"2012-01-17"},{"geonameid":"1720052","name":"Calumpang","asciiname":"Calumpang","alternatenames":"Calumbang,Kalumpang","latitude":"14.6228","longitude":"121.0897","feature_class":"P","feature_code":"PPL","country_code":"PH","cc2":"","admin1_code":"NCR","admin2_code":"K9","admin3_code":"","admin4_code":"","population":"15589","elevation":"","dem":"12","timezone":"Asia/Manila","modification_date":"2011-08-22"},{"geonameid":"1720055","name":"Calumpang","asciiname":"Calumpang","alternatenames":"Calumpang","latitude":"14.1966","longitude":"121.402","feature_class":"P","feature_code":"PPL","country_code":"PH","cc2":"","admin1_code":"40","admin2_code":"33","admin3_code":"","admin4_code":"","population":"3403","elevation":"","dem":"49","timezone":"Asia/Manila","modification_date":"2012-01-17"},{"geonameid":"1720056","name":"Calumpang","asciiname":"Calumpang","alternatenames":"Calumpang","latitude":"13.9897","longitude":"121.5494","feature_class":"P","feature_code":"PPL","country_code":"PH","cc2":"","admin1_code":"40","admin2_code":"H2","admin3_code":"","admin4_code":"","population":"2498","elevation":"","dem":"298","timezone":"Asia/Manila","modification_date":"2012-06-05"},{"geonameid":"1720057","name":"Calumpang","asciiname":"Calumpang","alternatenames":"Calumpang","latitude":"13.84239","longitude":"120.97555","feature_class":"P","feature_code":"PPL","country_code":"PH","cc2":"","admin1_code":"40","admin2_code":"09","admin3_code":"","admin4_code":"","population":"2422","elevation":"","dem":"178","timezone":"Asia/Manila","modification_date":"2012-02-01"},{"geonameid":"1720073","name":"Calomboyan","asciiname":"Calomboyan","alternatenames":"Calomboyan,Calumboyan","latitude":"15.94652","longitude":"120.30348","feature_class":"P","feature_code":"PPL","country_code":"PH","cc2":"","admin1_code":"01","admin2_code":"51","admin3_code":"","admin4_code":"","population":"2809","elevation":"","dem":"8","timezone":"Asia/Manila","modification_date":"2013-01-10"},{"geonameid":"1720094","name":"San Isidro","asciiname":"San Isidro","alternatenames":"Caluluan,Cululuan,San Isidro,Sitio","latitude":"15.4425","longitude":"120.72565","feature_class":"P","feature_code":"PPL","country_code":"PH","cc2":"","admin1_code":"03","admin2_code":"63","admin3_code":"","admin4_code":"","population":"4121","elevation":"","dem":"22","timezone":"Asia/Manila","modification_date":"2013-01-10"},{"geonameid":"1720106","name":"Calubian","asciiname":"Calubian","alternatenames":"Calubian","latitude":"11.4472","longitude":"124.4281","feature_class":"P","feature_code":"PPLA3","country_code":"PH","cc2":"","admin1_code":"08","admin2_code":"37","admin3_code":"1720107","admin4_code":"","population":"0","elevation":"","dem":"7","timezone":"Asia/Manila","modification_date":"2011-07-31"},{"geonameid":"1720109","name":"Calubcub Dos","asciiname":"Calubcub Dos","alternatenames":"Calubcob Segundo,Calubcub,Calubcub Dos,Calubcub Segundo,Culubcub 2,Culubcub II,Kalubcub Segundo,Kalubkob Segundo","latitude":"13.7393","longitude":"121.42193","feature_class":"P","feature_code":"PPL","country_code":"PH","cc2":"","admin1_code":"40","admin2_code":"09","admin3_code":"1689359","admin4_code":"","population":"5019","elevation":"","dem":"22","timezone":"Asia/Manila","modification_date":"2015-04-26"},{"geonameid":"1720123","name":"Calsib","asciiname":"Calsib","alternatenames":"Calsib","latitude":"15.84711","longitude":"120.26412","feature_class":"P","feature_code":"PPL","country_code":"PH","cc2":"","admin1_code":"01","admin2_code":"51","admin3_code":"","admin4_code":"","population":"2157","elevation":"","dem":"17","timezone":"Asia/Manila","modification_date":"2013-01-10"},{"geonameid":"1720158","name":"Calongbuyan","asciiname":"Calongbuyan","alternatenames":"Calongbuyan","latitude":"17.16478","longitude":"120.42716","feature_class":"P","feature_code":"PPL","country_code":"PH","cc2":"","admin1_code":"01","admin2_code":"29","admin3_code":"","admin4_code":"","population":"2324","elevation":"","dem":"5","timezone":"Asia/Manila","modification_date":"2012-07-04"},{"geonameid":"1720171","name":"Calolbon","asciiname":"Calolbon","alternatenames":"Calolbon","latitude":"13.596","longitude":"124.0991","feature_class":"P","feature_code":"PPL","country_code":"PH","cc2":"","admin1_code":"05","admin2_code":"19","admin3_code":"","admin4_code":"","population":"5005","elevation":"","dem":"6","timezone":"Asia/Manila","modification_date":"2012-01-17"},{"geonameid":"1720179","name":"Calog Norte","asciiname":"Calog Norte","alternatenames":"Calog,Calog Norte,Calug Norte","latitude":"18.36359","longitude":"121.38533","feature_class":"P","feature_code":"PPL","country_code":"PH","cc2":"","admin1_code":"02","admin2_code":"14","admin3_code":"","admin4_code":"","population":"2959","elevation":"","dem":"10","timezone":"Asia/Manila","modification_date":"2013-03-05"},{"geonameid":"1720183","name":"Caloc-an","asciiname":"Caloc-an","alternatenames":"Caloocan","latitude":"9.04694","longitude":"125.53056","feature_class":"P","feature_code":"PPL","country_code":"PH","cc2":"","admin1_code":"13","admin2_code":"02","admin3_code":"1704062","admin4_code":"","population":"3390","elevation":"","dem":"8","timezone":"Asia/Manila","modification_date":"2015-01-27"},{"geonameid":"1720223","name":"Callaguip","asciiname":"Callaguip","alternatenames":"Callaguip,Callagulp","latitude":"18.07139","longitude":"120.48667","feature_class":"P","feature_code":"PPL","country_code":"PH","cc2":"","admin1_code":"01","admin2_code":"28","admin3_code":"","admin4_code":"","population":"2105","elevation":"","dem":"6","timezone":"Asia/Manila","modification_date":"2012-01-17"},{"geonameid":"1720229","name":"Calizo","asciiname":"Calizo","alternatenames":"Calizo","latitude":"11.5819","longitude":"122.3857","feature_class":"P","feature_code":"PPL","country_code":"PH","cc2":"","admin1_code":"06","admin2_code":"04","admin3_code":"","admin4_code":"","population":"3527","elevation":"","dem":"23","timezone":"Asia/Manila","modification_date":"2012-01-17"},{"geonameid":"1720237","name":"Calituban","asciiname":"Calituban","alternatenames":"Calituban","latitude":"10.23995","longitude":"124.2919","feature_class":"P","feature_code":"PPL","country_code":"PH","cc2":"","admin1_code":"07","admin2_code":"11","admin3_code":"","admin4_code":"","population":"3950","elevation":"","dem":"-9999","timezone":"Asia/Manila","modification_date":"2012-02-01"},{"geonameid":"1720257","name":"Colipapa","asciiname":"Colipapa","alternatenames":"Calipapa,Colipapa,Culipapa,Kalipapa,Kulipapa","latitude":"9.4726","longitude":"122.5616","feature_class":"P","feature_code":"PPL","country_code":"PH","cc2":"","admin1_code":"07","admin2_code":"46","admin3_code":"","admin4_code":"","population":"7680","elevation":"","dem":"11","timezone":"Asia/Manila","modification_date":"2012-01-17"},{"geonameid":"1720269","name":"Calintaan","asciiname":"Calintaan","alternatenames":"","latitude":"12.56667","longitude":"120.93333","feature_class":"P","feature_code":"PPL","country_code":"PH","cc2":"","admin1_code":"41","admin2_code":"40","admin3_code":"","admin4_code":"","population":"11476","elevation":"","dem":"1","timezone":"Asia/Manila","modification_date":"2010-08-14"},{"geonameid":"1720274","name":"Calinog","asciiname":"Calinog","alternatenames":"","latitude":"11.11667","longitude":"122.56667","feature_class":"P","feature_code":"PPLA3","country_code":"PH","cc2":"","admin1_code":"06","admin2_code":"30","admin3_code":"1720276","admin4_code":"","population":"5552","elevation":"","dem":"51","timezone":"Asia/Manila","modification_date":"2013-12-01"},{"geonameid":"1720283","name":"Calingcuan","asciiname":"Calingcuan","alternatenames":"Calingcuan","latitude":"15.33333","longitude":"120.58333","feature_class":"P","feature_code":"PPL","country_code":"PH","cc2":"","admin1_code":"03","admin2_code":"63","admin3_code":"","admin4_code":"","population":"3208","elevation":"","dem":"49","timezone":"Asia/Manila","modification_date":"2012-01-17"},{"geonameid":"1720297","name":"Calinaoan Malasin","asciiname":"Calinaoan Malasin","alternatenames":"Calinaoan,Calinaoan Malasin,Calinauan,Colinauan","latitude":"17.35189","longitude":"121.74074","feature_class":"P","feature_code":"PPL","country_code":"PH","cc2":"","admin1_code":"02","admin2_code":"31","admin3_code":"","admin4_code":"","population":"2083","elevation":"","dem":"30","timezone":"Asia/Manila","modification_date":"2013-05-07"},{"geonameid":"1720316","name":"Calilayan","asciiname":"Calilayan","alternatenames":"Calilayan,Ilayang Calilayan,Kalilayan Ibaba","latitude":"13.8503","longitude":"121.93","feature_class":"P","feature_code":"PPL","country_code":"PH","cc2":"","admin1_code":"40","admin2_code":"H2","admin3_code":"","admin4_code":"","population":"2709","elevation":"","dem":"8","timezone":"Asia/Manila","modification_date":"2012-06-05"},{"geonameid":"1720329","name":"Calidñgan","asciiname":"Calidngan","alternatenames":"Calidngan,Calidñgan","latitude":"10.1","longitude":"123.63333","feature_class":"P","feature_code":"PPL","country_code":"PH","cc2":"","admin1_code":"07","admin2_code":"21","admin3_code":"","admin4_code":"","population":"3476","elevation":"","dem":"21","timezone":"Asia/Manila","modification_date":"2012-02-01"},{"geonameid":"1720344","name":"Calibutbut","asciiname":"Calibutbut","alternatenames":"Calibutbut","latitude":"15.11494","longitude":"120.59815","feature_class":"P","feature_code":"PPL","country_code":"PH","cc2":"","admin1_code":"03","admin2_code":"50","admin3_code":"","admin4_code":"","population":"5282","elevation":"","dem":"79","timezone":"Asia/Manila","modification_date":"2013-01-10"},{"geonameid":"1720345","name":"Calibungan","asciiname":"Calibungan","alternatenames":"Calibungan,Kalibungan","latitude":"15.5982","longitude":"120.724","feature_class":"P","feature_code":"PPL","country_code":"PH","cc2":"","admin1_code":"03","admin2_code":"63","admin3_code":"","admin4_code":"","population":"2153","elevation":"","dem":"28","timezone":"Asia/Manila","modification_date":"2013-03-05"},{"geonameid":"1720372","name":"Calero","asciiname":"Calero","alternatenames":"","latitude":"10.3","longitude":"123.88333","feature_class":"P","feature_code":"PPL","country_code":"PH","cc2":"","admin1_code":"07","admin2_code":"B7","admin3_code":"","admin4_code":"","population":"3232","elevation":"","dem":"12","timezone":"Asia/Manila","modification_date":"2014-03-01"},{"geonameid":"1720374","name":"Calepaan","asciiname":"Calepaan","alternatenames":"Calepaan","latitude":"16.0195","longitude":"120.619","feature_class":"P","feature_code":"PPL","country_code":"PH","cc2":"","admin1_code":"01","admin2_code":"51","admin3_code":"","admin4_code":"","population":"3938","elevation":"","dem":"42","timezone":"Asia/Manila","modification_date":"2012-01-17"},{"geonameid":"1720397","name":"Calbiga","asciiname":"Calbiga","alternatenames":"Calbiga","latitude":"11.62472","longitude":"125.01639","feature_class":"P","feature_code":"PPL","country_code":"PH","cc2":"","admin1_code":"08","admin2_code":"55","admin3_code":"","admin4_code":"","population":"2920","elevation":"","dem":"20","timezone":"Asia/Manila","modification_date":"2012-01-17"},{"geonameid":"1720402","name":"Calbayog City","asciiname":"Calbayog City","alternatenames":"CYP,Calbayog,Calbayog City,Dakbayan sa Calbayog,Syudad san Calbayog","latitude":"12.0668","longitude":"124.5962","feature_class":"P","feature_code":"PPL","country_code":"PH","cc2":"","admin1_code":"08","admin2_code":"55","admin3_code":"","admin4_code":"","population":"67921","elevation":"","dem":"7","timezone":"Asia/Manila","modification_date":"2012-06-05"},{"geonameid":"1720431","name":"Calayaan","asciiname":"Calayaan","alternatenames":"Calayaan","latitude":"15.56739","longitude":"120.51434","feature_class":"P","feature_code":"PPL","country_code":"PH","cc2":"","admin1_code":"03","admin2_code":"63","admin3_code":"","admin4_code":"","population":"2285","elevation":"","dem":"71","timezone":"Asia/Manila","modification_date":"2013-03-05"},{"geonameid":"1720435","name":"Calaya","asciiname":"Calaya","alternatenames":"Calaya","latitude":"10.4916","longitude":"122.6255","feature_class":"P","feature_code":"PPL","country_code":"PH","cc2":"","admin1_code":"06","admin2_code":"J3","admin3_code":"","admin4_code":"","population":"2713","elevation":"","dem":"89","timezone":"Asia/Manila","modification_date":"2012-01-17"},{"geonameid":"1720464","name":"Calauan","asciiname":"Calauan","alternatenames":"Calauan","latitude":"14.14989","longitude":"121.3152","feature_class":"P","feature_code":"PPLA3","country_code":"PH","cc2":"","admin1_code":"40","admin2_code":"33","admin3_code":"1720467","admin4_code":"","population":"36580","elevation":"","dem":"18","timezone":"Asia/Manila","modification_date":"2015-01-25"},{"geonameid":"1720472","name":"Calauag","asciiname":"Calauag","alternatenames":"Calauag,Calavag","latitude":"13.9575","longitude":"122.288","feature_class":"P","feature_code":"PPL","country_code":"PH","cc2":"","admin1_code":"40","admin2_code":"H2","admin3_code":"","admin4_code":"","population":"20837","elevation":"","dem":"8","timezone":"Asia/Manila","modification_date":"2012-06-05"},{"geonameid":"1720474","name":"Calauag","asciiname":"Calauag","alternatenames":"Calauag,Calawag","latitude":"10.66817","longitude":"119.5705","feature_class":"P","feature_code":"PPL","country_code":"PH","cc2":"","admin1_code":"41","admin2_code":"49","admin3_code":"","admin4_code":"","population":"4379","elevation":"","dem":"14","timezone":"Asia/Manila","modification_date":"2012-01-17"},{"geonameid":"1720478","name":"Calatugas","asciiname":"Calatugas","alternatenames":"Calategas,Calatugas","latitude":"9.16898","longitude":"118.2235","feature_class":"P","feature_code":"PPL","country_code":"PH","cc2":"","admin1_code":"41","admin2_code":"49","admin3_code":"","admin4_code":"","population":"4542","elevation":"","dem":"9","timezone":"Asia/Manila","modification_date":"2012-01-17"},{"geonameid":"1720481","name":"Calatrava","asciiname":"Calatrava","alternatenames":"Calatrava","latitude":"12.6198","longitude":"122.0714","feature_class":"P","feature_code":"PPLA3","country_code":"PH","cc2":"","admin1_code":"41","admin2_code":"54","admin3_code":"1720483","admin4_code":"","population":"2225","elevation":"","dem":"8","timezone":"Asia/Manila","modification_date":"2011-07-31"},{"geonameid":"1720482","name":"Calatrava","asciiname":"Calatrava","alternatenames":"Calatrava","latitude":"10.59496","longitude":"123.4838","feature_class":"P","feature_code":"PPL","country_code":"PH","cc2":"","admin1_code":"06","admin2_code":"H3","admin3_code":"","admin4_code":"","population":"9489","elevation":"","dem":"8","timezone":"Asia/Manila","modification_date":"2012-01-17"},{"geonameid":"1720499","name":"Calatagan","asciiname":"Calatagan","alternatenames":"Calalagan,Calatagan","latitude":"13.83224","longitude":"120.63219","feature_class":"P","feature_code":"PPLA3","country_code":"PH","cc2":"","admin1_code":"40","admin2_code":"09","admin3_code":"1720503","admin4_code":"","population":"16110","elevation":"","dem":"13","timezone":"Asia/Manila","modification_date":"2011-07-31"},{"geonameid":"1720500","name":"Calatagan","asciiname":"Calatagan","alternatenames":"Calatagan","latitude":"13.5885","longitude":"124.2065","feature_class":"P","feature_code":"PPL","country_code":"PH","cc2":"","admin1_code":"05","admin2_code":"19","admin3_code":"","admin4_code":"","population":"7132","elevation":"","dem":"41","timezone":"Asia/Manila","modification_date":"2012-01-17"},{"geonameid":"1720508","name":"Calasiao","asciiname":"Calasiao","alternatenames":"Calasiao,Colasiao","latitude":"16.0111","longitude":"120.36","feature_class":"P","feature_code":"PPLA3","country_code":"PH","cc2":"","admin1_code":"01","admin2_code":"51","admin3_code":"1720509","admin4_code":"","population":"24276","elevation":"","dem":"9","timezone":"Asia/Manila","modification_date":"2011-07-31"},{"geonameid":"1720511","name":"Calasgasan","asciiname":"Calasgasan","alternatenames":"Calasgasan","latitude":"14.08333","longitude":"122.93333","feature_class":"P","feature_code":"PPL","country_code":"PH","cc2":"","admin1_code":"05","admin2_code":"15","admin3_code":"","admin4_code":"","population":"2447","elevation":"","dem":"24","timezone":"Asia/Manila","modification_date":"2012-02-01"},{"geonameid":"1720537","name":"Calape","asciiname":"Calape","alternatenames":"Calape,Calapi","latitude":"10.2736","longitude":"122.9743","feature_class":"P","feature_code":"PPL","country_code":"PH","cc2":"","admin1_code":"06","admin2_code":"H3","admin3_code":"","admin4_code":"","population":"2954","elevation":"","dem":"21","timezone":"Asia/Manila","modification_date":"2012-01-17"},{"geonameid":"1720540","name":"Calape","asciiname":"Calape","alternatenames":"Calape,Calapi","latitude":"11.9425","longitude":"125.02139","feature_class":"P","feature_code":"PPL","country_code":"PH","cc2":"","admin1_code":"08","admin2_code":"55","admin3_code":"","admin4_code":"","population":"2587","elevation":"","dem":"149","timezone":"Asia/Manila","modification_date":"2012-01-17"},{"geonameid":"1720541","name":"Calape","asciiname":"Calape","alternatenames":"Calape","latitude":"11.1756","longitude":"124.0335","feature_class":"P","feature_code":"PPL","country_code":"PH","cc2":"","admin1_code":"07","admin2_code":"21","admin3_code":"","admin4_code":"","population":"2832","elevation":"","dem":"10","timezone":"Asia/Manila","modification_date":"2012-01-17"},{"geonameid":"1720542","name":"Calape","asciiname":"Calape","alternatenames":"Calape","latitude":"9.8922","longitude":"123.8748","feature_class":"P","feature_code":"PPLA3","country_code":"PH","cc2":"","admin1_code":"07","admin2_code":"11","admin3_code":"1720543","admin4_code":"","population":"3367","elevation":"","dem":"8","timezone":"Asia/Manila","modification_date":"2011-07-31"},{"geonameid":"1720561","name":"Calapan","asciiname":"Calapan","alternatenames":"Calapan,Calapan City,Calapan Lakanbalen,Calapán,Dakbayan sa Calapan,Kalapan,Kota Calapan,Lungsod ng Calapan,ka la pan,kalapan,kallapan,کالاپان,卡拉潘,칼라판","latitude":"13.4117","longitude":"121.1803","feature_class":"P","feature_code":"PPLA","country_code":"PH","cc2":"","admin1_code":"41","admin2_code":"13","admin3_code":"","admin4_code":"","population":"66008","elevation":"","dem":"8","timezone":"Asia/Manila","modification_date":"2010-08-14"},{"geonameid":"1720573","name":"Calaoagan","asciiname":"Calaoagan","alternatenames":"Calaoagan,Calaogan","latitude":"18.04279","longitude":"121.72325","feature_class":"P","feature_code":"PPL","country_code":"PH","cc2":"","admin1_code":"02","admin2_code":"14","admin3_code":"","admin4_code":"","population":"2471","elevation":"","dem":"19","timezone":"Asia/Manila","modification_date":"2012-01-17"},{"geonameid":"1720590","name":"Calantas","asciiname":"Calantas","alternatenames":"Calantas,Kalantas","latitude":"15.01933","longitude":"120.51793","feature_class":"P","feature_code":"PPL","country_code":"PH","cc2":"","admin1_code":"03","admin2_code":"50","admin3_code":"","admin4_code":"","population":"4519","elevation":"","dem":"45","timezone":"Asia/Manila","modification_date":"2013-01-10"},{"geonameid":"1720592","name":"Calantas","asciiname":"Calantas","alternatenames":"Calantas","latitude":"13.97202","longitude":"120.77456","feature_class":"P","feature_code":"PPL","country_code":"PH","cc2":"","admin1_code":"40","admin2_code":"09","admin3_code":"","admin4_code":"","population":"2564","elevation":"","dem":"79","timezone":"Asia/Manila","modification_date":"2012-02-01"},{"geonameid":"1720594","name":"Calantac","asciiname":"Calantac","alternatenames":"Calantac","latitude":"17.90904","longitude":"121.7228","feature_class":"P","feature_code":"PPL","country_code":"PH","cc2":"","admin1_code":"02","admin2_code":"14","admin3_code":"","admin4_code":"","population":"2541","elevation":"","dem":"21","timezone":"Asia/Manila","modification_date":"2013-03-05"},{"geonameid":"1720599","name":"Calanogas","asciiname":"Calanogas","alternatenames":"Calanogas","latitude":"7.75","longitude":"124.1","feature_class":"P","feature_code":"PPLA3","country_code":"PH","cc2":"","admin1_code":"14","admin2_code":"35","admin3_code":"1720600","admin4_code":"","population":"0","elevation":"","dem":"745","timezone":"Asia/Manila","modification_date":"2011-07-31"},{"geonameid":"1720622","name":"Calangain","asciiname":"Calangain","alternatenames":"Calangain","latitude":"14.89815","longitude":"120.55877","feature_class":"P","feature_code":"PPL","country_code":"PH","cc2":"","admin1_code":"03","admin2_code":"50","admin3_code":"","admin4_code":"","population":"2526","elevation":"","dem":"6","timezone":"Asia/Manila","modification_date":"2012-12-05"},{"geonameid":"1720634","name":"Calancuasan Norte","asciiname":"Calancuasan Norte","alternatenames":"Calancuasan,Calancuasan Norte","latitude":"15.80137","longitude":"120.64102","feature_class":"P","feature_code":"PPL","country_code":"PH","cc2":"","admin1_code":"03","admin2_code":"47","admin3_code":"","admin4_code":"","population":"2453","elevation":"","dem":"25","timezone":"Asia/Manila","modification_date":"2012-08-04"},{"geonameid":"1720643","name":"Calanasan","asciiname":"Calanasan","alternatenames":"Bayag","latitude":"18.255","longitude":"121.03444","feature_class":"P","feature_code":"PPLA3","country_code":"PH","cc2":"PH","admin1_code":"15","admin2_code":"7115731","admin3_code":"1720644","admin4_code":"","population":"0","elevation":"","dem":"320","timezone":"Asia/Manila","modification_date":"2011-07-31"},{"geonameid":"1720656","name":"Calampisauan","asciiname":"Calampisauan","alternatenames":"Calampisauan,Calampisawan","latitude":"10.60985","longitude":"123.4765","feature_class":"P","feature_code":"PPL","country_code":"PH","cc2":"","admin1_code":"06","admin2_code":"H3","admin3_code":"","admin4_code":"","population":"2382","elevation":"","dem":"11","timezone":"Asia/Manila","modification_date":"2012-01-17"},{"geonameid":"1720681","name":"Calamba","asciiname":"Calamba","alternatenames":"Calamba,Calamba City,Calamba Lakanbalen,Calambá,Kalamba,Kota Calamba,Urbs Calamba,ka lan ba,kalamba  lagwna,kallamba,Каламба,کالامبا، لاگونا,卡兰巴,칼람바","latitude":"14.21167","longitude":"121.16528","feature_class":"P","feature_code":"PPLA","country_code":"PH","cc2":"","admin1_code":"40","admin2_code":"33","admin3_code":"","admin4_code":"","population":"316612","elevation":"","dem":"16","timezone":"Asia/Manila","modification_date":"2010-08-14"},{"geonameid":"1720682","name":"Calamba","asciiname":"Calamba","alternatenames":"Calamba","latitude":"10.1755","longitude":"123.2826","feature_class":"P","feature_code":"PPL","country_code":"PH","cc2":"","admin1_code":"07","admin2_code":"46","admin3_code":"","admin4_code":"","population":"2719","elevation":"","dem":"14","timezone":"Asia/Manila","modification_date":"2012-01-17"},{"geonameid":"1720683","name":"Calamba","asciiname":"Calamba","alternatenames":"Calamba","latitude":"9.10361","longitude":"125.59417","feature_class":"P","feature_code":"PPL","country_code":"PH","cc2":"","admin1_code":"13","admin2_code":"02","admin3_code":"","admin4_code":"","population":"2713","elevation":"","dem":"42","timezone":"Asia/Manila","modification_date":"2012-02-01"},{"geonameid":"1720684","name":"Calamba","asciiname":"Calamba","alternatenames":"Calamba","latitude":"8.5587","longitude":"123.6425","feature_class":"P","feature_code":"PPL","country_code":"PH","cc2":"","admin1_code":"10","admin2_code":"42","admin3_code":"","admin4_code":"","population":"6738","elevation":"","dem":"115","timezone":"Asia/Manila","modification_date":"2012-01-17"},{"geonameid":"1720693","name":"Calamagui East","asciiname":"Calamagui East","alternatenames":"Calamagin,Calamagui,Calamagui East","latitude":"17.48815","longitude":"121.76845","feature_class":"P","feature_code":"PPL","country_code":"PH","cc2":"","admin1_code":"02","admin2_code":"31","admin3_code":"","admin4_code":"","population":"2671","elevation":"","dem":"31","timezone":"Asia/Manila","modification_date":"2013-04-03"},{"geonameid":"1720743","name":"Calachuchi","asciiname":"Calachuchi","alternatenames":"Calachuche,Calachuchi,Calasuche,Calatuche","latitude":"12.21775","longitude":"123.53061","feature_class":"P","feature_code":"PPL","country_code":"PH","cc2":"","admin1_code":"05","admin2_code":"39","admin3_code":"","admin4_code":"","population":"2278","elevation":"","dem":"0","timezone":"Asia/Manila","modification_date":"2012-01-17"},{"geonameid":"1720751","name":"Calaca","asciiname":"Calaca","alternatenames":"Calaca","latitude":"13.93244","longitude":"120.81327","feature_class":"P","feature_code":"PPLA3","country_code":"PH","cc2":"","admin1_code":"40","admin2_code":"09","admin3_code":"1720752","admin4_code":"","population":"37443","elevation":"","dem":"24","timezone":"Asia/Manila","modification_date":"2011-07-31"},{"geonameid":"1720758","name":"Calabugao","asciiname":"Calabugao","alternatenames":"Calabugao,Kalabugao","latitude":"8.45639","longitude":"125.15889","feature_class":"P","feature_code":"PPL","country_code":"PH","cc2":"","admin1_code":"10","admin2_code":"12","admin3_code":"","admin4_code":"","population":"5982","elevation":"","dem":"833","timezone":"Asia/Manila","modification_date":"2012-01-17"},{"geonameid":"1720786","name":"Calabasa","asciiname":"Calabasa","alternatenames":"","latitude":"7.24639","longitude":"122.23417","feature_class":"P","feature_code":"PPL","country_code":"PH","cc2":"","admin1_code":"09","admin2_code":"66","admin3_code":"","admin4_code":"","population":"2419","elevation":"","dem":"184","timezone":"Asia/Manila","modification_date":"2010-08-14"},{"geonameid":"1720793","name":"Calabanga","asciiname":"Calabanga","alternatenames":"Calabanga,Calabunga","latitude":"13.7068","longitude":"123.2087","feature_class":"P","feature_code":"PPLA3","country_code":"PH","cc2":"","admin1_code":"05","admin2_code":"16","admin3_code":"1720794","admin4_code":"","population":"26798","elevation":"","dem":"5","timezone":"Asia/Manila","modification_date":"2011-07-31"},{"geonameid":"1720806","name":"Calabaca","asciiname":"Calabaca","alternatenames":"Calabaca","latitude":"14.3001","longitude":"122.43364","feature_class":"P","feature_code":"PPL","country_code":"PH","cc2":"","admin1_code":"05","admin2_code":"15","admin3_code":"","admin4_code":"","population":"2749","elevation":"","dem":"7","timezone":"Asia/Manila","modification_date":"2012-01-17"},{"geonameid":"1720807","name":"Calaba","asciiname":"Calaba","alternatenames":"Calaba","latitude":"17.6178","longitude":"120.6162","feature_class":"P","feature_code":"PPL","country_code":"PH","cc2":"","admin1_code":"15","admin2_code":"01","admin3_code":"","admin4_code":"","population":"2482","elevation":"","dem":"57","timezone":"Asia/Manila","modification_date":"2012-01-17"},{"geonameid":"1720808","name":"Calaba","asciiname":"Calaba","alternatenames":"Calaba","latitude":"15.3005","longitude":"120.87423","feature_class":"P","feature_code":"PPL","country_code":"PH","cc2":"","admin1_code":"03","admin2_code":"47","admin3_code":"","admin4_code":"","population":"4229","elevation":"","dem":"23","timezone":"Asia/Manila","modification_date":"2012-12-05"},{"geonameid":"1720820","name":"Cajimos","asciiname":"Cajimos","alternatenames":"Cajimos","latitude":"12.59463","longitude":"122.27531","feature_class":"P","feature_code":"PPL","country_code":"PH","cc2":"","admin1_code":"41","admin2_code":"54","admin3_code":"","admin4_code":"","population":"2739","elevation":"","dem":"23","timezone":"Asia/Manila","modification_date":"2012-01-17"},{"geonameid":"1720823","name":"Cajidiocan","asciiname":"Cajidiocan","alternatenames":"Cajidiocan","latitude":"12.36696","longitude":"122.68141","feature_class":"P","feature_code":"PPLA3","country_code":"PH","cc2":"","admin1_code":"41","admin2_code":"54","admin3_code":"1720824","admin4_code":"","population":"0","elevation":"","dem":"50","timezone":"Asia/Manila","modification_date":"2014-11-16"},{"geonameid":"1720840","name":"Cainta","asciiname":"Cainta","alternatenames":"Cainta","latitude":"14.5786","longitude":"121.1222","feature_class":"P","feature_code":"PPLA3","country_code":"PH","cc2":"","admin1_code":"40","admin2_code":"53","admin3_code":"1720841","admin4_code":"","population":"283172","elevation":"","dem":"12","timezone":"Asia/Manila","modification_date":"2011-07-31"},{"geonameid":"1720863","name":"Caigangan","asciiname":"Caigangan","alternatenames":"Caigangan","latitude":"13.25811","longitude":"121.93363","feature_class":"P","feature_code":"PPL","country_code":"PH","cc2":"","admin1_code":"41","admin2_code":"38","admin3_code":"","admin4_code":"","population":"2283","elevation":"","dem":"11","timezone":"Asia/Manila","modification_date":"2012-01-17"},{"geonameid":"1720871","name":"Caibiran","asciiname":"Caibiran","alternatenames":"Caibiran","latitude":"11.57167","longitude":"124.58222","feature_class":"P","feature_code":"PPLA3","country_code":"PH","cc2":"","admin1_code":"08","admin2_code":"37","admin3_code":"1720872","admin4_code":"","population":"6462","elevation":"","dem":"6","timezone":"Asia/Manila","modification_date":"2011-07-31"},{"geonameid":"1720907","name":"Cagwait","asciiname":"Cagwait","alternatenames":"Caguait,Cagwait,Cagwan","latitude":"8.91861","longitude":"126.30111","feature_class":"P","feature_code":"PPLA3","country_code":"PH","cc2":"PH","admin1_code":"13","admin2_code":"62","admin3_code":"1720908","admin4_code":"","population":"0","elevation":"","dem":"7","timezone":"Asia/Manila","modification_date":"2011-07-31"},{"geonameid":"1720948","name":"Cagsiay","asciiname":"Cagsiay","alternatenames":"Cagsiay","latitude":"14.21667","longitude":"121.75","feature_class":"P","feature_code":"PPL","country_code":"PH","cc2":"","admin1_code":"40","admin2_code":"H2","admin3_code":"","admin4_code":"","population":"10173","elevation":"","dem":"26","timezone":"Asia/Manila","modification_date":"2012-06-05"},{"geonameid":"1720984","name":"Cagmanaba","asciiname":"Cagmanaba","alternatenames":"Cagmanaba","latitude":"13.05501","longitude":"123.29706","feature_class":"P","feature_code":"PPL","country_code":"PH","cc2":"","admin1_code":"05","admin2_code":"05","admin3_code":"","admin4_code":"","population":"2773","elevation":"","dem":"1","timezone":"Asia/Manila","modification_date":"2012-02-01"},{"geonameid":"1720988","name":"Kaliliog","asciiname":"Kaliliog","alternatenames":"Caglilag,Cagliliog,Caglilog,Kagliliog,Kaliliog","latitude":"13.9039","longitude":"123.2925","feature_class":"P","feature_code":"PPL","country_code":"PH","cc2":"","admin1_code":"05","admin2_code":"16","admin3_code":"","admin4_code":"","population":"2738","elevation":"","dem":"3","timezone":"Asia/Manila","modification_date":"2012-01-17"},{"geonameid":"1721010","name":"Cagdianao","asciiname":"Cagdianao","alternatenames":"Cadayanao,Cagdianao,Kagdyanao","latitude":"9.92111","longitude":"125.66917","feature_class":"P","feature_code":"PPLA3","country_code":"PH","cc2":"","admin1_code":"13","admin2_code":"61","admin3_code":"1721011","admin4_code":"","population":"2676","elevation":"","dem":"5","timezone":"Asia/Manila","modification_date":"2011-07-31"},{"geonameid":"1721049","name":"Cagbang","asciiname":"Cagbang","alternatenames":"Cagbang","latitude":"10.7","longitude":"122.49889","feature_class":"P","feature_code":"PPL","country_code":"PH","cc2":"","admin1_code":"06","admin2_code":"30","admin3_code":"","admin4_code":"","population":"3856","elevation":"","dem":"5","timezone":"Asia/Manila","modification_date":"2012-02-01"},{"geonameid":"1721077","name":"Cagayan","asciiname":"Cagayan","alternatenames":"Cagayan,Cagayan de Sulu,Cagayan de Tawi-Tawi,Kagayan,Kagayan de Tawi-Tawi,Mahalu,Tana' Mapun,Tana’ Mapun","latitude":"6.9747","longitude":"118.5144","feature_class":"P","feature_code":"PPL","country_code":"PH","cc2":"","admin1_code":"41","admin2_code":"49","admin3_code":"","admin4_code":"","population":"3847","elevation":"","dem":"8","timezone":"Asia/Manila","modification_date":"2013-05-07"},{"geonameid":"1721080","name":"Cagayan de Oro","asciiname":"Cagayan de Oro","alternatenames":"CGY,Cagayan de Oro,Cagayan de Oro City,Cagayan de Oro Lakanbalen,Cagayán de Oro,Dakbayan sa Cagayan de Oro,Kagajan de Oras,Kagajan-de-Oro,Lungsod ng Cagayan de Oro,ka jia yan de ao luo,kagayande-olo,Кагаян-де-Оро,カガヤン・デ・オロ,卡加延德奥罗,카가얀데오로","latitude":"8.48222","longitude":"124.64722","feature_class":"P","feature_code":"PPLA","country_code":"PH","cc2":"","admin1_code":"10","admin2_code":"43","admin3_code":"","admin4_code":"","population":"445103","elevation":"","dem":"8","timezone":"Asia/Manila","modification_date":"2012-05-12"},{"geonameid":"1721082","name":"Cagayancillo","asciiname":"Cagayancillo","alternatenames":"Cagayancillo,Nalad Cagayancillo","latitude":"9.57694","longitude":"121.20722","feature_class":"P","feature_code":"PPLA3","country_code":"PH","cc2":"PH","admin1_code":"41","admin2_code":"49","admin3_code":"1721083","admin4_code":"","population":"0","elevation":"","dem":"35","timezone":"Asia/Manila","modification_date":"2011-07-31"},{"geonameid":"1721120","name":"Cagamotan","asciiname":"Cagamotan","alternatenames":"Cagamotan,Cagamutan","latitude":"12.35583","longitude":"125.28391","feature_class":"P","feature_code":"PPL","country_code":"PH","cc2":"","admin1_code":"08","admin2_code":"67","admin3_code":"","admin4_code":"","population":"2688","elevation":"","dem":"9","timezone":"Asia/Manila","modification_date":"2012-01-17"},{"geonameid":"1721133","name":"Cafe","asciiname":"Cafe","alternatenames":"Cafe","latitude":"15.33686","longitude":"120.70623","feature_class":"P","feature_code":"PPL","country_code":"PH","cc2":"","admin1_code":"03","admin2_code":"63","admin3_code":"","admin4_code":"","population":"2339","elevation":"","dem":"24","timezone":"Asia/Manila","modification_date":"2012-01-17"},