{"nextFile":"cities.137.json","rows":[{"geonameid":"4990875","name":"Dimondale","asciiname":"Dimondale","alternatenames":"","latitude":"42.64559","longitude":"-84.64887","feature_class":"P","feature_code":"PPL","country_code":"US","cc2":"","admin1_code":"MI","admin2_code":"045","admin3_code":"","admin4_code":"","population":"1234","elevation":"262","dem":"262","timezone":"America/Detroit","modification_date":"2011-05-14"},{"geonameid":"4990964","name":"Dollar Bay","asciiname":"Dollar Bay","alternatenames":"","latitude":"47.11965","longitude":"-88.51151","feature_class":"P","feature_code":"PPL","country_code":"US","cc2":"","admin1_code":"MI","admin2_code":"061","admin3_code":"","admin4_code":"","population":"1082","elevation":"191","dem":"193","timezone":"America/Detroit","modification_date":"2011-05-14"},{"geonameid":"4991076","name":"Douglas","asciiname":"Douglas","alternatenames":"Daglas,Duglas,daglas  myshygan,dwghlas,Даглас,Дуглас,داگلاس، میشیگان,دوغلاس,ڈگلس، مشی گن","latitude":"42.64336","longitude":"-86.20059","feature_class":"P","feature_code":"PPL","country_code":"US","cc2":"","admin1_code":"MI","admin2_code":"005","admin3_code":"","admin4_code":"","population":"1232","elevation":"186","dem":"191","timezone":"America/Detroit","modification_date":"2011-05-14"},{"geonameid":"4991111","name":"Dowagiac","asciiname":"Dowagiac","alternatenames":"","latitude":"41.98421","longitude":"-86.10862","feature_class":"P","feature_code":"PPL","country_code":"US","cc2":"","admin1_code":"MI","admin2_code":"027","admin3_code":"","admin4_code":"","population":"5879","elevation":"232","dem":"234","timezone":"America/Detroit","modification_date":"2011-05-14"},{"geonameid":"4991330","name":"Dundee","asciiname":"Dundee","alternatenames":"","latitude":"41.95727","longitude":"-83.65966","feature_class":"P","feature_code":"PPL","country_code":"US","cc2":"","admin1_code":"MI","admin2_code":"115","admin3_code":"","admin4_code":"","population":"3957","elevation":"203","dem":"201","timezone":"America/Detroit","modification_date":"2011-05-14"},{"geonameid":"4991364","name":"Durand","asciiname":"Durand","alternatenames":"","latitude":"42.91198","longitude":"-83.98468","feature_class":"P","feature_code":"PPL","country_code":"US","cc2":"","admin1_code":"MI","admin2_code":"155","admin3_code":"","admin4_code":"","population":"3446","elevation":"242","dem":"242","timezone":"America/Detroit","modification_date":"2011-05-14"},{"geonameid":"4991470","name":"Eagle River","asciiname":"Eagle River","alternatenames":"","latitude":"47.41381","longitude":"-88.29566","feature_class":"P","feature_code":"PPLA2","country_code":"US","cc2":"","admin1_code":"MI","admin2_code":"083","admin3_code":"","admin4_code":"","population":"71","elevation":"198","dem":"193","timezone":"America/Detroit","modification_date":"2011-05-14"},{"geonameid":"4991600","name":"East Grand Rapids","asciiname":"East Grand Rapids","alternatenames":"Ist Grand Rapids,ayst ghrand rabydz,grndrpydz shrqy  myshygan,Ист Гранд Рапидс,إيست غراند رابيدز,مشرقی گرینڈ ریپڈ، مشی گن,گرندرپیدز شرقی، میشیگان","latitude":"42.94114","longitude":"-85.61003","feature_class":"P","feature_code":"PPL","country_code":"US","cc2":"","admin1_code":"MI","admin2_code":"081","admin3_code":"","admin4_code":"","population":"10694","elevation":"229","dem":"232","timezone":"America/Detroit","modification_date":"2011-05-14"},{"geonameid":"4991613","name":"East Jordan","asciiname":"East Jordan","alternatenames":"","latitude":"45.15806","longitude":"-85.12423","feature_class":"P","feature_code":"PPL","country_code":"US","cc2":"","admin1_code":"MI","admin2_code":"029","admin3_code":"","admin4_code":"","population":"2351","elevation":"197","dem":"198","timezone":"America/Detroit","modification_date":"2011-05-14"},{"geonameid":"4991640","name":"East Lansing","asciiname":"East Lansing","alternatenames":"Ist Lansing,Ist-Lansing,ayst lansngh,dong lan xin,iseuteulaensing,isutoranshingu,lnsyng shrqy  myshygan,mshrqy lynsng  mshy gn,Ист Лансинг,Ист-Лансинг,إيست لانسنغ,لنسینگ شرقی، میشیگان,مشرقی لینسنگ، مشی گن,イーストランシング,东兰辛,이스트랜싱","latitude":"42.73698","longitude":"-84.48387","feature_class":"P","feature_code":"PPL","country_code":"US","cc2":"","admin1_code":"MI","admin2_code":"065","admin3_code":"","admin4_code":"","population":"48579","elevation":"261","dem":"262","timezone":"America/Detroit","modification_date":"2011-05-14"},{"geonameid":"4991692","name":"East Tawas","asciiname":"East Tawas","alternatenames":"ECA","latitude":"44.27946","longitude":"-83.49025","feature_class":"P","feature_code":"PPL","country_code":"US","cc2":"","admin1_code":"MI","admin2_code":"069","admin3_code":"","admin4_code":"","population":"2808","elevation":"178","dem":"181","timezone":"America/Detroit","modification_date":"2012-05-13"},{"geonameid":"4991735","name":"Eastpointe","asciiname":"Eastpointe","alternatenames":"Istpojnt,aystbwynt,Истпойнт,Истпојнт,إيستبوينت,ایست‌پوینت، میشیگان,ایسٹ پوائنٹ، مشی گن","latitude":"42.46837","longitude":"-82.95547","feature_class":"P","feature_code":"PPL","country_code":"US","cc2":"","admin1_code":"MI","admin2_code":"099","admin3_code":"","admin4_code":"","population":"32442","elevation":"187","dem":"189","timezone":"America/Detroit","modification_date":"2011-05-14"},{"geonameid":"4991740","name":"Eastwood","asciiname":"Eastwood","alternatenames":"","latitude":"42.3031","longitude":"-85.55028","feature_class":"P","feature_code":"PPL","country_code":"US","cc2":"","admin1_code":"MI","admin2_code":"077","admin3_code":"","admin4_code":"","population":"6340","elevation":"262","dem":"266","timezone":"America/Detroit","modification_date":"2011-05-14"},{"geonameid":"4991753","name":"Eaton Rapids","asciiname":"Eaton Rapids","alternatenames":"Iton Rapids,aytwn rabydz,yi dun la pi de,Итон Рапидс,إيتون رابيدز,ایتون‌رپیدز، میشیگان,ایٹن ریپڈز، مشی گن,伊頓拉皮德","latitude":"42.5092","longitude":"-84.65581","feature_class":"P","feature_code":"PPL","country_code":"US","cc2":"","admin1_code":"MI","admin2_code":"045","admin3_code":"","admin4_code":"","population":"5214","elevation":"265","dem":"266","timezone":"America/Detroit","modification_date":"2011-05-14"},{"geonameid":"4991791","name":"Ecorse","asciiname":"Ecorse","alternatenames":"Ehkors,Ikors,ai ke si,akrws,aykrwz  myshygan,aykwrs  mshy gn,Икорс,Экорс,إكروس,ایکروز، میشیگان,ایکورس، مشی گن,埃科斯","latitude":"42.24448","longitude":"-83.14576","feature_class":"P","feature_code":"PPL","country_code":"US","cc2":"","admin1_code":"MI","admin2_code":"163","admin3_code":"","admin4_code":"","population":"9512","elevation":"177","dem":"177","timezone":"America/Detroit","modification_date":"2011-05-14"},{"geonameid":"4991823","name":"Edgemont Park","asciiname":"Edgemont Park","alternatenames":"","latitude":"42.7467","longitude":"-84.59359","feature_class":"P","feature_code":"PPL","country_code":"US","cc2":"","admin1_code":"MI","admin2_code":"065","admin3_code":"","admin4_code":"","population":"2358","elevation":"265","dem":"267","timezone":"America/Detroit","modification_date":"2011-05-14"},{"geonameid":"4991857","name":"Edmore","asciiname":"Edmore","alternatenames":"","latitude":"43.40809","longitude":"-85.03863","feature_class":"P","feature_code":"PPL","country_code":"US","cc2":"","admin1_code":"MI","admin2_code":"117","admin3_code":"","admin4_code":"","population":"1201","elevation":"295","dem":"297","timezone":"America/Detroit","modification_date":"2011-05-14"},{"geonameid":"4991879","name":"Edwardsburg","asciiname":"Edwardsburg","alternatenames":"","latitude":"41.7956","longitude":"-86.08084","feature_class":"P","feature_code":"PPL","country_code":"US","cc2":"","admin1_code":"MI","admin2_code":"027","admin3_code":"","admin4_code":"","population":"1259","elevation":"254","dem":"253","timezone":"America/Detroit","modification_date":"2011-05-14"},{"geonameid":"4991969","name":"Elk Rapids","asciiname":"Elk Rapids","alternatenames":"Ehlk Rapids,Elk Rapids,alk rabyds,Елк Рапидс,Элк Рапидс,إلك رابيدس","latitude":"44.89556","longitude":"-85.41646","feature_class":"P","feature_code":"PPL","country_code":"US","cc2":"","admin1_code":"MI","admin2_code":"009","admin3_code":"","admin4_code":"","population":"1642","elevation":"182","dem":"183","timezone":"America/Detroit","modification_date":"2011-05-14"},{"geonameid":"4992232","name":"Escanaba","asciiname":"Escanaba","alternatenames":"ESC,Ehskanaba,Eskanaba,askanaba,askanaba  myshygan,skanaba  mshy gn,Есканаба,Эсканаба,إسكانابا,اسکانابا، میشیگان,سکانابا، مشی گن","latitude":"45.74525","longitude":"-87.06458","feature_class":"P","feature_code":"PPLA2","country_code":"US","cc2":"","admin1_code":"MI","admin2_code":"041","admin3_code":"","admin4_code":"","population":"12616","elevation":"185","dem":"181","timezone":"America/Detroit","modification_date":"2011-05-14"},{"geonameid":"4992251","name":"Essexville","asciiname":"Essexville","alternatenames":"","latitude":"43.6153","longitude":"-83.84192","feature_class":"P","feature_code":"PPL","country_code":"US","cc2":"","admin1_code":"MI","admin2_code":"017","admin3_code":"","admin4_code":"","population":"3478","elevation":"178","dem":"178","timezone":"America/Detroit","modification_date":"2011-05-14"},{"geonameid":"4992304","name":"Evart","asciiname":"Evart","alternatenames":"","latitude":"43.90058","longitude":"-85.2581","feature_class":"P","feature_code":"PPL","country_code":"US","cc2":"","admin1_code":"MI","admin2_code":"133","admin3_code":"","admin4_code":"","population":"1903","elevation":"307","dem":"310","timezone":"America/Detroit","modification_date":"2011-05-14"},{"geonameid":"4992394","name":"Fair Plain","asciiname":"Fair Plain","alternatenames":"","latitude":"42.08699","longitude":"-86.45586","feature_class":"P","feature_code":"PPL","country_code":"US","cc2":"","admin1_code":"MI","admin2_code":"021","admin3_code":"","admin4_code":"","population":"7631","elevation":"192","dem":"189","timezone":"America/Detroit","modification_date":"2011-05-14"},{"geonameid":"4992519","name":"Farmington","asciiname":"Farmington","alternatenames":"Farmington,farmnghtwn,farmyngtwn  myshygan,Фармингтон,فارمنغتون,فارمنگٹن، مشی گن,فارمینگتون، میشیگان","latitude":"42.46448","longitude":"-83.37632","feature_class":"P","feature_code":"PPL","country_code":"US","cc2":"","admin1_code":"MI","admin2_code":"125","admin3_code":"","admin4_code":"","population":"10372","elevation":"229","dem":"228","timezone":"America/Detroit","modification_date":"2011-05-14"},{"geonameid":"4992523","name":"Farmington Hills","asciiname":"Farmington Hills","alternatenames":"","latitude":"42.48531","longitude":"-83.37716","feature_class":"P","feature_code":"PPL","country_code":"US","cc2":"","admin1_code":"MI","admin2_code":"125","admin3_code":"","admin4_code":"","population":"79740","elevation":"259","dem":"260","timezone":"America/Detroit","modification_date":"2011-05-14"},{"geonameid":"4992609","name":"Fennville","asciiname":"Fennville","alternatenames":"","latitude":"42.59392","longitude":"-86.1017","feature_class":"P","feature_code":"PPL","country_code":"US","cc2":"","admin1_code":"MI","admin2_code":"005","admin3_code":"","admin4_code":"","population":"1398","elevation":"202","dem":"205","timezone":"America/Detroit","modification_date":"2011-05-14"},{"geonameid":"4992612","name":"Fenton","asciiname":"Fenton","alternatenames":"Fenton,Фентон","latitude":"42.79781","longitude":"-83.70495","feature_class":"P","feature_code":"PPL","country_code":"US","cc2":"","admin1_code":"MI","admin2_code":"049","admin3_code":"","admin4_code":"","population":"11756","elevation":"275","dem":"277","timezone":"America/Detroit","modification_date":"2011-05-14"},{"geonameid":"4992635","name":"Ferndale","asciiname":"Ferndale","alternatenames":"Ferndejl,frndal  myshygan,fyrndal,Ферндејл,فرندال، میشیگان,فرینڈیل، مشی گن,فيرندال","latitude":"42.46059","longitude":"-83.13465","feature_class":"P","feature_code":"PPL","country_code":"US","cc2":"","admin1_code":"MI","admin2_code":"125","admin3_code":"","admin4_code":"","population":"19900","elevation":"197","dem":"200","timezone":"America/Detroit","modification_date":"2011-05-14"},{"geonameid":"4992659","name":"Ferrysburg","asciiname":"Ferrysburg","alternatenames":"","latitude":"43.08446","longitude":"-86.22033","feature_class":"P","feature_code":"PPL","country_code":"US","cc2":"","admin1_code":"MI","admin2_code":"139","admin3_code":"","admin4_code":"","population":"2892","elevation":"181","dem":"186","timezone":"America/Detroit","modification_date":"2011-05-14"},{"geonameid":"4992940","name":"Flat Rock","asciiname":"Flat Rock","alternatenames":"Flat Rok,flat rwk,Флат Рок,فلات روك,فلت‌راک، میشیگان,فلیٹ راک، مشی گن","latitude":"42.09643","longitude":"-83.29187","feature_class":"P","feature_code":"PPL","country_code":"US","cc2":"","admin1_code":"MI","admin2_code":"163","admin3_code":"","admin4_code":"","population":"9878","elevation":"183","dem":"182","timezone":"America/Detroit","modification_date":"2011-05-14"},{"geonameid":"4992982","name":"Flint","asciiname":"Flint","alternatenames":"FNT,Flint,Siti of Flint,flynt,flynt  myshygan,fu lin te,furinto,peullinteu,plynt,Сити оф Флинт,Флинт,Флінт,פלינט,فلنٹ، مشی گن,فلينت,فلینت، میشیگان,フリント,弗林特,플린트","latitude":"43.01253","longitude":"-83.68746","feature_class":"P","feature_code":"PPLA2","country_code":"US","cc2":"","admin1_code":"MI","admin2_code":"049","admin3_code":"","admin4_code":"","population":"102434","elevation":"229","dem":"231","timezone":"America/Detroit","modification_date":"2011-05-14"},{"geonameid":"4993022","name":"Flushing","asciiname":"Flushing","alternatenames":"","latitude":"43.06308","longitude":"-83.85107","feature_class":"P","feature_code":"PPL","country_code":"US","cc2":"","admin1_code":"MI","admin2_code":"049","admin3_code":"","admin4_code":"","population":"8389","elevation":"213","dem":"215","timezone":"America/Detroit","modification_date":"2011-05-14"},{"geonameid":"4993125","name":"Forest Hills","asciiname":"Forest Hills","alternatenames":"","latitude":"42.95947","longitude":"-85.48975","feature_class":"P","feature_code":"PPL","country_code":"US","cc2":"","admin1_code":"MI","admin2_code":"081","admin3_code":"","admin4_code":"","population":"25867","elevation":"192","dem":"198","timezone":"America/Detroit","modification_date":"2011-05-14"},{"geonameid":"4993267","name":"Fowler","asciiname":"Fowler","alternatenames":"","latitude":"43.0017","longitude":"-84.73972","feature_class":"P","feature_code":"PPL","country_code":"US","cc2":"","admin1_code":"MI","admin2_code":"037","admin3_code":"","admin4_code":"","population":"1208","elevation":"227","dem":"228","timezone":"America/Detroit","modification_date":"2011-05-14"},{"geonameid":"4993272","name":"Fowlerville","asciiname":"Fowlerville","alternatenames":"","latitude":"42.66059","longitude":"-84.07301","feature_class":"P","feature_code":"PPL","country_code":"US","cc2":"","admin1_code":"MI","admin2_code":"093","admin3_code":"","admin4_code":"","population":"2886","elevation":"275","dem":"277","timezone":"America/Detroit","modification_date":"2011-05-14"},{"geonameid":"4993321","name":"Frankenmuth","asciiname":"Frankenmuth","alternatenames":"Frankenmut,Siti of Frankenmus,frankmwnth  myshygan,frankynmwth,Сити оф Франкенмус,Франкенмут,فرانكينموث,فرانکمونث، میشیگان,فرینکن مٹھ، مشی گن","latitude":"43.33169","longitude":"-83.73802","feature_class":"P","feature_code":"PPL","country_code":"US","cc2":"","admin1_code":"MI","admin2_code":"145","admin3_code":"","admin4_code":"","population":"4944","elevation":"193","dem":"194","timezone":"America/Detroit","modification_date":"2011-05-14"},{"geonameid":"4993326","name":"Frankfort","asciiname":"Frankfort","alternatenames":"Frankfurt,Франкфурт","latitude":"44.63361","longitude":"-86.23454","feature_class":"P","feature_code":"PPL","country_code":"US","cc2":"","admin1_code":"MI","admin2_code":"019","admin3_code":"","admin4_code":"","population":"1286","elevation":"182","dem":"183","timezone":"America/Detroit","modification_date":"2011-05-14"},{"geonameid":"4993335","name":"Franklin","asciiname":"Franklin","alternatenames":"Franklin,Франклин","latitude":"42.52226","longitude":"-83.30604","feature_class":"P","feature_code":"PPL","country_code":"US","cc2":"","admin1_code":"MI","admin2_code":"125","admin3_code":"","admin4_code":"","population":"3150","elevation":"255","dem":"257","timezone":"America/Detroit","modification_date":"2011-05-14"},{"geonameid":"4993369","name":"Fraser","asciiname":"Fraser","alternatenames":"","latitude":"42.5392","longitude":"-82.94937","feature_class":"P","feature_code":"PPL","country_code":"US","cc2":"","admin1_code":"MI","admin2_code":"099","admin3_code":"","admin4_code":"","population":"14480","elevation":"186","dem":"186","timezone":"America/Detroit","modification_date":"2011-05-14"},{"geonameid":"4993402","name":"Freeland","asciiname":"Freeland","alternatenames":"","latitude":"43.52503","longitude":"-84.12276","feature_class":"P","feature_code":"PPL","country_code":"US","cc2":"","admin1_code":"MI","admin2_code":"145","admin3_code":"","admin4_code":"","population":"6969","elevation":"189","dem":"190","timezone":"America/Detroit","modification_date":"2011-05-14"},{"geonameid":"4993417","name":"Fremont","asciiname":"Fremont","alternatenames":"Frimont,Фримонт","latitude":"43.46752","longitude":"-85.942","feature_class":"P","feature_code":"PPL","country_code":"US","cc2":"","admin1_code":"MI","admin2_code":"123","admin3_code":"","admin4_code":"","population":"4081","elevation":"249","dem":"252","timezone":"America/Detroit","modification_date":"2011-05-14"},{"geonameid":"4993519","name":"Fruitport","asciiname":"Fruitport","alternatenames":"","latitude":"43.13196","longitude":"-86.15478","feature_class":"P","feature_code":"PPL","country_code":"US","cc2":"","admin1_code":"MI","admin2_code":"121","admin3_code":"","admin4_code":"","population":"1093","elevation":"191","dem":"192","timezone":"America/Detroit","modification_date":"2011-05-14"},{"geonameid":"4993609","name":"Galesburg","asciiname":"Galesburg","alternatenames":"","latitude":"42.28865","longitude":"-85.41806","feature_class":"P","feature_code":"PPL","country_code":"US","cc2":"","admin1_code":"MI","admin2_code":"077","admin3_code":"","admin4_code":"","population":"2009","elevation":"241","dem":"243","timezone":"America/Detroit","modification_date":"2011-05-14"},{"geonameid":"4993659","name":"Garden City","asciiname":"Garden City","alternatenames":"Garden Siti,gardn syty  myshygan,ghardn syty,Гарден Сити,غاردن سيتي,گاردن سیتی، میشیگان,گارڈن سٹی، مشی گن","latitude":"42.32559","longitude":"-83.33104","feature_class":"P","feature_code":"PPL","country_code":"US","cc2":"","admin1_code":"MI","admin2_code":"163","admin3_code":"","admin4_code":"","population":"27692","elevation":"193","dem":"195","timezone":"America/Detroit","modification_date":"2011-05-14"},{"geonameid":"4993756","name":"Gaylord","asciiname":"Gaylord","alternatenames":"GLR,Gehjlord,Gejlord,Гејлорд,Гэйлорд","latitude":"45.02751","longitude":"-84.67475","feature_class":"P","feature_code":"PPLA2","country_code":"US","cc2":"","admin1_code":"MI","admin2_code":"137","admin3_code":"","admin4_code":"","population":"3645","elevation":"411","dem":"410","timezone":"America/Detroit","modification_date":"2011-05-14"},{"geonameid":"4993873","name":"Gibraltar","asciiname":"Gibraltar","alternatenames":"Dzibroltar,Gibraltar,gybraltar  myshygan,jbl tarq,Џибролтар,Гибралтар,جبرالٹر، مشی گن,جبل طارق,گیبرالتار، میشیگان","latitude":"42.09504","longitude":"-83.18965","feature_class":"P","feature_code":"PPL","country_code":"US","cc2":"","admin1_code":"MI","admin2_code":"163","admin3_code":"","admin4_code":"","population":"4656","elevation":"175","dem":"176","timezone":"America/Detroit","modification_date":"2011-05-14"},{"geonameid":"4993981","name":"Gladstone","asciiname":"Gladstone","alternatenames":"Gladston,Gladstoun,Gledston,ghladstwn,gladstwn  myshygan,Гладстон,Гладстоун,Гледстон,غلادستون,گلادستون، میشیگان,گلیڈسٹون، مشی گن","latitude":"45.85274","longitude":"-87.0218","feature_class":"P","feature_code":"PPL","country_code":"US","cc2":"","admin1_code":"MI","admin2_code":"041","admin3_code":"","admin4_code":"","population":"4973","elevation":"184","dem":"183","timezone":"America/Detroit","modification_date":"2011-05-14"},{"geonameid":"4993985","name":"Gladwin","asciiname":"Gladwin","alternatenames":"GDW","latitude":"43.98085","longitude":"-84.4864","feature_class":"P","feature_code":"PPLA2","country_code":"US","cc2":"","admin1_code":"MI","admin2_code":"051","admin3_code":"","admin4_code":"","population":"2933","elevation":"239","dem":"240","timezone":"America/Detroit","modification_date":"2011-05-14"},{"geonameid":"4994154","name":"Goodrich","asciiname":"Goodrich","alternatenames":"","latitude":"42.91697","longitude":"-83.50634","feature_class":"P","feature_code":"PPL","country_code":"US","cc2":"","admin1_code":"MI","admin2_code":"049","admin3_code":"","admin4_code":"","population":"1860","elevation":"268","dem":"270","timezone":"America/Detroit","modification_date":"2011-05-14"},{"geonameid":"4994320","name":"Grand Blanc","asciiname":"Grand Blanc","alternatenames":"Grand Blank,ghrand blank,grndblans  myshygan,Гранд Бланк,غراند بلانك,گرندبلانس، میشیگان,گرینڈ بلانک، مشی گن","latitude":"42.92753","longitude":"-83.62995","feature_class":"P","feature_code":"PPL","country_code":"US","cc2":"","admin1_code":"MI","admin2_code":"049","admin3_code":"","admin4_code":"","population":"8276","elevation":"256","dem":"258","timezone":"America/Detroit","modification_date":"2011-05-14"},{"geonameid":"4994325","name":"Grand Haven","asciiname":"Grand Haven","alternatenames":"Grand Khehjven,Grand Khejven,ge lan de gang,ghrand hyfn,grndhywn  myshygan,Гранд Хејвен,Гранд Хэйвен,غراند هيفن,گرندهیون، میشیگان,گرینڈ ہیون، مشی گن,格蘭德港","latitude":"43.06307","longitude":"-86.22839","feature_class":"P","feature_code":"PPLA2","country_code":"US","cc2":"","admin1_code":"MI","admin2_code":"139","admin3_code":"","admin4_code":"","population":"10412","elevation":"184","dem":"184","timezone":"America/Detroit","modification_date":"2011-05-14"},{"geonameid":"4994344","name":"Grand Ledge","asciiname":"Grand Ledge","alternatenames":"","latitude":"42.75337","longitude":"-84.74638","feature_class":"P","feature_code":"PPL","country_code":"US","cc2":"","admin1_code":"MI","admin2_code":"045","admin3_code":"","admin4_code":"","population":"7786","elevation":"255","dem":"255","timezone":"America/Detroit","modification_date":"2011-05-14"},{"geonameid":"4994358","name":"Grand Rapids","asciiname":"Grand Rapids","alternatenames":"GRR,Gorad Grand-Rapids,Grand Rapids,Grand Rapidsas,Grand-Rapids,Grend-Repids,da ji liu cheng,geulaendeulaepijeu,gramda repidsa,grndrpydz  myshygan,gurandorapizzu,Горад Гранд-Рапідс,Гранд Рапидс,Гранд-Рапидс,Гренд-Репідс,גרנד ראפידס,گرندرپیدز، میشیگان,ग्रँड रॅपिड्स,ᒥᓯ ᐹᐗᔅᑎᒃ,グランドラピッズ,大急流城,그랜드래피즈","latitude":"42.96336","longitude":"-85.66809","feature_class":"P","feature_code":"PPLA2","country_code":"US","cc2":"","admin1_code":"MI","admin2_code":"081","admin3_code":"","admin4_code":"","population":"188040","elevation":"195","dem":"205","timezone":"America/Detroit","modification_date":"2013-03-26"},{"geonameid":"4994391","name":"Grandville","asciiname":"Grandville","alternatenames":"","latitude":"42.90975","longitude":"-85.76309","feature_class":"P","feature_code":"PPL","country_code":"US","cc2":"","admin1_code":"MI","admin2_code":"081","admin3_code":"","admin4_code":"","population":"15378","elevation":"184","dem":"185","timezone":"America/Detroit","modification_date":"2011-05-14"},{"geonameid":"4994483","name":"Grass Lake","asciiname":"Grass Lake","alternatenames":"","latitude":"42.25087","longitude":"-84.21301","feature_class":"P","feature_code":"PPL","country_code":"US","cc2":"","admin1_code":"MI","admin2_code":"075","admin3_code":"","admin4_code":"","population":"1173","elevation":"303","dem":"302","timezone":"America/Detroit","modification_date":"2011-05-14"},{"geonameid":"4994578","name":"Grayling","asciiname":"Grayling","alternatenames":"Grehjling,Grejling,ghraylyngh,grylyng  myshygan,Грејлинг,Грэйлинг,غرايلينغ,گریلینگ، میشیگان","latitude":"44.6614","longitude":"-84.71475","feature_class":"P","feature_code":"PPLA2","country_code":"US","cc2":"","admin1_code":"MI","admin2_code":"039","admin3_code":"","admin4_code":"","population":"1884","elevation":"347","dem":"347","timezone":"America/Detroit","modification_date":"2011-05-14"},{"geonameid":"4994763","name":"Greenville","asciiname":"Greenville","alternatenames":"Grinvill,Гринвилл","latitude":"43.17753","longitude":"-85.2528","feature_class":"P","feature_code":"PPL","country_code":"US","cc2":"","admin1_code":"MI","admin2_code":"117","admin3_code":"","admin4_code":"","population":"8481","elevation":"255","dem":"258","timezone":"America/Detroit","modification_date":"2011-05-14"},{"geonameid":"4994793","name":"Greilickville","asciiname":"Greilickville","alternatenames":"","latitude":"44.78306","longitude":"-85.63869","feature_class":"P","feature_code":"PPL","country_code":"US","cc2":"","admin1_code":"MI","admin2_code":"089","admin3_code":"","admin4_code":"","population":"1530","elevation":"178","dem":"175","timezone":"America/Detroit","modification_date":"2011-05-14"},{"geonameid":"4994851","name":"Grosse Ile","asciiname":"Grosse Ile","alternatenames":"","latitude":"42.12921","longitude":"-83.14437","feature_class":"P","feature_code":"PPL","country_code":"US","cc2":"","admin1_code":"MI","admin2_code":"163","admin3_code":"","admin4_code":"","population":"11361","elevation":"182","dem":"181","timezone":"America/Detroit","modification_date":"2006-01-17"},{"geonameid":"4994862","name":"Grosse Pointe","asciiname":"Grosse Pointe","alternatenames":"Grous Pojnt,ghrws bwynt,Гроус Појнт,غروس بوينت","latitude":"42.38615","longitude":"-82.91186","feature_class":"P","feature_code":"PPL","country_code":"US","cc2":"","admin1_code":"MI","admin2_code":"163","admin3_code":"","admin4_code":"","population":"5421","elevation":"179","dem":"182","timezone":"America/Detroit","modification_date":"2011-05-14"},{"geonameid":"4994864","name":"Grosse Pointe Farms","asciiname":"Grosse Pointe Farms","alternatenames":"Gross Pojnte Farms,Grous Pojnt Farms,ghrws bwynt farmz,Гросс Пойнте Фармс,Гроус Појнт Фармс,غروس بوينت فارمز,گراس‌پوینت‌فارمز، میشیگان","latitude":"42.4092","longitude":"-82.89186","feature_class":"P","feature_code":"PPL","country_code":"US","cc2":"","admin1_code":"MI","admin2_code":"163","admin3_code":"","admin4_code":"","population":"9479","elevation":"186","dem":"191","timezone":"America/Detroit","modification_date":"2011-05-14"},{"geonameid":"4994868","name":"Grosse Pointe Park","asciiname":"Grosse Pointe Park","alternatenames":"Gross Pojnte Park,Grous Pojnt Park,ghrws bwynt bark,Гросс Пойнте Парк,Гроус Појнт Парк,غروس بوينت بارك,گراس‌پوینت، میشیگان","latitude":"42.37587","longitude":"-82.93742","feature_class":"P","feature_code":"PPL","country_code":"US","cc2":"","admin1_code":"MI","admin2_code":"163","admin3_code":"","admin4_code":"","population":"11555","elevation":"177","dem":"179","timezone":"America/Detroit","modification_date":"2011-05-14"},{"geonameid":"4994870","name":"Grosse Pointe Shores","asciiname":"Grosse Pointe Shores","alternatenames":"","latitude":"42.4367","longitude":"-82.87686","feature_class":"P","feature_code":"PPL","country_code":"US","cc2":"","admin1_code":"MI","admin2_code":"163","admin3_code":"","admin4_code":"","population":"2718","elevation":"177","dem":"181","timezone":"America/Detroit","modification_date":"2006-01-17"},{"geonameid":"4994871","name":"Grosse Pointe Woods","asciiname":"Grosse Pointe Woods","alternatenames":"","latitude":"42.44365","longitude":"-82.90686","feature_class":"P","feature_code":"PPL","country_code":"US","cc2":"","admin1_code":"MI","admin2_code":"163","admin3_code":"","admin4_code":"","population":"16135","elevation":"178","dem":"180","timezone":"America/Detroit","modification_date":"2011-05-14"},{"geonameid":"4994999","name":"Gwinn","asciiname":"Gwinn","alternatenames":"","latitude":"46.28106","longitude":"-87.44097","feature_class":"P","feature_code":"PPL","country_code":"US","cc2":"","admin1_code":"MI","admin2_code":"103","admin3_code":"","admin4_code":"","population":"1917","elevation":"335","dem":"331","timezone":"America/Detroit","modification_date":"2011-05-14"},{"geonameid":"4995197","name":"Hamtramck","asciiname":"Hamtramck","alternatenames":"Gemtremk,Khamtramik,haimatraimaka,hamtramyk,hematramika,Гемтремк,Хамтрамик,هامتراميك,ہیمٹرامک، مشی گن,হেমট্রামিক,ਹੈਮਟ੍ਰੈਮਕ","latitude":"42.39282","longitude":"-83.04964","feature_class":"P","feature_code":"PPL","country_code":"US","cc2":"","admin1_code":"MI","admin2_code":"163","admin3_code":"","admin4_code":"","population":"22423","elevation":"192","dem":"192","timezone":"America/Detroit","modification_date":"2011-05-14"},{"geonameid":"4995201","name":"Hancock","asciiname":"Hancock","alternatenames":"CMX,Khankok,Khenkok,hankwk,hnkak  myshygan,Ханкок,Хенкок,هانكوك,هنکاک، میشیگان","latitude":"47.12687","longitude":"-88.58096","feature_class":"P","feature_code":"PPL","country_code":"US","cc2":"","admin1_code":"MI","admin2_code":"061","admin3_code":"","admin4_code":"","population":"4634","elevation":"212","dem":"210","timezone":"America/Detroit","modification_date":"2011-05-14"},{"geonameid":"4995269","name":"Harbor Beach","asciiname":"Harbor Beach","alternatenames":"","latitude":"43.84474","longitude":"-82.65132","feature_class":"P","feature_code":"PPL","country_code":"US","cc2":"","admin1_code":"MI","admin2_code":"063","admin3_code":"","admin4_code":"","population":"1703","elevation":"185","dem":"186","timezone":"America/Detroit","modification_date":"2011-05-14"},{"geonameid":"4995285","name":"Harbor Springs","asciiname":"Harbor Springs","alternatenames":"","latitude":"45.43168","longitude":"-84.992","feature_class":"P","feature_code":"PPL","country_code":"US","cc2":"","admin1_code":"MI","admin2_code":"047","admin3_code":"","admin4_code":"","population":"1194","elevation":"204","dem":"199","timezone":"America/Detroit","modification_date":"2014-10-07"},{"geonameid":"4995368","name":"Harper Woods","asciiname":"Harper Woods","alternatenames":"Kharper Vuds,harbr wwdz,harprwwdz  myshygan,Харпер Вудс,هاربر وودز,هارپروودز، میشیگان","latitude":"42.43309","longitude":"-82.92408","feature_class":"P","feature_code":"PPL","country_code":"US","cc2":"","admin1_code":"MI","admin2_code":"163","admin3_code":"","admin4_code":"","population":"14236","elevation":"179","dem":"184","timezone":"America/Detroit","modification_date":"2011-05-14"},{"geonameid":"4995403","name":"Harrison","asciiname":"Harrison","alternatenames":"Kharrison,Харрисон","latitude":"44.01919","longitude":"-84.79947","feature_class":"P","feature_code":"PPLA2","country_code":"US","cc2":"","admin1_code":"MI","admin2_code":"035","admin3_code":"","admin4_code":"","population":"2114","elevation":"355","dem":"354","timezone":"America/Detroit","modification_date":"2011-05-14"},{"geonameid":"4995424","name":"Harrisville","asciiname":"Harrisville","alternatenames":"Kharisvil,Kharrisvill,harysfyl,hryswyl  myshygan,Харисвил,Харрисвилл,هاريسفيل,هریسویل، میشیگان","latitude":"44.6564","longitude":"-83.29469","feature_class":"P","feature_code":"PPLA2","country_code":"US","cc2":"","admin1_code":"MI","admin2_code":"001","admin3_code":"","admin4_code":"","population":"493","elevation":"190","dem":"193","timezone":"America/Detroit","modification_date":"2011-05-14"},{"geonameid":"4995436","name":"Hart","asciiname":"Hart","alternatenames":"","latitude":"43.69834","longitude":"-86.36397","feature_class":"P","feature_code":"PPLA2","country_code":"US","cc2":"","admin1_code":"MI","admin2_code":"127","admin3_code":"","admin4_code":"","population":"2126","elevation":"206","dem":"210","timezone":"America/Detroit","modification_date":"2011-05-14"},{"geonameid":"4995468","name":"Hartford","asciiname":"Hartford","alternatenames":"Khartford,Хартфорд","latitude":"42.20671","longitude":"-86.16669","feature_class":"P","feature_code":"PPL","country_code":"US","cc2":"","admin1_code":"MI","admin2_code":"159","admin3_code":"","admin4_code":"","population":"2688","elevation":"201","dem":"202","timezone":"America/Detroit","modification_date":"2011-05-14"},{"geonameid":"4995489","name":"Harvey","asciiname":"Harvey","alternatenames":"Kharvi,Харви","latitude":"46.49466","longitude":"-87.35431","feature_class":"P","feature_code":"PPL","country_code":"US","cc2":"","admin1_code":"MI","admin2_code":"103","admin3_code":"","admin4_code":"","population":"1393","elevation":"198","dem":"194","timezone":"America/Detroit","modification_date":"2011-05-14"},{"geonameid":"4995514","name":"Haslett","asciiname":"Haslett","alternatenames":"","latitude":"42.74698","longitude":"-84.40108","feature_class":"P","feature_code":"PPL","country_code":"US","cc2":"","admin1_code":"MI","admin2_code":"065","admin3_code":"","admin4_code":"","population":"19220","elevation":"264","dem":"270","timezone":"America/Detroit","modification_date":"2011-05-14"},{"geonameid":"4995520","name":"Hastings","asciiname":"Hastings","alternatenames":"Khastings,Khejstings,hastynghz,hstyngz  myshygan,Хастингс,Хейстингс,Хејстингс,هاستينغز,هستینگز، میشیگان","latitude":"42.64587","longitude":"-85.29084","feature_class":"P","feature_code":"PPLA2","country_code":"US","cc2":"","admin1_code":"MI","admin2_code":"015","admin3_code":"","admin4_code":"","population":"7350","elevation":"247","dem":"249","timezone":"America/Detroit","modification_date":"2011-05-14"},{"geonameid":"4995664","name":"Hazel Park","asciiname":"Hazel Park","alternatenames":"","latitude":"42.46254","longitude":"-83.10409","feature_class":"P","feature_code":"PPL","country_code":"US","cc2":"","admin1_code":"MI","admin2_code":"125","admin3_code":"","admin4_code":"","population":"16422","elevation":"192","dem":"193","timezone":"America/Detroit","modification_date":"2011-05-14"},{"geonameid":"4995760","name":"Hemlock","asciiname":"Hemlock","alternatenames":"","latitude":"43.41475","longitude":"-84.23054","feature_class":"P","feature_code":"PPL","country_code":"US","cc2":"","admin1_code":"MI","admin2_code":"145","admin3_code":"","admin4_code":"","population":"1466","elevation":"198","dem":"200","timezone":"America/Detroit","modification_date":"2011-05-14"},{"geonameid":"4996017","name":"Highland Park","asciiname":"Highland Park","alternatenames":"Gajlend-Park,Khajland Park,Khajlend Park,Khajlend-Park,haillaendeupakeu,hayland bark,haylndpark  myshygan,Гайленд-Парк,Хайленд Парк,Хайленд-Парк,Хајланд Парк,هايلاند بارك,هایلندپارک، میشیگان,하일랜드파크","latitude":"42.40559","longitude":"-83.09687","feature_class":"P","feature_code":"PPL","country_code":"US","cc2":"","admin1_code":"MI","admin2_code":"163","admin3_code":"","admin4_code":"","population":"11776","elevation":"194","dem":"197","timezone":"America/Detroit","modification_date":"2011-05-14"},{"geonameid":"4996107","name":"Hillsdale","asciiname":"Hillsdale","alternatenames":"","latitude":"41.92005","longitude":"-84.63051","feature_class":"P","feature_code":"PPLA2","country_code":"US","cc2":"","admin1_code":"MI","admin2_code":"059","admin3_code":"","admin4_code":"","population":"8305","elevation":"341","dem":"345","timezone":"America/Detroit","modification_date":"2011-05-14"},{"geonameid":"4996248","name":"Holland","asciiname":"Holland","alternatenames":"Gollandija,HLM,Holland,Kholand,Kholland,Misi-pawastik,Misi-páwastik,hlnd  myshygan,hollaendeu,hwland,Голландия,Холанд,Холланд,هلند، میشیگان,هولاند,ہالینڈ، مشی گن,홀랜드","latitude":"42.78752","longitude":"-86.10893","feature_class":"P","feature_code":"PPL","country_code":"US","cc2":"","admin1_code":"MI","admin2_code":"139","admin3_code":"","admin4_code":"","population":"33051","elevation":"186","dem":"189","timezone":"America/Detroit","modification_date":"2011-05-14"},{"geonameid":"4996274","name":"Holly","asciiname":"Holly","alternatenames":"","latitude":"42.79197","longitude":"-83.62773","feature_class":"P","feature_code":"PPL","country_code":"US","cc2":"","admin1_code":"MI","admin2_code":"125","admin3_code":"","admin4_code":"","population":"6086","elevation":"283","dem":"284","timezone":"America/Detroit","modification_date":"2011-05-14"},{"geonameid":"4996306","name":"Holt","asciiname":"Holt","alternatenames":"","latitude":"42.64059","longitude":"-84.51525","feature_class":"P","feature_code":"PPL","country_code":"US","cc2":"","admin1_code":"MI","admin2_code":"065","admin3_code":"","admin4_code":"","population":"23973","elevation":"269","dem":"270","timezone":"America/Detroit","modification_date":"2011-05-14"},{"geonameid":"4996369","name":"Homer","asciiname":"Homer","alternatenames":"","latitude":"42.14588","longitude":"-84.80886","feature_class":"P","feature_code":"PPL","country_code":"US","cc2":"","admin1_code":"MI","admin2_code":"025","admin3_code":"","admin4_code":"","population":"1668","elevation":"302","dem":"305","timezone":"America/Detroit","modification_date":"2011-05-14"},{"geonameid":"4996572","name":"Houghton","asciiname":"Houghton","alternatenames":"Khauton,Khoton,Khoutun,hatn  myshygan,hwtwn,Хаутон,Хотон,Хоутън,هاتن، میشیگان,هوتون","latitude":"47.12187","longitude":"-88.56901","feature_class":"P","feature_code":"PPLA2","country_code":"US","cc2":"","admin1_code":"MI","admin2_code":"061","admin3_code":"","admin4_code":"","population":"7708","elevation":"196","dem":"197","timezone":"America/Detroit","modification_date":"2011-05-14"},{"geonameid":"4996580","name":"Houghton Lake","asciiname":"Houghton Lake","alternatenames":"HTL","latitude":"44.31474","longitude":"-84.76475","feature_class":"P","feature_code":"PPL","country_code":"US","cc2":"","admin1_code":"MI","admin2_code":"143","admin3_code":"","admin4_code":"","population":"3427","elevation":"349","dem":"347","timezone":"America/Detroit","modification_date":"2015-12-20"},{"geonameid":"4996618","name":"Howard City","asciiname":"Howard City","alternatenames":"","latitude":"43.39558","longitude":"-85.46782","feature_class":"P","feature_code":"PPL","country_code":"US","cc2":"","admin1_code":"MI","admin2_code":"117","admin3_code":"","admin4_code":"","population":"1808","elevation":"268","dem":"268","timezone":"America/Detroit","modification_date":"2011-05-14"},{"geonameid":"4996655","name":"Howell","asciiname":"Howell","alternatenames":"","latitude":"42.60726","longitude":"-83.9294","feature_class":"P","feature_code":"PPLA2","country_code":"US","cc2":"","admin1_code":"MI","admin2_code":"093","admin3_code":"","admin4_code":"","population":"9489","elevation":"284","dem":"285","timezone":"America/Detroit","modification_date":"2011-05-14"},{"geonameid":"4996690","name":"Hubbard Lake","asciiname":"Hubbard Lake","alternatenames":"","latitude":"44.75973","longitude":"-83.54442","feature_class":"P","feature_code":"PPL","country_code":"US","cc2":"","admin1_code":"MI","admin2_code":"001","admin3_code":"","admin4_code":"","population":"1002","elevation":"228","dem":"232","timezone":"America/Detroit","modification_date":"2011-05-14"},{"geonameid":"4996718","name":"Hudson","asciiname":"Hudson","alternatenames":"Gudzon,Гудзон","latitude":"41.85505","longitude":"-84.35384","feature_class":"P","feature_code":"PPL","country_code":"US","cc2":"","admin1_code":"MI","admin2_code":"091","admin3_code":"","admin4_code":"","population":"2307","elevation":"279","dem":"282","timezone":"America/Detroit","modification_date":"2011-05-14"},{"geonameid":"4996736","name":"Hudsonville","asciiname":"Hudsonville","alternatenames":"Khadsonvil,Khadsonvill,hadswnwyl  myshygan,hdswnfyl,heodeuseunbil,Хадсонвил,Хадсонвилл,هادسونویل، میشیگان,هدسونفيل,허드슨빌","latitude":"42.87086","longitude":"-85.86504","feature_class":"P","feature_code":"PPL","country_code":"US","cc2":"","admin1_code":"MI","admin2_code":"139","admin3_code":"","admin4_code":"","population":"7116","elevation":"193","dem":"196","timezone":"America/Detroit","modification_date":"2011-05-14"},{"geonameid":"4996832","name":"Huntington Woods","asciiname":"Huntington Woods","alternatenames":"","latitude":"42.48059","longitude":"-83.16687","feature_class":"P","feature_code":"PPL","country_code":"US","cc2":"","admin1_code":"MI","admin2_code":"125","admin3_code":"","admin4_code":"","population":"6238","elevation":"202","dem":"206","timezone":"America/Detroit","modification_date":"2011-05-14"},{"geonameid":"4996956","name":"Imlay City","asciiname":"Imlay City","alternatenames":"Imlehj Siti,Imlej Siti,amly syty,aymaly syty  myshygan,Имлеј Сити,Имлэй Сити,إملي سيتي,ایمالی سیتی، میشیگان","latitude":"43.02475","longitude":"-83.07772","feature_class":"P","feature_code":"PPL","country_code":"US","cc2":"","admin1_code":"MI","admin2_code":"087","admin3_code":"","admin4_code":"","population":"3597","elevation":"252","dem":"252","timezone":"America/Detroit","modification_date":"2011-05-14"},{"geonameid":"4997086","name":"Indian River","asciiname":"Indian River","alternatenames":"","latitude":"45.41251","longitude":"-84.61254","feature_class":"P","feature_code":"PPL","country_code":"US","cc2":"","admin1_code":"MI","admin2_code":"031","admin3_code":"","admin4_code":"","population":"1959","elevation":"186","dem":"185","timezone":"America/Detroit","modification_date":"2011-05-14"},{"geonameid":"4997191","name":"Ionia","asciiname":"Ionia","alternatenames":"Ajonija,Lonia,aywnya,aywnya  myshygan,Айония,Ајонија,Лониа,آیونیا، میشیگان,إيونيا","latitude":"42.98725","longitude":"-85.07112","feature_class":"P","feature_code":"PPLA2","country_code":"US","cc2":"","admin1_code":"MI","admin2_code":"067","admin3_code":"","admin4_code":"","population":"11394","elevation":"219","dem":"217","timezone":"America/Detroit","modification_date":"2011-05-14"},{"geonameid":"4997232","name":"Iron Mountain","asciiname":"Iron Mountain","alternatenames":"","latitude":"45.82023","longitude":"-88.06596","feature_class":"P","feature_code":"PPLA2","country_code":"US","cc2":"","admin1_code":"MI","admin2_code":"043","admin3_code":"","admin4_code":"","population":"7624","elevation":"347","dem":"344","timezone":"America/Menominee","modification_date":"2011-05-14"},{"geonameid":"4997238","name":"Iron River","asciiname":"Iron River","alternatenames":"Ajron Riveh,Ajron River,ayrwn ryfr,Айрон Ривэ,Ајрон Ривер,آیرون‌ریور، میشیگان,أيرون ريفر","latitude":"46.09273","longitude":"-88.64235","feature_class":"P","feature_code":"PPLG","country_code":"US","cc2":"","admin1_code":"MI","admin2_code":"071","admin3_code":"","admin4_code":"","population":"3029","elevation":"461","dem":"458","timezone":"America/Menominee","modification_date":"2015-02-22"},{"geonameid":"4997249","name":"Ironwood","asciiname":"Ironwood","alternatenames":"Ajron Vud,Ajronvud,IWD,ayrwnwwd,Айрон Вуд,Ајронвуд,آیرون‌وود، میشیگان,أيرونوود","latitude":"46.45467","longitude":"-90.17101","feature_class":"P","feature_code":"PPL","country_code":"US","cc2":"","admin1_code":"MI","admin2_code":"053","admin3_code":"","admin4_code":"","population":"5387","elevation":"459","dem":"459","timezone":"America/Menominee","modification_date":"2011-05-14"},{"geonameid":"4997281","name":"Ishpeming","asciiname":"Ishpeming","alternatenames":"Ishpeming,ashbymyngh,ayshpmyng  myshygan,Ишпеминг,إشبيمينغ,ایشپمینگ، میشیگان","latitude":"46.48855","longitude":"-87.66764","feature_class":"P","feature_code":"PPL","country_code":"US","cc2":"","admin1_code":"MI","admin2_code":"103","admin3_code":"","admin4_code":"","population":"6470","elevation":"429","dem":"431","timezone":"America/Detroit","modification_date":"2011-05-14"},{"geonameid":"4997346","name":"Ithaca","asciiname":"Ithaca","alternatenames":"Itak,Itaka,Izaka,aytaka  myshygan,aythaka,isaka,Изака,Итак,Итака,إيثاكا,ایتاکا، میشیگان,イサカ","latitude":"43.2917","longitude":"-84.6075","feature_class":"P","feature_code":"PPLA2","country_code":"US","cc2":"","admin1_code":"MI","admin2_code":"057","admin3_code":"","admin4_code":"","population":"2910","elevation":"242","dem":"241","timezone":"America/Detroit","modification_date":"2011-05-14"},{"geonameid":"4997384","name":"Jackson","asciiname":"Jackson","alternatenames":"Dzekson,Dzhehkson,Dzhekson,JXN,Jackson,jakswn,jakuson,jkswn  myshygan,jyksn  mshy gn,Џексон,Джексон,Джэксон,جاكسون,جکسون، میشیگان,جیکسن، مشی گن,ジャクソン","latitude":"42.24587","longitude":"-84.40135","feature_class":"P","feature_code":"PPLA2","country_code":"US","cc2":"","admin1_code":"MI","admin2_code":"075","admin3_code":"","admin4_code":"","population":"33534","elevation":"284","dem":"281","timezone":"America/Detroit","modification_date":"2013-12-01"},{"geonameid":"4997500","name":"Jenison","asciiname":"Jenison","alternatenames":"","latitude":"42.90725","longitude":"-85.79198","feature_class":"P","feature_code":"PPL","country_code":"US","cc2":"","admin1_code":"MI","admin2_code":"139","admin3_code":"","admin4_code":"","population":"16538","elevation":"184","dem":"186","timezone":"America/Detroit","modification_date":"2011-05-14"},{"geonameid":"4997698","name":"Jonesville","asciiname":"Jonesville","alternatenames":"","latitude":"41.98421","longitude":"-84.6619","feature_class":"P","feature_code":"PPL","country_code":"US","cc2":"","admin1_code":"MI","admin2_code":"059","admin3_code":"","admin4_code":"","population":"2258","elevation":"328","dem":"328","timezone":"America/Detroit","modification_date":"2011-05-14"},{"geonameid":"4997787","name":"Kalamazoo","asciiname":"Kalamazoo","alternatenames":"AZO,Kalamazoo,Kalamazu,Kalamazū,ka la ma zu,kaelleomeoju,kalamazw,kalamazw  mshy gn,kalamzw  myshygan,karamazu,Каламазу,קאלאמאזו,كالامازو,کالامازو، مشی گن,کالامزو، میشیگان,カラマズー,卡拉马祖,캘러머주","latitude":"42.29171","longitude":"-85.58723","feature_class":"P","feature_code":"PPLA2","country_code":"US","cc2":"","admin1_code":"MI","admin2_code":"077","admin3_code":"","admin4_code":"","population":"74262","elevation":"239","dem":"242","timezone":"America/Detroit","modification_date":"2011-05-14"},{"geonameid":"4997805","name":"Kalkaska","asciiname":"Kalkaska","alternatenames":"Kalkaska,kalkasa,Калкаска,كالكاسا","latitude":"44.73417","longitude":"-85.17589","feature_class":"P","feature_code":"PPLA2","country_code":"US","cc2":"","admin1_code":"MI","admin2_code":"079","admin3_code":"","admin4_code":"","population":"2020","elevation":"315","dem":"314","timezone":"America/Detroit","modification_date":"2011-05-14"},{"geonameid":"4997868","name":"Keego Harbor","asciiname":"Keego Harbor","alternatenames":"","latitude":"42.60809","longitude":"-83.34382","feature_class":"P","feature_code":"PPL","country_code":"US","cc2":"","admin1_code":"MI","admin2_code":"125","admin3_code":"","admin4_code":"","population":"2970","elevation":"284","dem":"285","timezone":"America/Detroit","modification_date":"2011-05-14"},{"geonameid":"4998002","name":"Kent City","asciiname":"Kent City","alternatenames":"","latitude":"43.22002","longitude":"-85.75115","feature_class":"P","feature_code":"PPL","country_code":"US","cc2":"","admin1_code":"MI","admin2_code":"081","admin3_code":"","admin4_code":"","population":"1057","elevation":"247","dem":"248","timezone":"America/Detroit","modification_date":"2011-05-14"},{"geonameid":"4998018","name":"Kentwood","asciiname":"Kentwood","alternatenames":"Kentvud,kenteuudeu,kntwwd  myshygan,kyntwwd,Кентвуд,كينتوود,کنتوود، میشیگان,کینٹووڈ، مشی گن,켄트우드","latitude":"42.86947","longitude":"-85.64475","feature_class":"P","feature_code":"PPL","country_code":"US","cc2":"","admin1_code":"MI","admin2_code":"081","admin3_code":"","admin4_code":"","population":"48707","elevation":"210","dem":"212","timezone":"America/Detroit","modification_date":"2011-05-14"},{"geonameid":"4998106","name":"Kilmanagh","asciiname":"Kilmanagh","alternatenames":"","latitude":"43.75613","longitude":"-83.3569","feature_class":"P","feature_code":"PPL","country_code":"US","cc2":"","admin1_code":"MI","admin2_code":"063","admin3_code":"","admin4_code":"","population":"2944","elevation":"190","dem":"191","timezone":"America/Detroit","modification_date":"2013-05-05"},{"geonameid":"4998189","name":"Kingsford","asciiname":"Kingsford","alternatenames":"Kingsford,kynghzfwrd,kyngzfwrd  myshygan,Кингсфорд,كينغزفورد,کینگزفورد، میشیگان","latitude":"45.79496","longitude":"-88.07207","feature_class":"P","feature_code":"PPL","country_code":"US","cc2":"","admin1_code":"MI","admin2_code":"043","admin3_code":"","admin4_code":"","population":"5133","elevation":"335","dem":"332","timezone":"America/Menominee","modification_date":"2011-05-14"},{"geonameid":"4998195","name":"Kingsley","asciiname":"Kingsley","alternatenames":"","latitude":"44.58473","longitude":"-85.5359","feature_class":"P","feature_code":"PPL","country_code":"US","cc2":"","admin1_code":"MI","admin2_code":"055","admin3_code":"","admin4_code":"","population":"1480","elevation":"295","dem":"296","timezone":"America/Detroit","modification_date":"2011-05-14"},{"geonameid":"4998431","name":"L'Anse","asciiname":"L'Anse","alternatenames":"","latitude":"46.7566","longitude":"-88.45291","feature_class":"P","feature_code":"PPLA2","country_code":"US","cc2":"","admin1_code":"MI","admin2_code":"013","admin3_code":"","admin4_code":"","population":"2011","elevation":"189","dem":"187","timezone":"America/Detroit","modification_date":"2011-05-14"},{"geonameid":"4998506","name":"Laingsburg","asciiname":"Laingsburg","alternatenames":"","latitude":"42.89031","longitude":"-84.35136","feature_class":"P","feature_code":"PPL","country_code":"US","cc2":"","admin1_code":"MI","admin2_code":"155","admin3_code":"","admin4_code":"","population":"1283","elevation":"251","dem":"254","timezone":"America/Detroit","modification_date":"2011-05-14"},{"geonameid":"4998533","name":"Lake City","asciiname":"Lake City","alternatenames":"","latitude":"44.33529","longitude":"-85.21505","feature_class":"P","feature_code":"PPLA2","country_code":"US","cc2":"","admin1_code":"MI","admin2_code":"113","admin3_code":"","admin4_code":"","population":"836","elevation":"381","dem":"382","timezone":"America/Detroit","modification_date":"2011-05-14"},{"geonameid":"4998543","name":"Lake Fenton","asciiname":"Lake Fenton","alternatenames":"","latitude":"42.84614","longitude":"-83.70773","feature_class":"P","feature_code":"PPL","country_code":"US","cc2":"","admin1_code":"MI","admin2_code":"049","admin3_code":"","admin4_code":"","population":"5559","elevation":"268","dem":"273","timezone":"America/Detroit","modification_date":"2011-05-14"},{"geonameid":"4998569","name":"Lake Linden","asciiname":"Lake Linden","alternatenames":"","latitude":"47.19409","longitude":"-88.40734","feature_class":"P","feature_code":"PPL","country_code":"US","cc2":"","admin1_code":"MI","admin2_code":"061","admin3_code":"","admin4_code":"","population":"1007","elevation":"189","dem":"195","timezone":"America/Detroit","modification_date":"2011-05-14"},{"geonameid":"4998574","name":"Lake Michigan Beach","asciiname":"Lake Michigan Beach","alternatenames":"","latitude":"42.22087","longitude":"-86.36947","feature_class":"P","feature_code":"PPL","country_code":"US","cc2":"","admin1_code":"MI","admin2_code":"021","admin3_code":"","admin4_code":"","population":"1216","elevation":"202","dem":"205","timezone":"America/Detroit","modification_date":"2011-05-14"},{"geonameid":"4998583","name":"Lake Odessa","asciiname":"Lake Odessa","alternatenames":"","latitude":"42.78476","longitude":"-85.13834","feature_class":"P","feature_code":"PPL","country_code":"US","cc2":"","admin1_code":"MI","admin2_code":"067","admin3_code":"","admin4_code":"","population":"2018","elevation":"263","dem":"266","timezone":"America/Detroit","modification_date":"2011-05-14"},{"geonameid":"4998587","name":"Lake Orion","asciiname":"Lake Orion","alternatenames":"","latitude":"42.78448","longitude":"-83.23966","feature_class":"P","feature_code":"PPL","country_code":"US","cc2":"","admin1_code":"MI","admin2_code":"125","admin3_code":"","admin4_code":"","population":"2973","elevation":"300","dem":"301","timezone":"America/Detroit","modification_date":"2011-05-14"},{"geonameid":"4998703","name":"Lakeview","asciiname":"Lakeview","alternatenames":"","latitude":"42.29838","longitude":"-85.2111","feature_class":"P","feature_code":"PPL","country_code":"US","cc2":"","admin1_code":"MI","admin2_code":"025","admin3_code":"","admin4_code":"","population":"1115","elevation":"285","dem":"289","timezone":"America/Detroit","modification_date":"2010-02-16"},{"geonameid":"4998705","name":"Lakeview","asciiname":"Lakeview","alternatenames":"","latitude":"43.44642","longitude":"-85.2742","feature_class":"P","feature_code":"PPL","country_code":"US","cc2":"","admin1_code":"MI","admin2_code":"117","admin3_code":"","admin4_code":"","population":"1007","elevation":"291","dem":"292","timezone":"America/Detroit","modification_date":"2011-05-14"},{"geonameid":"4998745","name":"Lakewood Club","asciiname":"Lakewood Club","alternatenames":"","latitude":"43.37112","longitude":"-86.26034","feature_class":"P","feature_code":"PPL","country_code":"US","cc2":"","admin1_code":"MI","admin2_code":"121","admin3_code":"","admin4_code":"","population":"1291","elevation":"207","dem":"215","timezone":"America/Detroit","modification_date":"2011-05-14"},{"geonameid":"4998769","name":"Lambertville","asciiname":"Lambertville","alternatenames":"","latitude":"41.76588","longitude":"-83.62799","feature_class":"P","feature_code":"PPL","country_code":"US","cc2":"","admin1_code":"MI","admin2_code":"115","admin3_code":"","admin4_code":"","population":"9953","elevation":"205","dem":"205","timezone":"America/Detroit","modification_date":"2011-05-14"},{"geonameid":"4998830","name":"Lansing","asciiname":"Lansing","alternatenames":"Gorad Lansing,LAN,Lansin'nk,Lansing,Lansinga,Lansingas,Lansings,Lehnsing,Lensing,laensing,lan xin,lancin,lansin,lansina,lansinga,lansng,lansng  mshy gn,lansngh,lnsyng,lnsyng  myshygan,lyansinga,ranshingu,Λάνσινγκ,Горад Лансінг,Лансинг,Ленсинг,Лэнсинг,Լանսինգ,לאנסינג,لانسنغ,لانسنگ,لانسنگ، مشی گن,لنسینگ,لنسینگ، میشیگان,लान्सिंग,लान्सिङ,लान्सिङ्,ल्यान्सिंग,லான்சிங்,ランシング,兰辛,蘭辛,랜싱","latitude":"42.73253","longitude":"-84.55553","feature_class":"P","feature_code":"PPLA","country_code":"US","cc2":"","admin1_code":"MI","admin2_code":"065","admin3_code":"","admin4_code":"","population":"114297","elevation":"260","dem":"260","timezone":"America/Detroit","modification_date":"2011-05-14"},{"geonameid":"4998842","name":"Lapeer","asciiname":"Lapeer","alternatenames":"Lapir,labyr,lapyr  mshy gn,lpyr  myshygan,Лапир,لابير,لاپیر، مشی گن,لپیر، میشیگان","latitude":"43.05142","longitude":"-83.31883","feature_class":"P","feature_code":"PPLA2","country_code":"US","cc2":"","admin1_code":"MI","admin2_code":"087","admin3_code":"","admin4_code":"","population":"8841","elevation":"262","dem":"266","timezone":"America/Detroit","modification_date":"2011-05-14"},{"geonameid":"4998900","name":"Lathrup Village","asciiname":"Lathrup Village","alternatenames":"","latitude":"42.49642","longitude":"-83.22271","feature_class":"P","feature_code":"PPL","country_code":"US","cc2":"","admin1_code":"MI","admin2_code":"125","admin3_code":"","admin4_code":"","population":"4075","elevation":"215","dem":"217","timezone":"America/Detroit","modification_date":"2011-05-14"},{"geonameid":"4998924","name":"Laurium","asciiname":"Laurium","alternatenames":"","latitude":"47.23743","longitude":"-88.44317","feature_class":"P","feature_code":"PPL","country_code":"US","cc2":"","admin1_code":"MI","admin2_code":"061","admin3_code":"","admin4_code":"","population":"1977","elevation":"373","dem":"377","timezone":"America/Detroit","modification_date":"2011-05-14"},{"geonameid":"4998956","name":"Lawton","asciiname":"Lawton","alternatenames":"Louton,Лоутон","latitude":"42.16726","longitude":"-85.84695","feature_class":"P","feature_code":"PPL","country_code":"US","cc2":"","admin1_code":"MI","admin2_code":"159","admin3_code":"","admin4_code":"","population":"1900","elevation":"241","dem":"243","timezone":"America/Detroit","modification_date":"2011-05-14"},{"geonameid":"4999064","name":"Leland","asciiname":"Leland","alternatenames":"Liland,Лиланд","latitude":"45.02305","longitude":"-85.75981","feature_class":"P","feature_code":"PPLA2","country_code":"US","cc2":"","admin1_code":"MI","admin2_code":"089","admin3_code":"","admin4_code":"","population":"377","elevation":"181","dem":"181","timezone":"America/Detroit","modification_date":"2011-05-14"},{"geonameid":"4999122","name":"Leslie","asciiname":"Leslie","alternatenames":"","latitude":"42.45143","longitude":"-84.43247","feature_class":"P","feature_code":"PPL","country_code":"US","cc2":"","admin1_code":"MI","admin2_code":"065","admin3_code":"","admin4_code":"","population":"1851","elevation":"285","dem":"287","timezone":"America/Detroit","modification_date":"2011-05-14"},{"geonameid":"4999167","name":"Lewiston","asciiname":"Lewiston","alternatenames":"L'juiston,Льюистон","latitude":"44.8839","longitude":"-84.30557","feature_class":"P","feature_code":"PPL","country_code":"US","cc2":"","admin1_code":"MI","admin2_code":"119","admin3_code":"","admin4_code":"","population":"1392","elevation":"379","dem":"379","timezone":"America/Detroit","modification_date":"2011-05-14"},{"geonameid":"4999171","name":"Lexington","asciiname":"Lexington","alternatenames":"Leksington,Лексингтон","latitude":"43.26808","longitude":"-82.53076","feature_class":"P","feature_code":"PPL","country_code":"US","cc2":"","admin1_code":"MI","admin2_code":"151","admin3_code":"","admin4_code":"","population":"1178","elevation":"188","dem":"190","timezone":"America/Detroit","modification_date":"2011-05-14"},{"geonameid":"4999311","name":"Lincoln Park","asciiname":"Lincoln Park","alternatenames":"Linkol'n Park Michigan,Linkoln Park,lnkn park  mshy gn,lynkwln bark,Линколн Парк,Линкольн Парк Мичиган,لنکن پارک، مشی گن,لينكولن بارك,لینکون‌پارک، میشیگان","latitude":"42.25059","longitude":"-83.17854","feature_class":"P","feature_code":"PPL","country_code":"US","cc2":"","admin1_code":"MI","admin2_code":"163","admin3_code":"","admin4_code":"","population":"38144","elevation":"179","dem":"179","timezone":"America/Detroit","modification_date":"2011-05-14"},{"geonameid":"4999360","name":"Linden","asciiname":"Linden","alternatenames":"Linden,Линден","latitude":"42.81447","longitude":"-83.78245","feature_class":"P","feature_code":"PPL","country_code":"US","cc2":"","admin1_code":"MI","admin2_code":"049","admin3_code":"","admin4_code":"","population":"3991","elevation":"266","dem":"268","timezone":"America/Detroit","modification_date":"2011-05-14"},{"geonameid":"4999410","name":"Litchfield","asciiname":"Litchfield","alternatenames":"","latitude":"42.04393","longitude":"-84.75746","feature_class":"P","feature_code":"PPL","country_code":"US","cc2":"","admin1_code":"MI","admin2_code":"059","admin3_code":"","admin4_code":"","population":"1369","elevation":"312","dem":"314","timezone":"America/Detroit","modification_date":"2011-05-14"},{"geonameid":"4999837","name":"Livonia","asciiname":"Livonia","alternatenames":"Livonia,Livonija,libonia,lyfwnya,lywwnya  mshy gn,lywwnya  myshygan,Ливониа,Ливония,Ливонија,ليفونيا,لیوونیا، مشی گن,لیوونیا، میشیگان,리보니아","latitude":"42.36837","longitude":"-83.35271","feature_class":"P","feature_code":"PPL","country_code":"US","cc2":"","admin1_code":"MI","admin2_code":"163","admin3_code":"","admin4_code":"","population":"96942","elevation":"195","dem":"197","timezone":"America/Detroit","modification_date":"2011-05-14"},{"geonameid":"5000239","name":"Lowell","asciiname":"Lowell","alternatenames":"Louel,Лоуел","latitude":"42.93364","longitude":"-85.34196","feature_class":"P","feature_code":"PPL","country_code":"US","cc2":"","admin1_code":"MI","admin2_code":"081","admin3_code":"","admin4_code":"","population":"3783","elevation":"194","dem":"194","timezone":"America/Detroit","modification_date":"2011-05-14"},{"geonameid":"5000306","name":"Ludington","asciiname":"Ludington","alternatenames":"LDM,Ladington,Ljudington,la ding dun,lwdynghtwn,lwdyngtwn  myshygan,Ладингтон,Людингтон,لودينغتون,لودینگتون، میشیگان,拉丁頓","latitude":"43.95528","longitude":"-86.45258","feature_class":"P","feature_code":"PPLA2","country_code":"US","cc2":"","admin1_code":"MI","admin2_code":"105","admin3_code":"","admin4_code":"","population":"8076","elevation":"180","dem":"183","timezone":"America/Detroit","modification_date":"2011-05-14"},{"geonameid":"5000334","name":"Luna Pier","asciiname":"Luna Pier","alternatenames":"","latitude":"41.80699","longitude":"-83.44243","feature_class":"P","feature_code":"PPL","country_code":"US","cc2":"","admin1_code":"MI","admin2_code":"115","admin3_code":"","admin4_code":"","population":"1436","elevation":"175","dem":"176","timezone":"America/Detroit","modification_date":"2011-05-14"},{"geonameid":"5000500","name":"Madison Heights","asciiname":"Madison Heights","alternatenames":"Medison Khajts,Mehdison Khehjts,madyswn hayts,Медисон Хајтс,Мэдисон Хэйтс,ماديسون هايتس,مدیسون‌هایتس، میشیگان,میڈیسون ہائٹس، مشی گن","latitude":"42.48587","longitude":"-83.1052","feature_class":"P","feature_code":"PPL","country_code":"US","cc2":"","admin1_code":"MI","admin2_code":"125","admin3_code":"","admin4_code":"","population":"29694","elevation":"193","dem":"194","timezone":"America/Detroit","modification_date":"2011-05-14"},{"geonameid":"5000598","name":"Manchester","asciiname":"Manchester","alternatenames":"Manchester,Манчестер","latitude":"42.15032","longitude":"-84.03772","feature_class":"P","feature_code":"PPL","country_code":"US","cc2":"","admin1_code":"MI","admin2_code":"161","admin3_code":"","admin4_code":"","population":"2091","elevation":"274","dem":"274","timezone":"America/Detroit","modification_date":"2011-05-14"},{"geonameid":"5000611","name":"Manistee","asciiname":"Manistee","alternatenames":"MBL,Manisti,ma ni si di,manysty,mnysty  myshygan,Манисти,مانيستي,منیستی، میشیگان,马尼斯蒂","latitude":"44.24445","longitude":"-86.32425","feature_class":"P","feature_code":"PPLA2","country_code":"US","cc2":"","admin1_code":"MI","admin2_code":"101","admin3_code":"","admin4_code":"","population":"6226","elevation":"200","dem":"206","timezone":"America/Detroit","modification_date":"2013-03-25"},{"geonameid":"5000615","name":"Mancelona","asciiname":"Mancelona","alternatenames":"","latitude":"44.90223","longitude":"-85.06088","feature_class":"P","feature_code":"PPL","country_code":"US","cc2":"","admin1_code":"MI","admin2_code":"009","admin3_code":"","admin4_code":"","population":"1390","elevation":"343","dem":"340","timezone":"America/Detroit","modification_date":"2011-05-14"},{"geonameid":"5000625","name":"Manistique","asciiname":"Manistique","alternatenames":"ISQ","latitude":"45.95775","longitude":"-86.24625","feature_class":"P","feature_code":"PPLA2","country_code":"US","cc2":"","admin1_code":"MI","admin2_code":"153","admin3_code":"","admin4_code":"","population":"3097","elevation":"183","dem":"180","timezone":"America/Detroit","modification_date":"2011-05-14"},{"geonameid":"5000678","name":"Manton","asciiname":"Manton","alternatenames":"","latitude":"44.41084","longitude":"-85.39894","feature_class":"P","feature_code":"PPL","country_code":"US","cc2":"","admin1_code":"MI","admin2_code":"165","admin3_code":"","admin4_code":"","population":"1287","elevation":"341","dem":"343","timezone":"America/Detroit","modification_date":"2011-05-14"},{"geonameid":"5000843","name":"Marcellus","asciiname":"Marcellus","alternatenames":"","latitude":"42.02588","longitude":"-85.81556","feature_class":"P","feature_code":"PPL","country_code":"US","cc2":"","admin1_code":"MI","admin2_code":"027","admin3_code":"","admin4_code":"","population":"1198","elevation":"273","dem":"275","timezone":"America/Detroit","modification_date":"2011-05-14"},{"geonameid":"5000873","name":"Marine City","asciiname":"Marine City","alternatenames":"Marin Siti,ma lin cheng,maryn syty,maryn syty  myshygan,Марин Сити,مارين سيتي,مارین سیتی، میشیگان,马林城","latitude":"42.71948","longitude":"-82.49213","feature_class":"P","feature_code":"PPL","country_code":"US","cc2":"","admin1_code":"MI","admin2_code":"147","admin3_code":"","admin4_code":"","population":"4248","elevation":"178","dem":"179","timezone":"America/Detroit","modification_date":"2011-05-14"},{"geonameid":"5000938","name":"Marlette","asciiname":"Marlette","alternatenames":"","latitude":"43.32697","longitude":"-83.08022","feature_class":"P","feature_code":"PPL","country_code":"US","cc2":"","admin1_code":"MI","admin2_code":"151","admin3_code":"","admin4_code":"","population":"1875","elevation":"255","dem":"255","timezone":"America/Detroit","modification_date":"2011-05-14"},{"geonameid":"5000947","name":"Marquette","asciiname":"Marquette","alternatenames":"MQT,Marguehtt,Market,Markett,Marquette,makes,maketto,markyt,markywt  myshygan,Маргуэтт,Маркет,Маркетт,ماركيت,مارکیوت، میشیگان,マーケット,마켓","latitude":"46.54354","longitude":"-87.39542","feature_class":"P","feature_code":"PPLA2","country_code":"US","cc2":"","admin1_code":"MI","admin2_code":"103","admin3_code":"","admin4_code":"","population":"21355","elevation":"203","dem":"201","timezone":"America/Detroit","modification_date":"2013-03-23"},{"geonameid":"5000996","name":"Marshall","asciiname":"Marshall","alternatenames":"Marshal,Marshall,marshal,marshal  myshygan,marshl  mshy gn,Маршал,Маршалл,مارشال,مارشال، میشیگان,مارشل، مشی گن","latitude":"42.27226","longitude":"-84.96331","feature_class":"P","feature_code":"PPLA2","country_code":"US","cc2":"","admin1_code":"MI","admin2_code":"025","admin3_code":"","admin4_code":"","population":"7088","elevation":"280","dem":"281","timezone":"America/Detroit","modification_date":"2011-05-14"},{"geonameid":"5001084","name":"Marysville","asciiname":"Marysville","alternatenames":"Mehrisvill,Merizvil,ma li si wei er,marysfyl,melijeubil,mryzwyl  myshygan,myryzwyl  mshy gn,Меризвил,Мэрисвилл,ماريسفيل,مریزویل، میشیگان,میریزویل، مشی گن,马里斯维尔,메리즈빌","latitude":"42.91253","longitude":"-82.48686","feature_class":"P","feature_code":"PPL","country_code":"US","cc2":"","admin1_code":"MI","admin2_code":"147","admin3_code":"","admin4_code":"","population":"9959","elevation":"187","dem":"191","timezone":"America/Detroit","modification_date":"2011-05-14"},{"geonameid":"5001093","name":"Mason","asciiname":"Mason","alternatenames":"Mejson,Мейсон","latitude":"42.5792","longitude":"-84.44358","feature_class":"P","feature_code":"PPL","country_code":"US","cc2":"","admin1_code":"MI","admin2_code":"065","admin3_code":"","admin4_code":"","population":"8252","elevation":"280","dem":"280","timezone":"America/Detroit","modification_date":"2011-05-14"},{"geonameid":"5001159","name":"Mattawan","asciiname":"Mattawan","alternatenames":"","latitude":"42.20948","longitude":"-85.78445","feature_class":"P","feature_code":"PPL","country_code":"US","cc2":"","admin1_code":"MI","admin2_code":"159","admin3_code":"","admin4_code":"","population":"1997","elevation":"265","dem":"272","timezone":"America/Detroit","modification_date":"2011-05-14"},{"geonameid":"5001634","name":"Melvindale","asciiname":"Melvindale","alternatenames":"","latitude":"42.28254","longitude":"-83.1752","feature_class":"P","feature_code":"PPL","country_code":"US","cc2":"","admin1_code":"MI","admin2_code":"163","admin3_code":"","admin4_code":"","population":"10715","elevation":"179","dem":"180","timezone":"America/Detroit","modification_date":"2011-05-14"},{"geonameid":"5001644","name":"Memphis","asciiname":"Memphis","alternatenames":"Memfis,Мемфис","latitude":"42.89642","longitude":"-82.76881","feature_class":"P","feature_code":"PPL","country_code":"US","cc2":"","admin1_code":"MI","admin2_code":"099","admin3_code":"","admin4_code":"","population":"1183","elevation":"230","dem":"231","timezone":"America/Detroit","modification_date":"2011-05-14"},{"geonameid":"5001669","name":"Menominee","asciiname":"Menominee","alternatenames":"MNM,Mehnomini,Menomini,mnmwny  myshygan,mynwmyny,Меномини,Мэномини,منمونی، میشیگان,مينوميني","latitude":"45.10776","longitude":"-87.61427","feature_class":"P","feature_code":"PPLA2","country_code":"US","cc2":"","admin1_code":"MI","admin2_code":"109","admin3_code":"","admin4_code":"","population":"8599","elevation":"181","dem":"184","timezone":"America/Menominee","modification_date":"2011-05-14"},{"geonameid":"5001813","name":"Michigan Center","asciiname":"Michigan Center","alternatenames":"","latitude":"42.23309","longitude":"-84.32718","feature_class":"P","feature_code":"PPL","country_code":"US","cc2":"","admin1_code":"MI","admin2_code":"075","admin3_code":"","admin4_code":"","population":"4672","elevation":"288","dem":"287","timezone":"America/Detroit","modification_date":"2011-05-14"},{"geonameid":"5001924","name":"Middleville","asciiname":"Middleville","alternatenames":"","latitude":"42.71309","longitude":"-85.46196","feature_class":"P","feature_code":"PPL","country_code":"US","cc2":"","admin1_code":"MI","admin2_code":"015","admin3_code":"","admin4_code":"","population":"3319","elevation":"233","dem":"232","timezone":"America/Detroit","modification_date":"2011-05-14"},{"geonameid":"5001929","name":"Midland","asciiname":"Midland","alternatenames":"Midland,mydland,mydlnd  myshygan,Мидланд,ميدلاند,مڈلینڈ، مشی گن,میدلند، میشیگان","latitude":"43.61558","longitude":"-84.24721","feature_class":"P","feature_code":"PPLA2","country_code":"US","cc2":"","admin1_code":"MI","admin2_code":"111","admin3_code":"","admin4_code":"","population":"41863","elevation":"191","dem":"193","timezone":"America/Detroit","modification_date":"2011-05-14"},{"geonameid":"5001962","name":"Milan","asciiname":"Milan","alternatenames":"Majlan,Milan,mylan,mylan  myshygan,Мајлан,Милан,ميلان,میلان، میشیگان","latitude":"42.08532","longitude":"-83.68244","feature_class":"P","feature_code":"PPL","country_code":"US","cc2":"","admin1_code":"MI","admin2_code":"161","admin3_code":"","admin4_code":"","population":"5836","elevation":"214","dem":"213","timezone":"America/Detroit","modification_date":"2011-05-14"},{"geonameid":"5001972","name":"Milford","asciiname":"Milford","alternatenames":"Milford,Милфорд","latitude":"42.59364","longitude":"-83.59939","feature_class":"P","feature_code":"PPL","country_code":"US","cc2":"","admin1_code":"MI","admin2_code":"125","admin3_code":"","admin4_code":"","population":"6175","elevation":"294","dem":"297","timezone":"America/Detroit","modification_date":"2011-05-14"},{"geonameid":"5002100","name":"Millington","asciiname":"Millington","alternatenames":"","latitude":"43.28141","longitude":"-83.52968","feature_class":"P","feature_code":"PPL","country_code":"US","cc2":"","admin1_code":"MI","admin2_code":"157","admin3_code":"","admin4_code":"","population":"1072","elevation":"229","dem":"230","timezone":"America/Detroit","modification_date":"2011-05-14"},{"geonameid":"5002197","name":"Mio","asciiname":"Mio","alternatenames":"Majo,Мајо","latitude":"44.65224","longitude":"-84.12973","feature_class":"P","feature_code":"PPLA2","country_code":"US","cc2":"","admin1_code":"MI","admin2_code":"135","admin3_code":"","admin4_code":"","population":"1826","elevation":"311","dem":"307","timezone":"America/Detroit","modification_date":"2011-05-14"},{"geonameid":"5002344","name":"Monroe","asciiname":"Monroe","alternatenames":"Monro,Monroj,meonlo,mwnrw,mwnrw  myshygan,Монро,Монрой,مونرو,مونرو، میشیگان,먼로","latitude":"41.91643","longitude":"-83.39771","feature_class":"P","feature_code":"PPLA2","country_code":"US","cc2":"","admin1_code":"MI","admin2_code":"115","admin3_code":"","admin4_code":"","population":"20733","elevation":"182","dem":"181","timezone":"America/Detroit","modification_date":"2011-05-14"},{"geonameid":"5002367","name":"Montague","asciiname":"Montague","alternatenames":"","latitude":"43.41668","longitude":"-86.35701","feature_class":"P","feature_code":"PPL","country_code":"US","cc2":"","admin1_code":"MI","admin2_code":"121","admin3_code":"","admin4_code":"","population":"2361","elevation":"192","dem":"189","timezone":"America/Detroit","modification_date":"2011-05-14"},{"geonameid":"5002411","name":"Montrose","asciiname":"Montrose","alternatenames":"","latitude":"43.17669","longitude":"-83.89274","feature_class":"P","feature_code":"PPL","country_code":"US","cc2":"","admin1_code":"MI","admin2_code":"049","admin3_code":"","admin4_code":"","population":"1657","elevation":"205","dem":"206","timezone":"America/Detroit","modification_date":"2011-05-14"},{"geonameid":"5002495","name":"Morenci","asciiname":"Morenci","alternatenames":"","latitude":"41.71949","longitude":"-84.218","feature_class":"P","feature_code":"PPL","country_code":"US","cc2":"","admin1_code":"MI","admin2_code":"091","admin3_code":"","admin4_code":"","population":"2220","elevation":"233","dem":"234","timezone":"America/Detroit","modification_date":"2011-05-14"},{"geonameid":"5002656","name":"Mount Clemens","asciiname":"Mount Clemens","alternatenames":"MTC,Maunt Klehmens,Maunt Klemens,Mt. Clemens,mawnt klymns,Маунт Клеменс,Маунт Клэменс,ماونت كليمنس,مونت‌کلمنز، میشیگان","latitude":"42.59726","longitude":"-82.87798","feature_class":"P","feature_code":"PPLA2","country_code":"US","cc2":"","admin1_code":"MI","admin2_code":"099","admin3_code":"","admin4_code":"","population":"16314","elevation":"184","dem":"188","timezone":"America/Detroit","modification_date":"2013-05-09"},{"geonameid":"5002699","name":"Mount Morris","asciiname":"Mount Morris","alternatenames":"Mt. Morris","latitude":"43.11864","longitude":"-83.69496","feature_class":"P","feature_code":"PPL","country_code":"US","cc2":"","admin1_code":"MI","admin2_code":"049","admin3_code":"","admin4_code":"","population":"3086","elevation":"235","dem":"235","timezone":"America/Detroit","modification_date":"2013-06-13"},{"geonameid":"5002714","name":"Mount Pleasant","asciiname":"Mount Pleasant","alternatenames":"MOP,Maunt Plezant,Maunt Plisant,Maunt-Plezant,mawnt blyzant,Маунт Плезант,Маунт Плисант,Маунт-Плезант,ماونت بليزانت,مونت‌پلیزانت، میشیگان","latitude":"43.59781","longitude":"-84.76751","feature_class":"P","feature_code":"PPLA2","country_code":"US","cc2":"","admin1_code":"MI","admin2_code":"073","admin3_code":"","admin4_code":"","population":"26016","elevation":"235","dem":"236","timezone":"America/Detroit","modification_date":"2011-05-14"},{"geonameid":"5003065","name":"Munising","asciiname":"Munising","alternatenames":"Manising,Mjunising,mwnysyng  myshygan,mwnysyngh,Манисинг,Мјунисинг,مونيسينغ,مونیسینگ، میشیگان","latitude":"46.4112","longitude":"-86.64926","feature_class":"P","feature_code":"PPLA2","country_code":"US","cc2":"","admin1_code":"MI","admin2_code":"003","admin3_code":"","admin4_code":"","population":"2355","elevation":"187","dem":"179","timezone":"America/Detroit","modification_date":"2014-10-07"},{"geonameid":"5003132","name":"Muskegon","asciiname":"Muskegon","alternatenames":"MKG,Maskegon,Maskigon,maskgwn  myshygan,meoseukigeon,mskyghwn,mskygn  mshy gn,Маскегон,Маскигон,ماسکگون، میشیگان,مسكيغون,مسکیگن، مشی گن,머스키건","latitude":"43.23418","longitude":"-86.24839","feature_class":"P","feature_code":"PPLA2","country_code":"US","cc2":"","admin1_code":"MI","admin2_code":"121","admin3_code":"","admin4_code":"","population":"38401","elevation":"188","dem":"192","timezone":"America/Detroit","modification_date":"2011-05-14"},{"geonameid":"5003140","name":"Muskegon Heights","asciiname":"Muskegon Heights","alternatenames":"","latitude":"43.20113","longitude":"-86.23895","feature_class":"P","feature_code":"PPL","country_code":"US","cc2":"","admin1_code":"MI","admin2_code":"121","admin3_code":"","admin4_code":"","population":"10856","elevation":"191","dem":"194","timezone":"America/Detroit","modification_date":"2011-05-14"},{"geonameid":"5003224","name":"Napoleon","asciiname":"Napoleon","alternatenames":"","latitude":"42.16059","longitude":"-84.24606","feature_class":"P","feature_code":"PPL","country_code":"US","cc2":"","admin1_code":"MI","admin2_code":"075","admin3_code":"","admin4_code":"","population":"1258","elevation":"293","dem":"295","timezone":"America/Detroit","modification_date":"2011-05-14"},{"geonameid":"5003243","name":"Nashville","asciiname":"Nashville","alternatenames":"Nashvill,Нашвилл","latitude":"42.60281","longitude":"-85.09305","feature_class":"P","feature_code":"PPL","country_code":"US","cc2":"","admin1_code":"MI","admin2_code":"015","admin3_code":"","admin4_code":"","population":"1628","elevation":"250","dem":"251","timezone":"America/Detroit","modification_date":"2011-05-14"},{"geonameid":"5003294","name":"Negaunee","asciiname":"Negaunee","alternatenames":"Negauni,Negoni,ngwnh  myshygan,nyghawny,Негауни,Негони,نيغاوني,نگونه، میشیگان","latitude":"46.4991","longitude":"-87.6118","feature_class":"P","feature_code":"PPL","country_code":"US","cc2":"","admin1_code":"MI","admin2_code":"103","admin3_code":"","admin4_code":"","population":"4568","elevation":"418","dem":"416","timezone":"America/Detroit","modification_date":"2011-05-14"},{"geonameid":"5003369","name":"New Baltimore","asciiname":"New Baltimore","alternatenames":"","latitude":"42.68114","longitude":"-82.73686","feature_class":"P","feature_code":"PPL","country_code":"US","cc2":"","admin1_code":"MI","admin2_code":"099","admin3_code":"","admin4_code":"","population":"12084","elevation":"179","dem":"180","timezone":"America/Detroit","modification_date":"2011-05-14"},{"geonameid":"5003374","name":"New Buffalo","asciiname":"New Buffalo","alternatenames":"N'ju Buffalo,Nju Bafalo,nyw bwfalw,nywbafalw  myshygan,Њу Бафало,Нью Буффало,نيو بوفالو,نیوبافالو، میشیگان","latitude":"41.79393","longitude":"-86.74392","feature_class":"P","feature_code":"PPL","country_code":"US","cc2":"","admin1_code":"MI","admin2_code":"021","admin3_code":"","admin4_code":"","population":"1883","elevation":"195","dem":"192","timezone":"America/Detroit","modification_date":"2011-05-14"},{"geonameid":"5003383","name":"New Haven","asciiname":"New Haven","alternatenames":"N'ju-Khejven,Нью-Хейвен","latitude":"42.72948","longitude":"-82.80131","feature_class":"P","feature_code":"PPL","country_code":"US","cc2":"","admin1_code":"MI","admin2_code":"099","admin3_code":"","admin4_code":"","population":"4642","elevation":"191","dem":"192","timezone":"America/Detroit","modification_date":"2011-05-14"},{"geonameid":"5003384","name":"New Haven","asciiname":"New Haven","alternatenames":"","latitude":"43.09364","longitude":"-84.15331","feature_class":"P","feature_code":"PPL","country_code":"US","cc2":"","admin1_code":"MI","admin2_code":"155","admin3_code":"","admin4_code":"","population":"5123","elevation":"212","dem":"214","timezone":"America/Detroit","modification_date":"2010-02-19"},{"geonameid":"5003424","name":"Newaygo","asciiname":"Newaygo","alternatenames":"","latitude":"43.41974","longitude":"-85.80005","feature_class":"P","feature_code":"PPL","country_code":"US","cc2":"","admin1_code":"MI","admin2_code":"123","admin3_code":"","admin4_code":"","population":"1976","elevation":"211","dem":"213","timezone":"America/Detroit","modification_date":"2011-05-14"},{"geonameid":"5003435","name":"Newberry","asciiname":"Newberry","alternatenames":"N'jubehrri,Njuberi,nywbyry,Њубери,Ньюбэрри,نيوبيري","latitude":"46.355","longitude":"-85.50956","feature_class":"P","feature_code":"PPLA2","country_code":"US","cc2":"","admin1_code":"MI","admin2_code":"095","admin3_code":"","admin4_code":"","population":"1519","elevation":"235","dem":"234","timezone":"America/Detroit","modification_date":"2011-05-14"},{"geonameid":"5003514","name":"Niles","asciiname":"Niles","alternatenames":"Najls,nylz,nylz  myshygan,Найлс,Најлс,نيلز,نیلز، میشیگان","latitude":"41.82977","longitude":"-86.25418","feature_class":"P","feature_code":"PPL","country_code":"US","cc2":"","admin1_code":"MI","admin2_code":"021","admin3_code":"","admin4_code":"","population":"11600","elevation":"209","dem":"211","timezone":"America/Detroit","modification_date":"2011-05-14"},{"geonameid":"5003617","name":"North Branch","asciiname":"North Branch","alternatenames":"","latitude":"43.22947","longitude":"-83.19661","feature_class":"P","feature_code":"PPL","country_code":"US","cc2":"","admin1_code":"MI","admin2_code":"087","admin3_code":"","admin4_code":"","population":"1033","elevation":"247","dem":"248","timezone":"America/Detroit","modification_date":"2011-05-14"},{"geonameid":"5003811","name":"North Muskegon","asciiname":"North Muskegon","alternatenames":"","latitude":"43.25613","longitude":"-86.26756","feature_class":"P","feature_code":"PPL","country_code":"US","cc2":"","admin1_code":"MI","admin2_code":"121","admin3_code":"","admin4_code":"","population":"3786","elevation":"189","dem":"190","timezone":"America/Detroit","modification_date":"2011-05-14"},{"geonameid":"5003952","name":"Northview","asciiname":"Northview","alternatenames":"","latitude":"43.04558","longitude":"-85.60059","feature_class":"P","feature_code":"PPL","country_code":"US","cc2":"","admin1_code":"MI","admin2_code":"081","admin3_code":"","admin4_code":"","population":"14541","elevation":"227","dem":"229","timezone":"America/Detroit","modification_date":"2011-05-14"},{"geonameid":"5003956","name":"Northville","asciiname":"Northville","alternatenames":"Nortvil,nwrthfyl,nwrthwyl  myshygan,Нортвил,نارتھویل، مشی گن,نورثفيل,نورثویل، میشیگان","latitude":"42.43115","longitude":"-83.48327","feature_class":"P","feature_code":"PPL","country_code":"US","cc2":"","admin1_code":"MI","admin2_code":"163","admin3_code":"","admin4_code":"","population":"5970","elevation":"252","dem":"255","timezone":"America/Detroit","modification_date":"2011-05-14"},{"geonameid":"5004005","name":"Norton Shores","asciiname":"Norton Shores","alternatenames":"Norton Shorehs,Norton Shors,Nortun Shors,nwrtwn shwrz,swahl nwrtwn  myshygan,Нортон Шорс,Нортон Шорэс,Нортън Шорс,سواحل نورتون، میشیگان,نورتون شورز","latitude":"43.1689","longitude":"-86.26395","feature_class":"P","feature_code":"PPL","country_code":"US","cc2":"","admin1_code":"MI","admin2_code":"121","admin3_code":"","admin4_code":"","population":"23994","elevation":"187","dem":"191","timezone":"America/Detroit","modification_date":"2011-05-14"},{"geonameid":"5004016","name":"Norway","asciiname":"Norway","alternatenames":"","latitude":"45.7869","longitude":"-87.90374","feature_class":"P","feature_code":"PPL","country_code":"US","cc2":"","admin1_code":"MI","admin2_code":"043","admin3_code":"","admin4_code":"","population":"2845","elevation":"291","dem":"291","timezone":"America/Menominee","modification_date":"2011-05-14"},{"geonameid":"5004062","name":"Novi","asciiname":"Novi","alternatenames":"Novaj,Novi,Novyj,nobai,nwfy,nwwy  myshygan,nwy  mshy gn,Новај,Нови,Новый,نوفي,نووی، میشیگان,نوی، مشی گن,ノバイ,노바이","latitude":"42.48059","longitude":"-83.47549","feature_class":"P","feature_code":"PPL","country_code":"US","cc2":"","admin1_code":"MI","admin2_code":"125","admin3_code":"","admin4_code":"","population":"55224","elevation":"277","dem":"276","timezone":"America/Detroit","modification_date":"2011-05-14"},{"geonameid":"5004188","name":"Oak Park","asciiname":"Oak Park","alternatenames":"Oak Park,Ouk Park,Ouk-Park,awk bark,awk park  mshy gn,Оак Парк,Оук Парк,Оук-Парк,أوك بارك,اوک پارک، مشی گن,اوک‌پارک، میشیگان","latitude":"42.45948","longitude":"-83.18271","feature_class":"P","feature_code":"PPL","country_code":"US","cc2":"","admin1_code":"MI","admin2_code":"125","admin3_code":"","admin4_code":"","population":"29319","elevation":"203","dem":"203","timezone":"America/Detroit","modification_date":"2011-05-14"},{"geonameid":"5004359","name":"Okemos","asciiname":"Okemos","alternatenames":"","latitude":"42.72226","longitude":"-84.42747","feature_class":"P","feature_code":"PPL","country_code":"US","cc2":"","admin1_code":"MI","admin2_code":"065","admin3_code":"","admin4_code":"","population":"21369","elevation":"256","dem":"257","timezone":"America/Detroit","modification_date":"2011-05-14"},{"geonameid":"5004454","name":"Olivet","asciiname":"Olivet","alternatenames":"","latitude":"42.44143","longitude":"-84.92415","feature_class":"P","feature_code":"PPL","country_code":"US","cc2":"","admin1_code":"MI","admin2_code":"045","admin3_code":"","admin4_code":"","population":"1605","elevation":"289","dem":"292","timezone":"America/Detroit","modification_date":"2011-05-14"},{"geonameid":"5004520","name":"Ontonagon","asciiname":"Ontonagon","alternatenames":"Ontonagon,awntwnaghwn,Онтонагон,أونتوناغون","latitude":"46.87105","longitude":"-89.31403","feature_class":"P","feature_code":"PPLA2","country_code":"US","cc2":"","admin1_code":"MI","admin2_code":"131","admin3_code":"","admin4_code":"","population":"1494","elevation":"188","dem":"186","timezone":"America/Detroit","modification_date":"2011-05-14"},{"geonameid":"5004551","name":"Orchard Lake","asciiname":"Orchard Lake","alternatenames":"","latitude":"42.58309","longitude":"-83.35938","feature_class":"P","feature_code":"PPL","country_code":"US","cc2":"","admin1_code":"MI","admin2_code":"125","admin3_code":"","admin4_code":"","population":"2245","elevation":"292","dem":"291","timezone":"America/Detroit","modification_date":"2010-10-12"},{"geonameid":"5004593","name":"Ortonville","asciiname":"Ortonville","alternatenames":"","latitude":"42.85225","longitude":"-83.443","feature_class":"P","feature_code":"PPL","country_code":"US","cc2":"","admin1_code":"MI","admin2_code":"125","admin3_code":"","admin4_code":"","population":"1442","elevation":"287","dem":"287","timezone":"America/Detroit","modification_date":"2011-05-14"},{"geonameid":"5004658","name":"Otsego","asciiname":"Otsego","alternatenames":"","latitude":"42.46059","longitude":"-85.69641","feature_class":"P","feature_code":"PPL","country_code":"US","cc2":"","admin1_code":"MI","admin2_code":"005","admin3_code":"","admin4_code":"","population":"3956","elevation":"216","dem":"220","timezone":"America/Detroit","modification_date":"2011-05-14"},{"geonameid":"5004776","name":"Ovid","asciiname":"Ovid","alternatenames":"","latitude":"43.00586","longitude":"-84.37164","feature_class":"P","feature_code":"PPL","country_code":"US","cc2":"","admin1_code":"MI","admin2_code":"037","admin3_code":"","admin4_code":"","population":"1603","elevation":"223","dem":"224","timezone":"America/Detroit","modification_date":"2011-05-14"},{"geonameid":"5004792","name":"Owosso","asciiname":"Owosso","alternatenames":"Ovoso,Ovosso,awsw,awsw  myshygan,Овосо,Овоссо,أوسو,اوسو، میشیگان","latitude":"42.9978","longitude":"-84.17664","feature_class":"P","feature_code":"PPL","country_code":"US","cc2":"","admin1_code":"MI","admin2_code":"155","admin3_code":"","admin4_code":"","population":"15194","elevation":"222","dem":"223","timezone":"America/Detroit","modification_date":"2011-05-14"},{"geonameid":"5004817","name":"Oxford","asciiname":"Oxford","alternatenames":"Oksford,awksfwrd,Оксфорд,آکسفورڈ، مشی گن,أوكسفورد","latitude":"42.82475","longitude":"-83.26466","feature_class":"P","feature_code":"PPL","country_code":"US","cc2":"","admin1_code":"MI","admin2_code":"125","admin3_code":"","admin4_code":"","population":"3436","elevation":"322","dem":"324","timezone":"America/Detroit","modification_date":"2011-05-14"},{"geonameid":"5004961","name":"Parchment","asciiname":"Parchment","alternatenames":"","latitude":"42.3281","longitude":"-85.56973","feature_class":"P","feature_code":"PPL","country_code":"US","cc2":"","admin1_code":"MI","admin2_code":"077","admin3_code":"","admin4_code":"","population":"1804","elevation":"236","dem":"238","timezone":"America/Detroit","modification_date":"2011-05-14"},{"geonameid":"5005126","name":"Paw Paw","asciiname":"Paw Paw","alternatenames":"","latitude":"42.21782","longitude":"-85.89112","feature_class":"P","feature_code":"PPLA2","country_code":"US","cc2":"","admin1_code":"MI","admin2_code":"159","admin3_code":"","admin4_code":"","population":"3534","elevation":"223","dem":"223","timezone":"America/Detroit","modification_date":"2011-05-14"},{"geonameid":"5005128","name":"Paw Paw Lake","asciiname":"Paw Paw Lake","alternatenames":"","latitude":"42.21226","longitude":"-86.27197","feature_class":"P","feature_code":"PPL","country_code":"US","cc2":"","admin1_code":"MI","admin2_code":"021","admin3_code":"","admin4_code":"","population":"3511","elevation":"199","dem":"194","timezone":"America/Detroit","modification_date":"2011-05-14"},{"geonameid":"5005178","name":"Pearl Beach","asciiname":"Pearl Beach","alternatenames":"","latitude":"42.6267","longitude":"-82.59769","feature_class":"P","feature_code":"PPL","country_code":"US","cc2":"","admin1_code":"MI","admin2_code":"147","admin3_code":"","admin4_code":"","population":"2829","elevation":"176","dem":"176","timezone":"America/Detroit","modification_date":"2011-05-14"},{"geonameid":"5005401","name":"Perry","asciiname":"Perry","alternatenames":"","latitude":"42.82642","longitude":"-84.21941","feature_class":"P","feature_code":"PPL","country_code":"US","cc2":"","admin1_code":"MI","admin2_code":"155","admin3_code":"","admin4_code":"","population":"2188","elevation":"271","dem":"272","timezone":"America/Detroit","modification_date":"2011-05-14"},{"geonameid":"5005450","name":"Petersburg","asciiname":"Petersburg","alternatenames":"Peterburg,Петербург","latitude":"41.90116","longitude":"-83.71494","feature_class":"P","feature_code":"PPL","country_code":"US","cc2":"","admin1_code":"MI","admin2_code":"115","admin3_code":"","admin4_code":"","population":"1146","elevation":"206","dem":"205","timezone":"America/Detroit","modification_date":"2011-05-14"},{"geonameid":"5005484","name":"Petoskey","asciiname":"Petoskey","alternatenames":"Gorad Petoski,Pehtoskej,Petoski,bytwsky,pei tuo si ji,ptwsky  myshygan,Горад Петоскі,Петоски,Пэтоскей,بيتوسكي,پتوسکی، میشیگان,佩托斯基","latitude":"45.37334","longitude":"-84.95533","feature_class":"P","feature_code":"PPLA2","country_code":"US","cc2":"","admin1_code":"MI","admin2_code":"047","admin3_code":"","admin4_code":"","population":"5670","elevation":"203","dem":"204","timezone":"America/Detroit","modification_date":"2011-05-14"},{"geonameid":"5005642","name":"Pigeon","asciiname":"Pigeon","alternatenames":"","latitude":"43.83002","longitude":"-83.26996","feature_class":"P","feature_code":"PPL","country_code":"US","cc2":"","admin1_code":"MI","admin2_code":"063","admin3_code":"","admin4_code":"","population":"1208","elevation":"190","dem":"191","timezone":"America/Detroit","modification_date":"2011-05-14"},{"geonameid":"5005703","name":"Pinckney","asciiname":"Pinckney","alternatenames":"","latitude":"42.457","longitude":"-83.94791","feature_class":"P","feature_code":"PPL","country_code":"US","cc2":"","admin1_code":"MI","admin2_code":"093","admin3_code":"","admin4_code":"","population":"2427","elevation":"275","dem":"275","timezone":"America/Detroit","modification_date":"2015-01-08"},{"geonameid":"5005706","name":"Pinconning","asciiname":"Pinconning","alternatenames":"","latitude":"43.85363","longitude":"-83.96499","feature_class":"P","feature_code":"PPL","country_code":"US","cc2":"","admin1_code":"MI","admin2_code":"017","admin3_code":"","admin4_code":"","population":"1307","elevation":"182","dem":"181","timezone":"America/Detroit","modification_date":"2011-05-14"},{"geonameid":"5005954","name":"Plainwell","asciiname":"Plainwell","alternatenames":"Plehjnvehll,Plejnvel,blynwyl,plynwl  myshygan,Плејнвел,Плэйнвэлл,بلينويل,پلینول، میشیگان","latitude":"42.44004","longitude":"-85.6489","feature_class":"P","feature_code":"PPL","country_code":"US","cc2":"","admin1_code":"MI","admin2_code":"005","admin3_code":"","admin4_code":"","population":"3804","elevation":"222","dem":"223","timezone":"America/Detroit","modification_date":"2011-05-14"},{"geonameid":"5006011","name":"Pleasant Ridge","asciiname":"Pleasant Ridge","alternatenames":"","latitude":"42.47115","longitude":"-83.14215","feature_class":"P","feature_code":"PPL","country_code":"US","cc2":"","admin1_code":"MI","admin2_code":"125","admin3_code":"","admin4_code":"","population":"2526","elevation":"197","dem":"201","timezone":"America/Detroit","modification_date":"2011-05-14"},{"geonameid":"5006059","name":"Plymouth","asciiname":"Plymouth","alternatenames":"Plimut,blaymwth,playmawt  mshy gn,plymwth  myshygan,Плимут,بلايموث,پلایماؤت، مشی گن,پلیموث، میشیگان","latitude":"42.37143","longitude":"-83.47021","feature_class":"P","feature_code":"PPL","country_code":"US","cc2":"","admin1_code":"MI","admin2_code":"163","admin3_code":"","admin4_code":"","population":"9132","elevation":"221","dem":"222","timezone":"America/Detroit","modification_date":"2011-05-14"},{"geonameid":"5006166","name":"Pontiac","asciiname":"Pontiac","alternatenames":"PTK,Pontiac,Pontiak,Pontijak,bwntyak,pang di ya ke,pontiaeg,pontiakku,pwntyak  myshygan,Понтиак,Понтијак,Понтіак,بونتياك,پونتیاک، میشیگان,پونٹیئک، مشی گن,ポンティアック,庞蒂亚克,폰티액","latitude":"42.63892","longitude":"-83.29105","feature_class":"P","feature_code":"PPLA2","country_code":"US","cc2":"","admin1_code":"MI","admin2_code":"125","admin3_code":"","admin4_code":"","population":"59515","elevation":"281","dem":"289","timezone":"America/Detroit","modification_date":"2011-05-14"},{"geonameid":"5006233","name":"Port Huron","asciiname":"Port Huron","alternatenames":"PHN,Port Khjuron,Port-Guron,bwrt hwrwn,potohyuron,pwrt harwn  myshygan,Порт Хюрон,Порт Хјурон,Порт-Гурон,بورت هورون,پورت هارون، میشیگان,ポートヒューロン","latitude":"42.97086","longitude":"-82.42491","feature_class":"P","feature_code":"PPLA2","country_code":"US","cc2":"","admin1_code":"MI","admin2_code":"147","admin3_code":"","admin4_code":"","population":"30184","elevation":"184","dem":"184","timezone":"America/Detroit","modification_date":"2011-05-14"},{"geonameid":"5006250","name":"Portage","asciiname":"Portage","alternatenames":"Portehjdzh,Portidz,bwrtagh,pwrtyj  myshygan,Портиџ,Портэйдж,بورتاغ,پورتیج، میشیگان,پورٹیج، مشی گن","latitude":"42.20115","longitude":"-85.58","feature_class":"P","feature_code":"PPL","country_code":"US","cc2":"","admin1_code":"MI","admin2_code":"077","admin3_code":"","admin4_code":"","population":"46292","elevation":"268","dem":"273","timezone":"America/Detroit","modification_date":"2011-05-14"},{"geonameid":"5006314","name":"Portland","asciiname":"Portland","alternatenames":"Portlend,Портленд","latitude":"42.8692","longitude":"-84.90305","feature_class":"P","feature_code":"PPL","country_code":"US","cc2":"","admin1_code":"MI","admin2_code":"067","admin3_code":"","admin4_code":"","population":"3883","elevation":"221","dem":"223","timezone":"America/Detroit","modification_date":"2011-05-14"},{"geonameid":"5006376","name":"Potterville","asciiname":"Potterville","alternatenames":"","latitude":"42.6292","longitude":"-84.73887","feature_class":"P","feature_code":"PPL","country_code":"US","cc2":"","admin1_code":"MI","admin2_code":"045","admin3_code":"","admin4_code":"","population":"2617","elevation":"274","dem":"274","timezone":"America/Detroit","modification_date":"2011-05-14"},{"geonameid":"5006566","name":"Prudenville","asciiname":"Prudenville","alternatenames":"","latitude":"44.29835","longitude":"-84.65197","feature_class":"P","feature_code":"PPL","country_code":"US","cc2":"","admin1_code":"MI","admin2_code":"143","admin3_code":"","admin4_code":"","population":"1682","elevation":"349","dem":"347","timezone":"America/Detroit","modification_date":"2011-05-14"},{"geonameid":"5006647","name":"Quincy","asciiname":"Quincy","alternatenames":"Kuinsi,Куинси","latitude":"41.94421","longitude":"-84.88385","feature_class":"P","feature_code":"PPL","country_code":"US","cc2":"","admin1_code":"MI","admin2_code":"023","admin3_code":"","admin4_code":"","population":"1652","elevation":"310","dem":"313","timezone":"America/Detroit","modification_date":"2011-05-14"},{"geonameid":"5006658","name":"Quinnesec","asciiname":"Quinnesec","alternatenames":"","latitude":"45.80635","longitude":"-87.98846","feature_class":"P","feature_code":"PPL","country_code":"US","cc2":"","admin1_code":"MI","admin2_code":"043","admin3_code":"","admin4_code":"","population":"1191","elevation":"317","dem":"316","timezone":"America/Menominee","modification_date":"2011-05-14"},{"geonameid":"5006776","name":"Rapid City","asciiname":"Rapid City","alternatenames":"","latitude":"44.83445","longitude":"-85.28256","feature_class":"P","feature_code":"PPL","country_code":"US","cc2":"","admin1_code":"MI","admin2_code":"079","admin3_code":"","admin4_code":"","population":"1352","elevation":"192","dem":"190","timezone":"America/Detroit","modification_date":"2011-05-14"},{"geonameid":"5006818","name":"Ravenna","asciiname":"Ravenna","alternatenames":"","latitude":"43.18947","longitude":"-85.93699","feature_class":"P","feature_code":"PPL","country_code":"US","cc2":"","admin1_code":"MI","admin2_code":"121","admin3_code":"","admin4_code":"","population":"1219","elevation":"205","dem":"202","timezone":"America/Detroit","modification_date":"2011-05-14"},{"geonameid":"5006848","name":"Reading","asciiname":"Reading","alternatenames":"Reding,Рединг","latitude":"41.83949","longitude":"-84.74801","feature_class":"P","feature_code":"PPL","country_code":"US","cc2":"","admin1_code":"MI","admin2_code":"059","admin3_code":"","admin4_code":"","population":"1078","elevation":"363","dem":"366","timezone":"America/Detroit","modification_date":"2011-05-14"},{"geonameid":"5006917","name":"Redford","asciiname":"Redford","alternatenames":"Redford,Редфорд","latitude":"42.38337","longitude":"-83.2966","feature_class":"P","feature_code":"PPL","country_code":"US","cc2":"","admin1_code":"MI","admin2_code":"163","admin3_code":"","admin4_code":"","population":"49936","elevation":"191","dem":"190","timezone":"America/Detroit","modification_date":"2010-01-29"},{"geonameid":"5006946","name":"Reed City","asciiname":"Reed City","alternatenames":"RCT,Rid Siti,ryd syty,ryd syty  myshygan,Рид Сити,ريد سيتي,رید سیتی، میشیگان","latitude":"43.87502","longitude":"-85.51005","feature_class":"P","feature_code":"PPLA2","country_code":"US","cc2":"","admin1_code":"MI","admin2_code":"133","admin3_code":"","admin4_code":"","population":"2425","elevation":"316","dem":"317","timezone":"America/Detroit","modification_date":"2011-05-14"},{"geonameid":"5006969","name":"Reese","asciiname":"Reese","alternatenames":"","latitude":"43.45058","longitude":"-83.69635","feature_class":"P","feature_code":"PPL","country_code":"US","cc2":"","admin1_code":"MI","admin2_code":"157","admin3_code":"","admin4_code":"","population":"1454","elevation":"192","dem":"192","timezone":"America/Detroit","modification_date":"2011-05-14"},{"geonameid":"5007141","name":"Richmond","asciiname":"Richmond","alternatenames":"Richmond,ryshmwnd  myshygan,rytshmwnd,Ричмонд,ريتشموند,ریشموند، میشیگان","latitude":"42.8092","longitude":"-82.75576","feature_class":"P","feature_code":"PPL","country_code":"US","cc2":"","admin1_code":"MI","admin2_code":"099","admin3_code":"","admin4_code":"","population":"5735","elevation":"223","dem":"223","timezone":"America/Detroit","modification_date":"2011-05-14"},{"geonameid":"5007247","name":"River Rouge","asciiname":"River Rouge","alternatenames":"","latitude":"42.27337","longitude":"-83.13437","feature_class":"P","feature_code":"PPL","country_code":"US","cc2":"","admin1_code":"MI","admin2_code":"163","admin3_code":"","admin4_code":"","population":"7903","elevation":"178","dem":"178","timezone":"America/Detroit","modification_date":"2011-05-14"},{"geonameid":"5007323","name":"Riverview","asciiname":"Riverview","alternatenames":"Rivehvju,Rivervju,ryfrfyw,rywrwyw  myshygan,Ривервју,Ривэвю,ريفرفيو,ریورویو، میشیگان","latitude":"42.17421","longitude":"-83.17937","feature_class":"P","feature_code":"PPL","country_code":"US","cc2":"","admin1_code":"MI","admin2_code":"163","admin3_code":"","admin4_code":"","population":"12486","elevation":"183","dem":"185","timezone":"America/Detroit","modification_date":"2011-05-14"},{"geonameid":"5007400","name":"Rochester","asciiname":"Rochester","alternatenames":"Rochester,rochesuta,rwchstr  myshygan,rwtshstr,Рочестер,روتشستر,روچستر، میشیگان,روچیسٹر، مشی گن,ロチェスター","latitude":"42.68059","longitude":"-83.13382","feature_class":"P","feature_code":"PPL","country_code":"US","cc2":"","admin1_code":"MI","admin2_code":"125","admin3_code":"","admin4_code":"","population":"12711","elevation":"229","dem":"232","timezone":"America/Detroit","modification_date":"2011-05-14"},