{"nextFile":"cities.87.json","rows":[{"geonameid":"6534747","name":"Puegnago sul Garda","asciiname":"Puegnago sul Garda","alternatenames":"","latitude":"45.56679","longitude":"10.50977","feature_class":"P","feature_code":"PPLA3","country_code":"IT","cc2":"","admin1_code":"09","admin2_code":"BS","admin3_code":"017158","admin4_code":"","population":"2776","elevation":"","dem":"217","timezone":"Europe/Rome","modification_date":"2012-02-15"},{"geonameid":"6534748","name":"Remedello","asciiname":"Remedello","alternatenames":"","latitude":"45.27838","longitude":"10.37198","feature_class":"P","feature_code":"PPLA3","country_code":"IT","cc2":"","admin1_code":"09","admin2_code":"BS","admin3_code":"017160","admin4_code":"","population":"3006","elevation":"","dem":"49","timezone":"Europe/Rome","modification_date":"2012-02-15"},{"geonameid":"6534749","name":"Rodengo-Saiano","asciiname":"Rodengo-Saiano","alternatenames":"","latitude":"45.59958","longitude":"10.10717","feature_class":"P","feature_code":"PPLA3","country_code":"IT","cc2":"","admin1_code":"09","admin2_code":"BS","admin3_code":"017163","admin4_code":"","population":"7507","elevation":"","dem":"180","timezone":"Europe/Rome","modification_date":"2012-02-15"},{"geonameid":"6534750","name":"Gardola","asciiname":"Gardola","alternatenames":"","latitude":"45.7418","longitude":"10.71871","feature_class":"P","feature_code":"PPLA3","country_code":"IT","cc2":"","admin1_code":"09","admin2_code":"BS","admin3_code":"017185","admin4_code":"","population":"623","elevation":"555","dem":"608","timezone":"Europe/Rome","modification_date":"2014-01-16"},{"geonameid":"6534752","name":"Trebbio","asciiname":"Trebbio","alternatenames":"","latitude":"45.71289","longitude":"10.46137","feature_class":"P","feature_code":"PPLA3","country_code":"IT","cc2":"","admin1_code":"09","admin2_code":"BS","admin3_code":"017191","admin4_code":"","population":"349","elevation":"687","dem":"682","timezone":"Europe/Rome","modification_date":"2014-01-16"},{"geonameid":"6534753","name":"Vallio Terme","asciiname":"Vallio Terme","alternatenames":"","latitude":"45.60979","longitude":"10.39737","feature_class":"P","feature_code":"PPLA3","country_code":"IT","cc2":"","admin1_code":"09","admin2_code":"BS","admin3_code":"017193","admin4_code":"","population":"1148","elevation":"","dem":"285","timezone":"Europe/Rome","modification_date":"2012-12-14"},{"geonameid":"6534754","name":"Valvestino","asciiname":"Valvestino","alternatenames":"","latitude":"45.76069","longitude":"10.59547","feature_class":"P","feature_code":"PPLA3","country_code":"IT","cc2":"","admin1_code":"09","admin2_code":"BS","admin3_code":"017194","admin4_code":"","population":"287","elevation":"","dem":"658","timezone":"Europe/Rome","modification_date":"2012-02-15"},{"geonameid":"6534755","name":"Albaredo Arnaboldi","asciiname":"Albaredo Arnaboldi","alternatenames":"","latitude":"45.10666","longitude":"9.24296","feature_class":"P","feature_code":"PPLA3","country_code":"IT","cc2":"","admin1_code":"09","admin2_code":"PV","admin3_code":"018002","admin4_code":"","population":"205","elevation":"","dem":"59","timezone":"Europe/Rome","modification_date":"2012-02-15"},{"geonameid":"6534756","name":"Castelletto di Branduzzo","asciiname":"Castelletto di Branduzzo","alternatenames":"","latitude":"45.06936","longitude":"9.09845","feature_class":"P","feature_code":"PPLA3","country_code":"IT","cc2":"","admin1_code":"09","admin2_code":"PV","admin3_code":"018038","admin4_code":"","population":"1023","elevation":"","dem":"66","timezone":"Europe/Rome","modification_date":"2012-02-15"},{"geonameid":"6534758","name":"Lettere","asciiname":"Lettere","alternatenames":"","latitude":"40.70491","longitude":"14.54494","feature_class":"P","feature_code":"PPLA3","country_code":"IT","cc2":"","admin1_code":"04","admin2_code":"NA","admin3_code":"063039","admin4_code":"","population":"5605","elevation":"","dem":"353","timezone":"Europe/Rome","modification_date":"2012-02-15"},{"geonameid":"6534759","name":"Sovramonte","asciiname":"Sovramonte","alternatenames":"","latitude":"46.05861","longitude":"11.7866","feature_class":"P","feature_code":"PPLA3","country_code":"IT","cc2":"","admin1_code":"20","admin2_code":"BL","admin3_code":"025058","admin4_code":"","population":"1697","elevation":"","dem":"618","timezone":"Europe/Rome","modification_date":"2012-02-15"},{"geonameid":"6534760","name":"Paderno del Grappa","asciiname":"Paderno del Grappa","alternatenames":"","latitude":"45.8286","longitude":"11.8577","feature_class":"P","feature_code":"PPLA3","country_code":"IT","cc2":"","admin1_code":"20","admin2_code":"TV","admin3_code":"026054","admin4_code":"","population":"2002","elevation":"","dem":"290","timezone":"Europe/Rome","modification_date":"2012-02-15"},{"geonameid":"6534761","name":"Saint-Christophe","asciiname":"Saint-Christophe","alternatenames":"","latitude":"45.75406","longitude":"7.3472","feature_class":"P","feature_code":"PPLA3","country_code":"IT","cc2":"","admin1_code":"19","admin2_code":"AO","admin3_code":"007058","admin4_code":"","population":"2982","elevation":"","dem":"774","timezone":"Europe/Rome","modification_date":"2012-02-15"},{"geonameid":"6534762","name":"Saint Marcel","asciiname":"Saint Marcel","alternatenames":"","latitude":"45.73146","longitude":"7.4482","feature_class":"P","feature_code":"PPLA3","country_code":"IT","cc2":"","admin1_code":"19","admin2_code":"AO","admin3_code":"007060","admin4_code":"","population":"930","elevation":"","dem":"601","timezone":"Europe/Rome","modification_date":"2014-05-01"},{"geonameid":"6534763","name":"Saint-Nicolas","asciiname":"Saint-Nicolas","alternatenames":"Fanum Sancti Nicolai Augustensium,Sen Nikola,Sen-Nikola,sa yi en te-ni ke la si,san=nikora,Сен Никола,Сен-Никола,Сен-Нікола,Սեն Նիկոլա,سینٹ-نکولس، اوستا ویلی,サン＝ニコラ,萨伊恩特-尼科拉斯","latitude":"45.71656","longitude":"7.1667","feature_class":"P","feature_code":"PPLA3","country_code":"IT","cc2":"","admin1_code":"19","admin2_code":"AO","admin3_code":"007061","admin4_code":"","population":"313","elevation":"","dem":"1208","timezone":"Europe/Rome","modification_date":"2012-02-15"},{"geonameid":"6534764","name":"Ville Sur Sarre","asciiname":"Ville Sur Sarre","alternatenames":"","latitude":"45.73339","longitude":"7.25857","feature_class":"P","feature_code":"PPLA3","country_code":"IT","cc2":"","admin1_code":"19","admin2_code":"AO","admin3_code":"007066","admin4_code":"","population":"28","elevation":"","dem":"1207","timezone":"Europe/Rome","modification_date":"2014-05-18"},{"geonameid":"6534765","name":"Valsavarenche","asciiname":"Valsavarenche","alternatenames":"","latitude":"45.59186","longitude":"7.21","feature_class":"P","feature_code":"PPLA3","country_code":"IT","cc2":"","admin1_code":"19","admin2_code":"AO","admin3_code":"007070","admin4_code":"","population":"180","elevation":"","dem":"1552","timezone":"Europe/Rome","modification_date":"2012-02-15"},{"geonameid":"6534766","name":"Valtournenche","asciiname":"Valtournenche","alternatenames":"","latitude":"45.87607","longitude":"7.6243","feature_class":"P","feature_code":"PPLA3","country_code":"IT","cc2":"","admin1_code":"19","admin2_code":"AO","admin3_code":"007071","admin4_code":"","population":"2198","elevation":"","dem":"1518","timezone":"Europe/Rome","modification_date":"2012-02-15"},{"geonameid":"6534767","name":"Bajardo","asciiname":"Bajardo","alternatenames":"","latitude":"43.90402","longitude":"7.72534","feature_class":"P","feature_code":"PPLA3","country_code":"IT","cc2":"","admin1_code":"08","admin2_code":"IM","admin3_code":"008007","admin4_code":"","population":"250","elevation":"900","dem":"891","timezone":"Europe/Rome","modification_date":"2014-01-11"},{"geonameid":"6534768","name":"Ceranesi","asciiname":"Ceranesi","alternatenames":"","latitude":"44.50563","longitude":"8.89343","feature_class":"P","feature_code":"PPLA3","country_code":"IT","cc2":"","admin1_code":"08","admin2_code":"GE","admin3_code":"010014","admin4_code":"","population":"3762","elevation":"","dem":"120","timezone":"Europe/Rome","modification_date":"2012-02-15"},{"geonameid":"6534769","name":"Roè Volciano","asciiname":"Roe Volciano","alternatenames":"","latitude":"45.61199","longitude":"10.48857","feature_class":"P","feature_code":"PPLA3","country_code":"IT","cc2":"","admin1_code":"09","admin2_code":"BS","admin3_code":"017164","admin4_code":"","population":"4177","elevation":"","dem":"181","timezone":"Europe/Rome","modification_date":"2012-02-15"},{"geonameid":"6534770","name":"Soiano","asciiname":"Soiano","alternatenames":"","latitude":"45.52778","longitude":"10.51267","feature_class":"P","feature_code":"PPLA3","country_code":"IT","cc2":"","admin1_code":"09","admin2_code":"BS","admin3_code":"017180","admin4_code":"","population":"1605","elevation":"","dem":"197","timezone":"Europe/Rome","modification_date":"2014-05-01"},{"geonameid":"6534771","name":"Aldino","asciiname":"Aldino","alternatenames":"","latitude":"46.36581","longitude":"11.35508","feature_class":"P","feature_code":"PPLA3","country_code":"IT","cc2":"","admin1_code":"17","admin2_code":"BZ","admin3_code":"021001","admin4_code":"","population":"1656","elevation":"","dem":"1191","timezone":"Europe/Rome","modification_date":"2015-08-25"},{"geonameid":"6534772","name":"Andriano","asciiname":"Andriano","alternatenames":"","latitude":"46.51762","longitude":"11.23137","feature_class":"P","feature_code":"PPLA3","country_code":"IT","cc2":"","admin1_code":"17","admin2_code":"BZ","admin3_code":"021002","admin4_code":"","population":"916","elevation":"","dem":"291","timezone":"Europe/Rome","modification_date":"2014-05-01"},{"geonameid":"6534773","name":"Venticano","asciiname":"Venticano","alternatenames":"","latitude":"41.04722","longitude":"14.91194","feature_class":"P","feature_code":"PPLA3","country_code":"IT","cc2":"","admin1_code":"04","admin2_code":"AV","admin3_code":"064116","admin4_code":"","population":"2547","elevation":"","dem":"371","timezone":"Europe/Rome","modification_date":"2012-02-15"},{"geonameid":"6534774","name":"Barbiano - Barbian","asciiname":"Barbiano - Barbian","alternatenames":"","latitude":"46.60332","longitude":"11.52138","feature_class":"P","feature_code":"PPLA3","country_code":"IT","cc2":"","admin1_code":"17","admin2_code":"BZ","admin3_code":"021007","admin4_code":"","population":"1520","elevation":"","dem":"784","timezone":"Europe/Rome","modification_date":"2012-02-15"},{"geonameid":"6534775","name":"Braies","asciiname":"Braies","alternatenames":"Braies,Prags","latitude":"46.72023","longitude":"12.13339","feature_class":"P","feature_code":"PPLA3","country_code":"IT","cc2":"","admin1_code":"17","admin2_code":"BZ","admin3_code":"021009","admin4_code":"","population":"633","elevation":"","dem":"1214","timezone":"Europe/Rome","modification_date":"2013-07-23"},{"geonameid":"6534776","name":"Brennero - Brenner","asciiname":"Brennero - Brenner","alternatenames":"","latitude":"46.93813","longitude":"11.44247","feature_class":"P","feature_code":"PPLA3","country_code":"IT","cc2":"","admin1_code":"17","admin2_code":"BZ","admin3_code":"021010","admin4_code":"","population":"2066","elevation":"","dem":"1075","timezone":"Europe/Rome","modification_date":"2012-02-15"},{"geonameid":"6534777","name":"Caines - Kuens","asciiname":"Caines - Kuens","alternatenames":"","latitude":"46.70002","longitude":"11.16987","feature_class":"P","feature_code":"PPLA3","country_code":"IT","cc2":"","admin1_code":"17","admin2_code":"BZ","admin3_code":"021014","admin4_code":"","population":"318","elevation":"","dem":"635","timezone":"Europe/Rome","modification_date":"2012-02-15"},{"geonameid":"6534778","name":"Cornedo All'Isarco","asciiname":"Cornedo All'Isarco","alternatenames":"Karneid","latitude":"46.4899","longitude":"11.40647","feature_class":"P","feature_code":"PPLA3","country_code":"IT","cc2":"","admin1_code":"17","admin2_code":"BZ","admin3_code":"021023","admin4_code":"","population":"23","elevation":"","dem":"500","timezone":"Europe/Rome","modification_date":"2014-05-10"},{"geonameid":"6534779","name":"Cortina sulla Strada del Vino","asciiname":"Cortina sulla Strada del Vino","alternatenames":"Cortina sulla Strada del Vino,Kurtinig an der Weinstrasse","latitude":"46.26941","longitude":"11.22188","feature_class":"P","feature_code":"PPLA3","country_code":"IT","cc2":"","admin1_code":"17","admin2_code":"BZ","admin3_code":"021025","admin4_code":"","population":"640","elevation":"","dem":"212","timezone":"Europe/Rome","modification_date":"2014-05-17"},{"geonameid":"6534780","name":"Funes - Villnoess","asciiname":"Funes - Villnoess","alternatenames":"","latitude":"46.64282","longitude":"11.67828","feature_class":"P","feature_code":"PPLA3","country_code":"IT","cc2":"","admin1_code":"17","admin2_code":"BZ","admin3_code":"021033","admin4_code":"","population":"2379","elevation":"","dem":"1136","timezone":"Europe/Rome","modification_date":"2012-02-15"},{"geonameid":"6534781","name":"Magrè sulla Strada del Vino","asciiname":"Magre sulla Strada del Vino","alternatenames":"Margreid an der Weinstrasse","latitude":"46.28791","longitude":"11.21068","feature_class":"P","feature_code":"PPLA3","country_code":"IT","cc2":"","admin1_code":"17","admin2_code":"BZ","admin3_code":"021045","admin4_code":"","population":"1026","elevation":"","dem":"234","timezone":"Europe/Rome","modification_date":"2014-05-01"},{"geonameid":"6534783","name":"Proves - Proveis","asciiname":"Proves - Proveis","alternatenames":"","latitude":"46.47661","longitude":"11.02247","feature_class":"P","feature_code":"PPLA3","country_code":"IT","cc2":"","admin1_code":"17","admin2_code":"BZ","admin3_code":"021069","admin4_code":"","population":"288","elevation":"","dem":"1412","timezone":"Europe/Rome","modification_date":"2012-02-15"},{"geonameid":"6534784","name":"Racines - Ratschings","asciiname":"Racines - Ratschings","alternatenames":"","latitude":"46.88183","longitude":"11.37827","feature_class":"P","feature_code":"PPLA3","country_code":"IT","cc2":"","admin1_code":"17","admin2_code":"BZ","admin3_code":"021070","admin4_code":"","population":"4010","elevation":"","dem":"975","timezone":"Europe/Rome","modification_date":"2012-02-15"},{"geonameid":"6534785","name":"Rasun Anterselva - Rasen-Antholz","asciiname":"Rasun Anterselva - Rasen-Antholz","alternatenames":"Antholz,Rasun Anterselva","latitude":"46.77853","longitude":"12.04729","feature_class":"P","feature_code":"PPLA3","country_code":"IT","cc2":"","admin1_code":"17","admin2_code":"BZ","admin3_code":"021071","admin4_code":"","population":"2700","elevation":"","dem":"1019","timezone":"Europe/Rome","modification_date":"2016-01-05"},{"geonameid":"6534786","name":"Renon - Ritten","asciiname":"Renon - Ritten","alternatenames":"","latitude":"46.54152","longitude":"11.45728","feature_class":"P","feature_code":"PPLA3","country_code":"IT","cc2":"","admin1_code":"17","admin2_code":"BZ","admin3_code":"021072","admin4_code":"","population":"6993","elevation":"","dem":"1208","timezone":"Europe/Rome","modification_date":"2012-02-15"},{"geonameid":"6534787","name":"Rodengo - Rodeneck","asciiname":"Rodengo - Rodeneck","alternatenames":"","latitude":"46.77953","longitude":"11.69048","feature_class":"P","feature_code":"PPLA3","country_code":"IT","cc2":"","admin1_code":"17","admin2_code":"BZ","admin3_code":"021075","admin4_code":"","population":"1157","elevation":"","dem":"899","timezone":"Europe/Rome","modification_date":"2012-02-15"},{"geonameid":"6534788","name":"San Martino in Badia","asciiname":"San Martino in Badia","alternatenames":"San Martino in Badia,St. Martin in Thurn","latitude":"46.68153","longitude":"11.89809","feature_class":"P","feature_code":"PPLA3","country_code":"IT","cc2":"","admin1_code":"17","admin2_code":"BZ","admin3_code":"021082","admin4_code":"","population":"360","elevation":"1135","dem":"1136","timezone":"Europe/Rome","modification_date":"2014-01-16"},{"geonameid":"6534789","name":"Senales","asciiname":"Senales","alternatenames":"Schnals","latitude":"46.70602","longitude":"10.90846","feature_class":"P","feature_code":"PPLA3","country_code":"IT","cc2":"","admin1_code":"17","admin2_code":"BZ","admin3_code":"021091","admin4_code":"","population":"1394","elevation":"","dem":"1343","timezone":"Europe/Rome","modification_date":"2012-02-21"},{"geonameid":"6534790","name":"Tirolo","asciiname":"Tirolo","alternatenames":"","latitude":"46.69102","longitude":"11.15427","feature_class":"P","feature_code":"PPLA3","country_code":"IT","cc2":"","admin1_code":"17","admin2_code":"BZ","admin3_code":"021101","admin4_code":"","population":"1149","elevation":"","dem":"600","timezone":"Europe/Rome","modification_date":"2014-05-17"},{"geonameid":"6534791","name":"Ultimo - Ulten","asciiname":"Ultimo - Ulten","alternatenames":"","latitude":"46.54832","longitude":"11.00417","feature_class":"P","feature_code":"PPLA3","country_code":"IT","cc2":"","admin1_code":"17","admin2_code":"BZ","admin3_code":"021104","admin4_code":"","population":"3006","elevation":"","dem":"1118","timezone":"Europe/Rome","modification_date":"2012-02-16"},{"geonameid":"6534792","name":"Prati","asciiname":"Prati","alternatenames":"Pfitsch","latitude":"46.90003","longitude":"11.46507","feature_class":"P","feature_code":"PPLA3","country_code":"IT","cc2":"","admin1_code":"17","admin2_code":"BZ","admin3_code":"021107","admin4_code":"","population":"965","elevation":"948","dem":"959","timezone":"Europe/Rome","modification_date":"2014-01-11"},{"geonameid":"6534793","name":"Valle Aurina - Ahrntal","asciiname":"Valle Aurina - Ahrntal","alternatenames":"","latitude":"46.99623","longitude":"11.97988","feature_class":"P","feature_code":"PPLA3","country_code":"IT","cc2":"","admin1_code":"17","admin2_code":"BZ","admin3_code":"021108","admin4_code":"","population":"5517","elevation":"","dem":"1062","timezone":"Europe/Rome","modification_date":"2012-02-15"},{"geonameid":"6534794","name":"Valle di Casies - Gsies","asciiname":"Valle di Casies - Gsies","alternatenames":"Gsieser Tal","latitude":"46.76833","longitude":"12.17939","feature_class":"P","feature_code":"PPLA3","country_code":"IT","cc2":"","admin1_code":"17","admin2_code":"BZ","admin3_code":"021109","admin4_code":"","population":"2098","elevation":"","dem":"1206","timezone":"Europe/Rome","modification_date":"2016-03-07"},{"geonameid":"6534795","name":"Vandoies - Vintl","asciiname":"Vandoies - Vintl","alternatenames":"","latitude":"46.81513","longitude":"11.72068","feature_class":"P","feature_code":"PPLA3","country_code":"IT","cc2":"","admin1_code":"17","admin2_code":"BZ","admin3_code":"021110","admin4_code":"","population":"3108","elevation":"","dem":"758","timezone":"Europe/Rome","modification_date":"2012-02-18"},{"geonameid":"6534796","name":"Verano - Voeran","asciiname":"Verano - Voeran","alternatenames":"","latitude":"46.60472","longitude":"11.22607","feature_class":"P","feature_code":"PPLA3","country_code":"IT","cc2":"","admin1_code":"17","admin2_code":"BZ","admin3_code":"021112","admin4_code":"","population":"880","elevation":"","dem":"1202","timezone":"Europe/Rome","modification_date":"2012-02-15"},{"geonameid":"6534797","name":"Villandro - Villanders","asciiname":"Villandro - Villanders","alternatenames":"","latitude":"46.63082","longitude":"11.53708","feature_class":"P","feature_code":"PPLA3","country_code":"IT","cc2":"","admin1_code":"17","admin2_code":"BZ","admin3_code":"021114","admin4_code":"","population":"1830","elevation":"","dem":"903","timezone":"Europe/Rome","modification_date":"2012-02-15"},{"geonameid":"6534798","name":"Vallada Agordina","asciiname":"Vallada Agordina","alternatenames":"","latitude":"46.36442","longitude":"11.93399","feature_class":"P","feature_code":"PPLA3","country_code":"IT","cc2":"","admin1_code":"20","admin2_code":"BL","admin3_code":"025062","admin4_code":"","population":"556","elevation":"","dem":"965","timezone":"Europe/Rome","modification_date":"2012-02-15"},{"geonameid":"6534799","name":"Cavaso del Tomba","asciiname":"Cavaso del Tomba","alternatenames":"","latitude":"45.86071","longitude":"11.8984","feature_class":"P","feature_code":"PPLA3","country_code":"IT","cc2":"","admin1_code":"20","admin2_code":"TV","admin3_code":"026014","admin4_code":"","population":"2675","elevation":"","dem":"245","timezone":"Europe/Rome","modification_date":"2012-02-15"},{"geonameid":"6534800","name":"Capitignano","asciiname":"Capitignano","alternatenames":"","latitude":"40.71851","longitude":"14.90465","feature_class":"P","feature_code":"PPLA3","country_code":"IT","cc2":"","admin1_code":"04","admin2_code":"SA","admin3_code":"065055","admin4_code":"","population":"1502","elevation":"225","dem":"226","timezone":"Europe/Rome","modification_date":"2014-01-16"},{"geonameid":"6534801","name":"Montecorvino Pugliano","asciiname":"Montecorvino Pugliano","alternatenames":"","latitude":"40.67921","longitude":"14.94475","feature_class":"P","feature_code":"PPLA3","country_code":"IT","cc2":"","admin1_code":"04","admin2_code":"SA","admin3_code":"065072","admin4_code":"","population":"7811","elevation":"","dem":"363","timezone":"Europe/Rome","modification_date":"2012-02-15"},{"geonameid":"6534802","name":"Balsorano","asciiname":"Balsorano","alternatenames":"","latitude":"41.80982","longitude":"13.5598","feature_class":"P","feature_code":"PPLA3","country_code":"IT","cc2":"","admin1_code":"01","admin2_code":"AQ","admin3_code":"066007","admin4_code":"","population":"3705","elevation":"","dem":"356","timezone":"Europe/Rome","modification_date":"2012-02-15"},{"geonameid":"6534803","name":"Lucoli","asciiname":"Lucoli","alternatenames":"","latitude":"42.29093","longitude":"13.33799","feature_class":"P","feature_code":"PPLA3","country_code":"IT","cc2":"","admin1_code":"01","admin2_code":"AQ","admin3_code":"066052","admin4_code":"","population":"944","elevation":"","dem":"954","timezone":"Europe/Rome","modification_date":"2012-02-22"},{"geonameid":"6534805","name":"Villagrande","asciiname":"Villagrande","alternatenames":"","latitude":"42.29533","longitude":"13.29999","feature_class":"P","feature_code":"PPLA3","country_code":"IT","cc2":"","admin1_code":"01","admin2_code":"AQ","admin3_code":"066101","admin4_code":"","population":"734","elevation":"830","dem":"875","timezone":"Europe/Rome","modification_date":"2014-01-11"},{"geonameid":"6534806","name":"Imposte","asciiname":"Imposte","alternatenames":"","latitude":"42.68634","longitude":"13.52829","feature_class":"P","feature_code":"PPLA3","country_code":"IT","cc2":"","admin1_code":"01","admin2_code":"TE","admin3_code":"067036","admin4_code":"","population":"136","elevation":"1073","dem":"1073","timezone":"Europe/Rome","modification_date":"2014-01-19"},{"geonameid":"6534807","name":"Isole Tremiti","asciiname":"Isole Tremiti","alternatenames":"","latitude":"42.12085","longitude":"15.50424","feature_class":"P","feature_code":"PPLA3","country_code":"IT","cc2":"","admin1_code":"13","admin2_code":"FG","admin3_code":"071026","admin4_code":"","population":"367","elevation":"","dem":"40","timezone":"Europe/Rome","modification_date":"2012-02-15"},{"geonameid":"6534808","name":"Calvisi","asciiname":"Calvisi","alternatenames":"","latitude":"39.12739","longitude":"16.3059","feature_class":"P","feature_code":"PPLA3","country_code":"IT","cc2":"","admin1_code":"03","admin2_code":"CS","admin3_code":"078139","admin4_code":"","population":"513","elevation":"659","dem":"651","timezone":"Europe/Rome","modification_date":"2014-01-11"},{"geonameid":"6534809","name":"Conflenti","asciiname":"Conflenti","alternatenames":"","latitude":"39.07169","longitude":"16.2845","feature_class":"P","feature_code":"PPLA3","country_code":"IT","cc2":"","admin1_code":"03","admin2_code":"CZ","admin3_code":"079033","admin4_code":"","population":"696","elevation":"540","dem":"572","timezone":"Europe/Rome","modification_date":"2014-01-11"},{"geonameid":"6534810","name":"Africo Nuovo","asciiname":"Africo Nuovo","alternatenames":"","latitude":"38.05067","longitude":"16.1332","feature_class":"P","feature_code":"PPLA3","country_code":"IT","cc2":"","admin1_code":"03","admin2_code":"RC","admin3_code":"080001","admin4_code":"","population":"3210","elevation":"","dem":"18","timezone":"Europe/Rome","modification_date":"2014-05-01"},{"geonameid":"6534811","name":"Fiumara","asciiname":"Fiumara","alternatenames":"Caenesium,F'jumara,Fiumara,Fjumara,Sciumara i Muru,fei wu ma la,fiumara,fywmara,Фиумара,Фьюмара,Фюмара,Фјумара,Ֆիումարա,فيومارا,フィウマーラ,菲乌马拉","latitude":"38.21267","longitude":"15.69369","feature_class":"P","feature_code":"PPLA3","country_code":"IT","cc2":"","admin1_code":"03","admin2_code":"RC","admin3_code":"080034","admin4_code":"","population":"1201","elevation":"","dem":"178","timezone":"Europe/Rome","modification_date":"2012-02-15"},{"geonameid":"6534812","name":"Roghudi","asciiname":"Roghudi","alternatenames":"Roghudi,Roghudi Nuovo","latitude":"37.92499","longitude":"15.76537","feature_class":"P","feature_code":"PPLA3","country_code":"IT","cc2":"","admin1_code":"03","admin2_code":"RC","admin3_code":"080068","admin4_code":"","population":"1066","elevation":"55","dem":"43","timezone":"Europe/Rome","modification_date":"2014-01-11"},{"geonameid":"6534813","name":"Fondachelli-Fantina","asciiname":"Fondachelli-Fantina","alternatenames":"","latitude":"37.98476","longitude":"15.17519","feature_class":"P","feature_code":"PPLA3","country_code":"IT","cc2":"","admin1_code":"15","admin2_code":"ME","admin3_code":"083023","admin4_code":"","population":"1235","elevation":"","dem":"634","timezone":"Europe/Rome","modification_date":"2012-02-15"},{"geonameid":"6534814","name":"Terme","asciiname":"Terme","alternatenames":"","latitude":"38.13586","longitude":"15.15658","feature_class":"P","feature_code":"PPLA3","country_code":"IT","cc2":"","admin1_code":"15","admin2_code":"ME","admin3_code":"083106","admin4_code":"","population":"5002","elevation":"","dem":"12","timezone":"Europe/Rome","modification_date":"2014-05-04"},{"geonameid":"6534815","name":"Maniace","asciiname":"Maniace","alternatenames":"","latitude":"37.88306","longitude":"14.79808","feature_class":"P","feature_code":"PPLA3","country_code":"IT","cc2":"","admin1_code":"15","admin2_code":"CT","admin3_code":"087057","admin4_code":"","population":"3543","elevation":"","dem":"787","timezone":"Europe/Rome","modification_date":"2012-02-15"},{"geonameid":"6534816","name":"Valledoria","asciiname":"Valledoria","alternatenames":"","latitude":"40.92867","longitude":"8.82321","feature_class":"P","feature_code":"PPLA3","country_code":"IT","cc2":"","admin1_code":"14","admin2_code":"SS","admin3_code":"090079","admin4_code":"","population":"3713","elevation":"","dem":"15","timezone":"Europe/Rome","modification_date":"2012-02-15"},{"geonameid":"6534818","name":"Camandona","asciiname":"Camandona","alternatenames":"","latitude":"45.64417","longitude":"8.09972","feature_class":"P","feature_code":"PPLA3","country_code":"IT","cc2":"","admin1_code":"12","admin2_code":"BI","admin3_code":"096009","admin4_code":"","population":"401","elevation":"","dem":"802","timezone":"Europe/Rome","modification_date":"2012-02-15"},{"geonameid":"6534819","name":"Cerreto Castello","asciiname":"Cerreto Castello","alternatenames":"","latitude":"45.56446","longitude":"8.16082","feature_class":"P","feature_code":"PPLA3","country_code":"IT","cc2":"","admin1_code":"12","admin2_code":"BI","admin3_code":"096017","admin4_code":"","population":"568","elevation":"264","dem":"255","timezone":"Europe/Rome","modification_date":"2014-01-11"},{"geonameid":"6534820","name":"Curino","asciiname":"Curino","alternatenames":"","latitude":"45.62717","longitude":"8.23622","feature_class":"P","feature_code":"PPLA3","country_code":"IT","cc2":"","admin1_code":"12","admin2_code":"BI","admin3_code":"096023","admin4_code":"","population":"475","elevation":"","dem":"359","timezone":"Europe/Rome","modification_date":"2012-02-15"},{"geonameid":"6534821","name":"Mezzana Mortigliengo","asciiname":"Mezzana Mortigliengo","alternatenames":"","latitude":"45.62657","longitude":"8.18952","feature_class":"P","feature_code":"PPLA3","country_code":"IT","cc2":"","admin1_code":"12","admin2_code":"BI","admin3_code":"096033","admin4_code":"","population":"647","elevation":"","dem":"445","timezone":"Europe/Rome","modification_date":"2012-02-15"},{"geonameid":"6534822","name":"Selve Marcone","asciiname":"Selve Marcone","alternatenames":"","latitude":"45.61976","longitude":"8.08742","feature_class":"P","feature_code":"PPLA3","country_code":"IT","cc2":"","admin1_code":"12","admin2_code":"BI","admin3_code":"096061","admin4_code":"","population":"103","elevation":"","dem":"759","timezone":"Europe/Rome","modification_date":"2012-02-15"},{"geonameid":"6534823","name":"Soprana","asciiname":"Soprana","alternatenames":"","latitude":"45.63947","longitude":"8.19892","feature_class":"P","feature_code":"PPLA3","country_code":"IT","cc2":"","admin1_code":"12","admin2_code":"BI","admin3_code":"096062","admin4_code":"","population":"835","elevation":"","dem":"468","timezone":"Europe/Rome","modification_date":"2012-02-15"},{"geonameid":"6534824","name":"Vallanzengo","asciiname":"Vallanzengo","alternatenames":"","latitude":"45.60327","longitude":"8.15042","feature_class":"P","feature_code":"PPLA3","country_code":"IT","cc2":"","admin1_code":"12","admin2_code":"BI","admin3_code":"096072","admin4_code":"","population":"250","elevation":"","dem":"416","timezone":"Europe/Rome","modification_date":"2012-02-15"},{"geonameid":"6534825","name":"Veglio","asciiname":"Veglio","alternatenames":"","latitude":"45.64057","longitude":"8.11412","feature_class":"P","feature_code":"PPLA3","country_code":"IT","cc2":"","admin1_code":"12","admin2_code":"BI","admin3_code":"096075","admin4_code":"","population":"660","elevation":"","dem":"745","timezone":"Europe/Rome","modification_date":"2012-02-15"},{"geonameid":"6534826","name":"Castello di Brianza","asciiname":"Castello di Brianza","alternatenames":"Castell de Brianza,Castrum Brigantiae,Kastello-di-Brianca,Kastelo di Brjanca,ka si tai luo di bu li ya en zha,Кастелло-ди-Брианца,Кастелло-ді-Бріанца,Кастело ди Брјанца,Կաստելլո դի Բրիանցա,カステッロ・ディ・ブリアンツァ,卡斯泰洛迪布里亚恩扎","latitude":"45.75928","longitude":"9.34535","feature_class":"P","feature_code":"PPLA3","country_code":"IT","cc2":"","admin1_code":"09","admin2_code":"LC","admin3_code":"097019","admin4_code":"","population":"2200","elevation":"","dem":"307","timezone":"Europe/Rome","modification_date":"2012-02-15"},{"geonameid":"6534827","name":"Colle Brianza","asciiname":"Colle Brianza","alternatenames":"","latitude":"45.76238","longitude":"9.36435","feature_class":"P","feature_code":"PPLA3","country_code":"IT","cc2":"","admin1_code":"09","admin2_code":"LC","admin3_code":"097024","admin4_code":"","population":"1464","elevation":"","dem":"561","timezone":"Europe/Rome","modification_date":"2012-02-15"},{"geonameid":"6534828","name":"Garbagnate Monastero","asciiname":"Garbagnate Monastero","alternatenames":"","latitude":"45.77338","longitude":"9.30144","feature_class":"P","feature_code":"PPLA3","country_code":"IT","cc2":"","admin1_code":"09","admin2_code":"LC","admin3_code":"097037","admin4_code":"","population":"2186","elevation":"","dem":"301","timezone":"Europe/Rome","modification_date":"2012-02-15"},{"geonameid":"6534829","name":"Monticello Brianza","asciiname":"Monticello Brianza","alternatenames":"","latitude":"45.70948","longitude":"9.31564","feature_class":"P","feature_code":"PPLA3","country_code":"IT","cc2":"","admin1_code":"09","admin2_code":"LC","admin3_code":"097054","admin4_code":"","population":"4182","elevation":"","dem":"381","timezone":"Europe/Rome","modification_date":"2012-02-15"},{"geonameid":"6534830","name":"Castiraga Vidardo","asciiname":"Castiraga Vidardo","alternatenames":"","latitude":"45.25727","longitude":"9.40456","feature_class":"P","feature_code":"PPLA3","country_code":"IT","cc2":"","admin1_code":"09","admin2_code":"LO","admin3_code":"098015","admin4_code":"","population":"1633","elevation":"","dem":"73","timezone":"Europe/Rome","modification_date":"2012-02-15"},{"geonameid":"6534832","name":"Jonadi","asciiname":"Jonadi","alternatenames":"","latitude":"38.62988","longitude":"16.061","feature_class":"P","feature_code":"PPLA3","country_code":"IT","cc2":"","admin1_code":"03","admin2_code":"VV","admin3_code":"102017","admin4_code":"","population":"1753","elevation":"430","dem":"481","timezone":"Europe/Rome","modification_date":"2014-01-11"},{"geonameid":"6534833","name":"Antrona Schieranco","asciiname":"Antrona Schieranco","alternatenames":"","latitude":"46.06038","longitude":"8.11461","feature_class":"P","feature_code":"PPLA3","country_code":"IT","cc2":"","admin1_code":"12","admin2_code":"VB","admin3_code":"103001","admin4_code":"","population":"544","elevation":"","dem":"907","timezone":"Europe/Rome","modification_date":"2012-02-15"},{"geonameid":"6534834","name":"Brovello-Carpugnino","asciiname":"Brovello-Carpugnino","alternatenames":"Bravela-Karpun'ina,Brovel e Carpignin,Brovello-Karpun'ino,Brovelo Karpunino,Brovelo-Karpunino,Bruellum-Carpuninum,Bruvel-Campugnin,Bruvél-Campugnin,bu luo wei luo-ka er pu ni nuo,burovu~erro=karupunino,Бравела-Карпуньіна,Бровелло-Карпуньино,Бровелло-Карпуньїно,Бровело-Карпунино,Բրովելո Կարպունինո,ブロヴェッロ＝カルプニーノ,布罗韦洛-卡尔普尼诺","latitude":"45.84247","longitude":"8.53173","feature_class":"P","feature_code":"PPLA3","country_code":"IT","cc2":"","admin1_code":"12","admin2_code":"VB","admin3_code":"103013","admin4_code":"","population":"546","elevation":"","dem":"450","timezone":"Europe/Rome","modification_date":"2012-02-15"},{"geonameid":"6534835","name":"Calasca-Castiglione","asciiname":"Calasca-Castiglione","alternatenames":"","latitude":"46.02081","longitude":"8.21451","feature_class":"P","feature_code":"PPLA3","country_code":"IT","cc2":"","admin1_code":"12","admin2_code":"VB","admin3_code":"103014","admin4_code":"","population":"765","elevation":"","dem":"524","timezone":"Europe/Rome","modification_date":"2012-02-15"},{"geonameid":"6534836","name":"Cavaglio-Spoccia","asciiname":"Cavaglio-Spoccia","alternatenames":"","latitude":"46.07108","longitude":"8.63072","feature_class":"P","feature_code":"PPLA3","country_code":"IT","cc2":"","admin1_code":"12","admin2_code":"VB","admin3_code":"103020","admin4_code":"","population":"309","elevation":"","dem":"685","timezone":"Europe/Rome","modification_date":"2012-02-15"},{"geonameid":"6534837","name":"Madonna del Sasso","asciiname":"Madonna del Sasso","alternatenames":"","latitude":"45.79217","longitude":"8.36952","feature_class":"P","feature_code":"PPLA3","country_code":"IT","cc2":"","admin1_code":"12","admin2_code":"VB","admin3_code":"103040","admin4_code":"","population":"446","elevation":"","dem":"685","timezone":"Europe/Rome","modification_date":"2012-02-15"},{"geonameid":"6534838","name":"Montescheno","asciiname":"Montescheno","alternatenames":"","latitude":"46.06658","longitude":"8.23192","feature_class":"P","feature_code":"PPLA3","country_code":"IT","cc2":"","admin1_code":"12","admin2_code":"VB","admin3_code":"103047","admin4_code":"","population":"441","elevation":"","dem":"554","timezone":"Europe/Rome","modification_date":"2012-02-15"},{"geonameid":"6534839","name":"Oggebbio","asciiname":"Oggebbio","alternatenames":"","latitude":"45.99088","longitude":"8.64663","feature_class":"P","feature_code":"PPLA3","country_code":"IT","cc2":"","admin1_code":"12","admin2_code":"VB","admin3_code":"103049","admin4_code":"","population":"836","elevation":"","dem":"230","timezone":"Europe/Rome","modification_date":"2013-08-16"},{"geonameid":"6534840","name":"San Bernardino Verbano","asciiname":"San Bernardino Verbano","alternatenames":"","latitude":"45.95638","longitude":"8.51922","feature_class":"P","feature_code":"PPLA3","country_code":"IT","cc2":"","admin1_code":"12","admin2_code":"VB","admin3_code":"103061","admin4_code":"","population":"1152","elevation":"","dem":"303","timezone":"Europe/Rome","modification_date":"2012-02-15"},{"geonameid":"6534841","name":"Valstrona","asciiname":"Valstrona","alternatenames":"","latitude":"45.90767","longitude":"8.34322","feature_class":"P","feature_code":"PPLA3","country_code":"IT","cc2":"","admin1_code":"12","admin2_code":"VB","admin3_code":"103069","admin4_code":"","population":"1270","elevation":"","dem":"514","timezone":"Europe/Rome","modification_date":"2012-02-15"},{"geonameid":"6534842","name":"Montemale di Cuneo","asciiname":"Montemale di Cuneo","alternatenames":"","latitude":"44.43743","longitude":"7.37533","feature_class":"P","feature_code":"PPLA3","country_code":"IT","cc2":"","admin1_code":"12","admin2_code":"CN","admin3_code":"004138","admin4_code":"","population":"34","elevation":"931","dem":"924","timezone":"Europe/Rome","modification_date":"2014-01-19"},{"geonameid":"6534843","name":"Monterosso Grana","asciiname":"Monterosso Grana","alternatenames":"","latitude":"44.40823","longitude":"7.32293","feature_class":"P","feature_code":"PPLA3","country_code":"IT","cc2":"","admin1_code":"12","admin2_code":"CN","admin3_code":"004139","admin4_code":"","population":"259","elevation":"720","dem":"730","timezone":"Europe/Rome","modification_date":"2014-01-11"},{"geonameid":"6534844","name":"Murello","asciiname":"Murello","alternatenames":"","latitude":"44.75214","longitude":"7.60093","feature_class":"P","feature_code":"PPLA3","country_code":"IT","cc2":"","admin1_code":"12","admin2_code":"CN","admin3_code":"004146","admin4_code":"","population":"672","elevation":"260","dem":"261","timezone":"Europe/Rome","modification_date":"2014-01-11"},{"geonameid":"6534845","name":"Paroldo","asciiname":"Paroldo","alternatenames":"","latitude":"44.43204","longitude":"8.07244","feature_class":"P","feature_code":"PPLA3","country_code":"IT","cc2":"","admin1_code":"12","admin2_code":"CN","admin3_code":"004160","admin4_code":"","population":"70","elevation":"640","dem":"633","timezone":"Europe/Rome","modification_date":"2014-01-19"},{"geonameid":"6534846","name":"Perletto","asciiname":"Perletto","alternatenames":"","latitude":"44.59934","longitude":"8.21304","feature_class":"P","feature_code":"PPLA3","country_code":"IT","cc2":"","admin1_code":"12","admin2_code":"CN","admin3_code":"004161","admin4_code":"","population":"64","elevation":"446","dem":"453","timezone":"Europe/Rome","modification_date":"2014-01-19"},{"geonameid":"6534847","name":"Pianfei","asciiname":"Pianfei","alternatenames":"","latitude":"44.37203","longitude":"7.71143","feature_class":"P","feature_code":"PPLA3","country_code":"IT","cc2":"","admin1_code":"12","admin2_code":"CN","admin3_code":"004165","admin4_code":"","population":"1204","elevation":"509","dem":"499","timezone":"Europe/Rome","modification_date":"2014-01-11"},{"geonameid":"6534848","name":"Pocapaglia","asciiname":"Pocapaglia","alternatenames":"","latitude":"44.71524","longitude":"7.88293","feature_class":"P","feature_code":"PPLA3","country_code":"IT","cc2":"","admin1_code":"12","admin2_code":"CN","admin3_code":"004170","admin4_code":"","population":"699","elevation":"381","dem":"279","timezone":"Europe/Rome","modification_date":"2014-01-11"},{"geonameid":"6534849","name":"Polonghera","asciiname":"Polonghera","alternatenames":"","latitude":"44.80234","longitude":"7.59572","feature_class":"P","feature_code":"PPLA3","country_code":"IT","cc2":"","admin1_code":"12","admin2_code":"CN","admin3_code":"004171","admin4_code":"","population":"1128","elevation":"245","dem":"248","timezone":"Europe/Rome","modification_date":"2014-01-11"},{"geonameid":"6534850","name":"Torre Bormida","asciiname":"Torre Bormida","alternatenames":"","latitude":"44.56274","longitude":"8.15444","feature_class":"P","feature_code":"PPLA3","country_code":"IT","cc2":"","admin1_code":"12","admin2_code":"CN","admin3_code":"004226","admin4_code":"","population":"67","elevation":"391","dem":"377","timezone":"Europe/Rome","modification_date":"2014-01-19"},{"geonameid":"6534851","name":"Torre San Giorgio","asciiname":"Torre San Giorgio","alternatenames":"","latitude":"44.73574","longitude":"7.52813","feature_class":"P","feature_code":"PPLA3","country_code":"IT","cc2":"","admin1_code":"12","admin2_code":"CN","admin3_code":"004228","admin4_code":"","population":"577","elevation":"262","dem":"262","timezone":"Europe/Rome","modification_date":"2014-01-11"},{"geonameid":"6534852","name":"Verduno","asciiname":"Verduno","alternatenames":"","latitude":"44.66614","longitude":"7.93074","feature_class":"P","feature_code":"PPLA3","country_code":"IT","cc2":"","admin1_code":"12","admin2_code":"CN","admin3_code":"004238","admin4_code":"","population":"393","elevation":"381","dem":"355","timezone":"Europe/Rome","modification_date":"2014-01-11"},{"geonameid":"6534853","name":"Vezza d'Alba","asciiname":"Vezza d'Alba","alternatenames":"","latitude":"44.76274","longitude":"8.00793","feature_class":"P","feature_code":"PPLA3","country_code":"IT","cc2":"","admin1_code":"12","admin2_code":"CN","admin3_code":"004241","admin4_code":"","population":"1408","elevation":"353","dem":"204","timezone":"Europe/Rome","modification_date":"2014-01-11"},{"geonameid":"6534854","name":"Villar San Costanzo","asciiname":"Villar San Costanzo","alternatenames":"","latitude":"44.48473","longitude":"7.38223","feature_class":"P","feature_code":"PPLA3","country_code":"IT","cc2":"","admin1_code":"12","admin2_code":"CN","admin3_code":"004247","admin4_code":"","population":"490","elevation":"609","dem":"620","timezone":"Europe/Rome","modification_date":"2014-01-11"},{"geonameid":"6534855","name":"Albugnano","asciiname":"Albugnano","alternatenames":"","latitude":"45.07755","longitude":"7.97113","feature_class":"P","feature_code":"PPLA3","country_code":"IT","cc2":"","admin1_code":"12","admin2_code":"AT","admin3_code":"005002","admin4_code":"","population":"224","elevation":"549","dem":"536","timezone":"Europe/Rome","modification_date":"2014-01-11"},{"geonameid":"6534856","name":"Antignano","asciiname":"Antignano","alternatenames":"","latitude":"44.84535","longitude":"8.13494","feature_class":"P","feature_code":"PPLA3","country_code":"IT","cc2":"","admin1_code":"12","admin2_code":"AT","admin3_code":"005003","admin4_code":"","population":"421","elevation":"260","dem":"257","timezone":"Europe/Rome","modification_date":"2014-01-11"},{"geonameid":"6534857","name":"San Martino Alfieri","asciiname":"San Martino Alfieri","alternatenames":"","latitude":"44.81795","longitude":"8.10994","feature_class":"P","feature_code":"PPLA3","country_code":"IT","cc2":"","admin1_code":"12","admin2_code":"AT","admin3_code":"005099","admin4_code":"","population":"306","elevation":"257","dem":"253","timezone":"Europe/Rome","modification_date":"2014-01-11"},{"geonameid":"6534858","name":"San Paolo Solbrito","asciiname":"San Paolo Solbrito","alternatenames":"","latitude":"44.95065","longitude":"7.97073","feature_class":"P","feature_code":"PPLA3","country_code":"IT","cc2":"","admin1_code":"12","admin2_code":"AT","admin3_code":"005101","admin4_code":"","population":"811","elevation":"265","dem":"263","timezone":"Europe/Rome","modification_date":"2014-01-11"},{"geonameid":"6534859","name":"Soglio","asciiname":"Soglio","alternatenames":"","latitude":"44.99625","longitude":"8.07843","feature_class":"P","feature_code":"PPLA3","country_code":"IT","cc2":"","admin1_code":"12","admin2_code":"AT","admin3_code":"005107","admin4_code":"","population":"107","elevation":"223","dem":"279","timezone":"Europe/Rome","modification_date":"2014-01-19"},{"geonameid":"6534860","name":"Tigliole","asciiname":"Tigliole","alternatenames":"","latitude":"44.88625","longitude":"8.07663","feature_class":"P","feature_code":"PPLA3","country_code":"IT","cc2":"","admin1_code":"12","admin2_code":"AT","admin3_code":"005108","admin4_code":"","population":"154","elevation":"239","dem":"199","timezone":"Europe/Rome","modification_date":"2014-01-19"},{"geonameid":"6534861","name":"Vaglio Serra","asciiname":"Vaglio Serra","alternatenames":"","latitude":"44.79635","longitude":"8.33894","feature_class":"P","feature_code":"PPLA3","country_code":"IT","cc2":"","admin1_code":"12","admin2_code":"AT","admin3_code":"005111","admin4_code":"","population":"151","elevation":"278","dem":"271","timezone":"Europe/Rome","modification_date":"2014-01-19"},{"geonameid":"6534862","name":"Viarigi","asciiname":"Viarigi","alternatenames":"","latitude":"44.98055","longitude":"8.35714","feature_class":"P","feature_code":"PPLA3","country_code":"IT","cc2":"","admin1_code":"12","admin2_code":"AT","admin3_code":"005115","admin4_code":"","population":"476","elevation":"252","dem":"210","timezone":"Europe/Rome","modification_date":"2014-01-11"},{"geonameid":"6534863","name":"Vinchio","asciiname":"Vinchio","alternatenames":"","latitude":"44.81095","longitude":"8.32094","feature_class":"P","feature_code":"PPLA3","country_code":"IT","cc2":"","admin1_code":"12","admin2_code":"AT","admin3_code":"005120","admin4_code":"","population":"377","elevation":"269","dem":"235","timezone":"Europe/Rome","modification_date":"2014-01-11"},{"geonameid":"6534864","name":"Alice Bel Colle","asciiname":"Alice Bel Colle","alternatenames":"","latitude":"44.72605","longitude":"8.45074","feature_class":"P","feature_code":"PPLA3","country_code":"IT","cc2":"","admin1_code":"12","admin2_code":"AL","admin3_code":"006005","admin4_code":"","population":"263","elevation":"418","dem":"403","timezone":"Europe/Rome","modification_date":"2014-01-11"},{"geonameid":"6534865","name":"Altavilla Monferrato","asciiname":"Altavilla Monferrato","alternatenames":"","latitude":"44.99355","longitude":"8.37594","feature_class":"P","feature_code":"PPLA3","country_code":"IT","cc2":"","admin1_code":"12","admin2_code":"AL","admin3_code":"006007","admin4_code":"","population":"275","elevation":"256","dem":"241","timezone":"Europe/Rome","modification_date":"2014-01-11"},{"geonameid":"6534866","name":"Avolasca","asciiname":"Avolasca","alternatenames":"","latitude":"44.80315","longitude":"8.96545","feature_class":"P","feature_code":"PPLA3","country_code":"IT","cc2":"","admin1_code":"12","admin2_code":"AL","admin3_code":"006010","admin4_code":"","population":"66","elevation":"425","dem":"404","timezone":"Europe/Rome","modification_date":"2014-01-19"},{"geonameid":"6534867","name":"Belforte Monferrato","asciiname":"Belforte Monferrato","alternatenames":"","latitude":"44.62505","longitude":"8.66125","feature_class":"P","feature_code":"PPLA3","country_code":"IT","cc2":"","admin1_code":"12","admin2_code":"AL","admin3_code":"006014","admin4_code":"","population":"433","elevation":"297","dem":"257","timezone":"Europe/Rome","modification_date":"2014-01-11"},{"geonameid":"6534868","name":"Bergamasco","asciiname":"Bergamasco","alternatenames":"","latitude":"44.82725","longitude":"8.45474","feature_class":"P","feature_code":"PPLA3","country_code":"IT","cc2":"","admin1_code":"12","admin2_code":"AL","admin3_code":"006015","admin4_code":"","population":"603","elevation":"125","dem":"126","timezone":"Europe/Rome","modification_date":"2014-01-11"},{"geonameid":"6534869","name":"Berzano di Tortona","asciiname":"Berzano di Tortona","alternatenames":"","latitude":"44.87666","longitude":"8.95108","feature_class":"P","feature_code":"PPLA3","country_code":"IT","cc2":"","admin1_code":"12","admin2_code":"AL","admin3_code":"006016","admin4_code":"","population":"27","elevation":"270","dem":"285","timezone":"Europe/Rome","modification_date":"2014-01-19"},{"geonameid":"6534870","name":"Borghetto di Borbera","asciiname":"Borghetto di Borbera","alternatenames":"","latitude":"44.72945","longitude":"8.94346","feature_class":"P","feature_code":"PPLA3","country_code":"IT","cc2":"","admin1_code":"12","admin2_code":"AL","admin3_code":"006018","admin4_code":"","population":"866","elevation":"295","dem":"289","timezone":"Europe/Rome","modification_date":"2014-01-11"},{"geonameid":"6534871","name":"Bosio","asciiname":"Bosio","alternatenames":"","latitude":"44.64975","longitude":"8.79285","feature_class":"P","feature_code":"PPLA3","country_code":"IT","cc2":"","admin1_code":"12","admin2_code":"AL","admin3_code":"006022","admin4_code":"","population":"925","elevation":"358","dem":"345","timezone":"Europe/Rome","modification_date":"2014-01-11"},{"geonameid":"6534872","name":"Carpeneto","asciiname":"Carpeneto","alternatenames":"","latitude":"44.67835","longitude":"8.60555","feature_class":"P","feature_code":"PPLA3","country_code":"IT","cc2":"","admin1_code":"12","admin2_code":"AL","admin3_code":"006033","admin4_code":"","population":"428","elevation":"329","dem":"330","timezone":"Europe/Rome","modification_date":"2014-01-11"},{"geonameid":"6534873","name":"Casal Cermelli","asciiname":"Casal Cermelli","alternatenames":"","latitude":"44.83495","longitude":"8.62495","feature_class":"P","feature_code":"PPLA3","country_code":"IT","cc2":"","admin1_code":"12","admin2_code":"AL","admin3_code":"006037","admin4_code":"","population":"715","elevation":"102","dem":"106","timezone":"Europe/Rome","modification_date":"2014-01-11"},{"geonameid":"6534874","name":"Casaleggio Boiro","asciiname":"Casaleggio Boiro","alternatenames":"","latitude":"44.63355","longitude":"8.73045","feature_class":"P","feature_code":"PPLA3","country_code":"IT","cc2":"","admin1_code":"12","admin2_code":"AL","admin3_code":"006038","admin4_code":"","population":"143","elevation":"321","dem":"319","timezone":"Europe/Rome","modification_date":"2014-01-19"},{"geonameid":"6534875","name":"Costa Vescovato","asciiname":"Costa Vescovato","alternatenames":"","latitude":"44.81615","longitude":"8.92695","feature_class":"P","feature_code":"PPLA3","country_code":"IT","cc2":"","admin1_code":"12","admin2_code":"AL","admin3_code":"006062","admin4_code":"","population":"90","elevation":"305","dem":"288","timezone":"Europe/Rome","modification_date":"2014-01-19"},{"geonameid":"6534876","name":"Cuccaro Monferrato","asciiname":"Cuccaro Monferrato","alternatenames":"","latitude":"44.99365","longitude":"8.45754","feature_class":"P","feature_code":"PPLA3","country_code":"IT","cc2":"","admin1_code":"12","admin2_code":"AL","admin3_code":"006064","admin4_code":"","population":"324","elevation":"232","dem":"223","timezone":"Europe/Rome","modification_date":"2014-01-11"},{"geonameid":"6534877","name":"Fraconalto","asciiname":"Fraconalto","alternatenames":"","latitude":"44.59105","longitude":"8.87846","feature_class":"P","feature_code":"PPLA3","country_code":"IT","cc2":"","admin1_code":"12","admin2_code":"AL","admin3_code":"006069","admin4_code":"","population":"10","elevation":"725","dem":"724","timezone":"Europe/Rome","modification_date":"2014-01-19"},{"geonameid":"6534878","name":"Francavilla Bisio","asciiname":"Francavilla Bisio","alternatenames":"","latitude":"44.73465","longitude":"8.73125","feature_class":"P","feature_code":"PPLA3","country_code":"IT","cc2":"","admin1_code":"12","admin2_code":"AL","admin3_code":"006070","admin4_code":"","population":"466","elevation":"160","dem":"163","timezone":"Europe/Rome","modification_date":"2014-01-11"},{"geonameid":"6534879","name":"Fresonara","asciiname":"Fresonara","alternatenames":"","latitude":"44.78295","longitude":"8.68615","feature_class":"P","feature_code":"PPLA3","country_code":"IT","cc2":"","admin1_code":"12","admin2_code":"AL","admin3_code":"006074","admin4_code":"","population":"325","elevation":"143","dem":"143","timezone":"Europe/Rome","modification_date":"2014-01-11"},{"geonameid":"6534880","name":"Gavazzana","asciiname":"Gavazzana","alternatenames":"","latitude":"44.77585","longitude":"8.88595","feature_class":"P","feature_code":"PPLA3","country_code":"IT","cc2":"","admin1_code":"12","admin2_code":"AL","admin3_code":"006080","admin4_code":"","population":"86","elevation":"334","dem":"318","timezone":"Europe/Rome","modification_date":"2014-01-19"},{"geonameid":"6534881","name":"Grondona","asciiname":"Grondona","alternatenames":"","latitude":"44.69645","longitude":"8.96546","feature_class":"P","feature_code":"PPLA3","country_code":"IT","cc2":"","admin1_code":"12","admin2_code":"AL","admin3_code":"006085","admin4_code":"","population":"189","elevation":"303","dem":"307","timezone":"Europe/Rome","modification_date":"2014-01-19"},{"geonameid":"6534882","name":"Masio","asciiname":"Masio","alternatenames":"","latitude":"44.86965","longitude":"8.40774","feature_class":"P","feature_code":"PPLA3","country_code":"IT","cc2":"","admin1_code":"12","admin2_code":"AL","admin3_code":"006091","admin4_code":"","population":"612","elevation":"142","dem":"134","timezone":"Europe/Rome","modification_date":"2014-01-11"},{"geonameid":"6534883","name":"Molino dei Torti","asciiname":"Molino dei Torti","alternatenames":"","latitude":"45.02426","longitude":"8.89365","feature_class":"P","feature_code":"PPLA3","country_code":"IT","cc2":"","admin1_code":"12","admin2_code":"AL","admin3_code":"006096","admin4_code":"","population":"606","elevation":"76","dem":"77","timezone":"Europe/Rome","modification_date":"2014-01-11"},{"geonameid":"6534884","name":"Mombello Monferrato","asciiname":"Mombello Monferrato","alternatenames":"","latitude":"45.13285","longitude":"8.25033","feature_class":"P","feature_code":"PPLA3","country_code":"IT","cc2":"","admin1_code":"12","admin2_code":"AL","admin3_code":"006097","admin4_code":"","population":"181","elevation":"273","dem":"262","timezone":"Europe/Rome","modification_date":"2014-01-19"},{"geonameid":"6534885","name":"Momperone","asciiname":"Momperone","alternatenames":"","latitude":"44.83845","longitude":"9.03425","feature_class":"P","feature_code":"PPLA3","country_code":"IT","cc2":"","admin1_code":"12","admin2_code":"AL","admin3_code":"006098","admin4_code":"","population":"41","elevation":"279","dem":"270","timezone":"Europe/Rome","modification_date":"2014-01-19"},{"geonameid":"6534886","name":"Moncestino","asciiname":"Moncestino","alternatenames":"","latitude":"45.15465","longitude":"8.16143","feature_class":"P","feature_code":"PPLA3","country_code":"IT","cc2":"","admin1_code":"12","admin2_code":"AL","admin3_code":"006099","admin4_code":"","population":"63","elevation":"287","dem":"286","timezone":"Europe/Rome","modification_date":"2014-01-19"},{"geonameid":"6534887","name":"Montacuto","asciiname":"Montacuto","alternatenames":"","latitude":"44.76645","longitude":"9.10496","feature_class":"P","feature_code":"PPLA3","country_code":"IT","cc2":"","admin1_code":"12","admin2_code":"AL","admin3_code":"006102","admin4_code":"","population":"15","elevation":"525","dem":"542","timezone":"Europe/Rome","modification_date":"2014-01-19"},{"geonameid":"6534888","name":"Montaldeo","asciiname":"Montaldeo","alternatenames":"","latitude":"44.66715","longitude":"8.73015","feature_class":"P","feature_code":"PPLA3","country_code":"IT","cc2":"","admin1_code":"12","admin2_code":"AL","admin3_code":"006103","admin4_code":"","population":"223","elevation":"332","dem":"311","timezone":"Europe/Rome","modification_date":"2014-01-11"},{"geonameid":"6534889","name":"Montechiaro d'Acqui","asciiname":"Montechiaro d'Acqui","alternatenames":"","latitude":"44.59444","longitude":"8.37865","feature_class":"P","feature_code":"PPLA3","country_code":"IT","cc2":"","admin1_code":"12","admin2_code":"AL","admin3_code":"006106","admin4_code":"","population":"36","elevation":"560","dem":"529","timezone":"Europe/Rome","modification_date":"2014-01-19"},{"geonameid":"6534890","name":"Montemarzino","asciiname":"Montemarzino","alternatenames":"","latitude":"44.84835","longitude":"8.99365","feature_class":"P","feature_code":"PPLA3","country_code":"IT","cc2":"","admin1_code":"12","admin2_code":"AL","admin3_code":"006108","admin4_code":"","population":"69","elevation":"448","dem":"449","timezone":"Europe/Rome","modification_date":"2014-01-19"},{"geonameid":"6534891","name":"Morsasco","asciiname":"Morsasco","alternatenames":"","latitude":"44.66535","longitude":"8.55085","feature_class":"P","feature_code":"PPLA3","country_code":"IT","cc2":"","admin1_code":"12","admin2_code":"AL","admin3_code":"006112","admin4_code":"","population":"435","elevation":"328","dem":"311","timezone":"Europe/Rome","modification_date":"2014-01-11"},{"geonameid":"6534892","name":"Odalengo Grande","asciiname":"Odalengo Grande","alternatenames":"","latitude":"45.10922","longitude":"8.16748","feature_class":"P","feature_code":"PPLA3","country_code":"IT","cc2":"","admin1_code":"12","admin2_code":"AL","admin3_code":"006116","admin4_code":"","population":"45","elevation":"390","dem":"369","timezone":"Europe/Rome","modification_date":"2014-01-19"},{"geonameid":"6534893","name":"Olivola","asciiname":"Olivola","alternatenames":"","latitude":"45.03725","longitude":"8.36784","feature_class":"P","feature_code":"PPLA3","country_code":"IT","cc2":"","admin1_code":"12","admin2_code":"AL","admin3_code":"006118","admin4_code":"","population":"92","elevation":"280","dem":"270","timezone":"Europe/Rome","modification_date":"2014-01-19"},{"geonameid":"6534894","name":"Orsara Bormida","asciiname":"Orsara Bormida","alternatenames":"","latitude":"44.69015","longitude":"8.56275","feature_class":"P","feature_code":"PPLA3","country_code":"IT","cc2":"","admin1_code":"12","admin2_code":"AL","admin3_code":"006119","admin4_code":"","population":"228","elevation":"220","dem":"225","timezone":"Europe/Rome","modification_date":"2014-01-11"},{"geonameid":"6534895","name":"Pietra Marazzi","asciiname":"Pietra Marazzi","alternatenames":"","latitude":"44.94265","longitude":"8.66854","feature_class":"P","feature_code":"PPLA3","country_code":"IT","cc2":"","admin1_code":"12","admin2_code":"AL","admin3_code":"006129","admin4_code":"","population":"783","elevation":"95","dem":"91","timezone":"Europe/Rome","modification_date":"2014-01-11"},{"geonameid":"6534896","name":"Piovera","asciiname":"Piovera","alternatenames":"","latitude":"44.95845","longitude":"8.73595","feature_class":"P","feature_code":"PPLA3","country_code":"IT","cc2":"","admin1_code":"12","admin2_code":"AL","admin3_code":"006130","admin4_code":"","population":"767","elevation":"86","dem":"87","timezone":"Europe/Rome","modification_date":"2014-01-11"},{"geonameid":"6534897","name":"Ponzano Monferrato","asciiname":"Ponzano Monferrato","alternatenames":"","latitude":"45.08485","longitude":"8.26553","feature_class":"P","feature_code":"PPLA3","country_code":"IT","cc2":"","admin1_code":"12","admin2_code":"AL","admin3_code":"006135","admin4_code":"","population":"165","elevation":"385","dem":"355","timezone":"Europe/Rome","modification_date":"2014-01-19"},{"geonameid":"6534898","name":"Ricaldone","asciiname":"Ricaldone","alternatenames":"","latitude":"44.73235","longitude":"8.46814","feature_class":"P","feature_code":"PPLA3","country_code":"IT","cc2":"","admin1_code":"12","admin2_code":"AL","admin3_code":"006143","admin4_code":"","population":"395","elevation":"285","dem":"292","timezone":"Europe/Rome","modification_date":"2014-01-11"},{"geonameid":"6534899","name":"Rosignano Monferrato","asciiname":"Rosignano Monferrato","alternatenames":"","latitude":"45.08055","longitude":"8.39974","feature_class":"P","feature_code":"PPLA3","country_code":"IT","cc2":"","admin1_code":"12","admin2_code":"AL","admin3_code":"006149","admin4_code":"","population":"400","elevation":"280","dem":"277","timezone":"Europe/Rome","modification_date":"2014-01-11"},{"geonameid":"6534900","name":"Sant'Agata Fossili","asciiname":"Sant'Agata Fossili","alternatenames":"","latitude":"44.78475","longitude":"8.92115","feature_class":"P","feature_code":"PPLA3","country_code":"IT","cc2":"","admin1_code":"12","admin2_code":"AL","admin3_code":"006156","admin4_code":"","population":"264","elevation":"425","dem":"437","timezone":"Europe/Rome","modification_date":"2014-01-11"},{"geonameid":"6534901","name":"Sezzadio","asciiname":"Sezzadio","alternatenames":"","latitude":"44.78485","longitude":"8.57255","feature_class":"P","feature_code":"PPLA3","country_code":"IT","cc2":"","admin1_code":"12","admin2_code":"AL","admin3_code":"006161","admin4_code":"","population":"1107","elevation":"127","dem":"123","timezone":"Europe/Rome","modification_date":"2014-01-11"},{"geonameid":"6534902","name":"Solonghello","asciiname":"Solonghello","alternatenames":"","latitude":"45.12905","longitude":"8.28323","feature_class":"P","feature_code":"PPLA3","country_code":"IT","cc2":"","admin1_code":"12","admin2_code":"AL","admin3_code":"006164","admin4_code":"","population":"88","elevation":"220","dem":"182","timezone":"Europe/Rome","modification_date":"2014-01-19"},{"geonameid":"6534903","name":"Treville","asciiname":"Treville","alternatenames":"","latitude":"45.09685","longitude":"8.35954","feature_class":"P","feature_code":"PPLA3","country_code":"IT","cc2":"","admin1_code":"12","admin2_code":"AL","admin3_code":"006175","admin4_code":"","population":"180","elevation":"300","dem":"268","timezone":"Europe/Rome","modification_date":"2014-01-19"},{"geonameid":"6534904","name":"Arnad","asciiname":"Arnad","alternatenames":"","latitude":"45.64726","longitude":"7.71701","feature_class":"P","feature_code":"PPLA3","country_code":"IT","cc2":"","admin1_code":"19","admin2_code":"AO","admin3_code":"007004","admin4_code":"","population":"975","elevation":"361","dem":"354","timezone":"Europe/Rome","modification_date":"2014-01-11"},{"geonameid":"6534905","name":"Fontainemore","asciiname":"Fontainemore","alternatenames":"","latitude":"45.64746","longitude":"7.85952","feature_class":"P","feature_code":"PPLA3","country_code":"IT","cc2":"","admin1_code":"19","admin2_code":"AO","admin3_code":"007028","admin4_code":"","population":"121","elevation":"760","dem":"767","timezone":"Europe/Rome","modification_date":"2014-01-19"},{"geonameid":"6534906","name":"Hone","asciiname":"Hone","alternatenames":"","latitude":"45.61356","longitude":"7.73851","feature_class":"P","feature_code":"PPLA3","country_code":"IT","cc2":"","admin1_code":"19","admin2_code":"AO","admin3_code":"007034","admin4_code":"","population":"1115","elevation":"364","dem":"358","timezone":"Europe/Rome","modification_date":"2014-01-11"},{"geonameid":"6534907","name":"Agra","asciiname":"Agra","alternatenames":"","latitude":"46.03668","longitude":"8.76833","feature_class":"P","feature_code":"PPLA3","country_code":"IT","cc2":"","admin1_code":"09","admin2_code":"VA","admin3_code":"012001","admin4_code":"","population":"318","elevation":"655","dem":"651","timezone":"Europe/Rome","modification_date":"2014-01-16"},{"geonameid":"6534908","name":"Azzio","asciiname":"Azzio","alternatenames":"","latitude":"45.88468","longitude":"8.70853","feature_class":"P","feature_code":"PPLA3","country_code":"IT","cc2":"","admin1_code":"09","admin2_code":"VA","admin3_code":"012007","admin4_code":"","population":"764","elevation":"399","dem":"382","timezone":"Europe/Rome","modification_date":"2014-01-16"},{"geonameid":"6534909","name":"Barasso","asciiname":"Barasso","alternatenames":"","latitude":"45.84048","longitude":"8.75683","feature_class":"P","feature_code":"PPLA3","country_code":"IT","cc2":"","admin1_code":"09","admin2_code":"VA","admin3_code":"012008","admin4_code":"","population":"1620","elevation":"401","dem":"409","timezone":"Europe/Rome","modification_date":"2014-01-16"},{"geonameid":"6534910","name":"Bedero Valcuvia","asciiname":"Bedero Valcuvia","alternatenames":"","latitude":"45.91088","longitude":"8.79553","feature_class":"P","feature_code":"PPLA3","country_code":"IT","cc2":"","admin1_code":"09","admin2_code":"VA","admin3_code":"012010","admin4_code":"","population":"664","elevation":"520","dem":"490","timezone":"Europe/Rome","modification_date":"2014-01-16"},{"geonameid":"6534911","name":"Brenta","asciiname":"Brenta","alternatenames":"","latitude":"45.89418","longitude":"8.68373","feature_class":"P","feature_code":"PPLA3","country_code":"IT","cc2":"","admin1_code":"09","admin2_code":"VA","admin3_code":"012019","admin4_code":"","population":"1798","elevation":"276","dem":"283","timezone":"Europe/Rome","modification_date":"2014-01-16"},{"geonameid":"6534912","name":"Brusimpiano","asciiname":"Brusimpiano","alternatenames":"","latitude":"45.94468","longitude":"8.88953","feature_class":"P","feature_code":"PPLA3","country_code":"IT","cc2":"","admin1_code":"09","admin2_code":"VA","admin3_code":"012024","admin4_code":"","population":"956","elevation":"289","dem":"297","timezone":"Europe/Rome","modification_date":"2014-01-16"},{"geonameid":"6534913","name":"Caronno Varesino","asciiname":"Caronno Varesino","alternatenames":"","latitude":"45.73577","longitude":"8.83173","feature_class":"P","feature_code":"PPLA3","country_code":"IT","cc2":"","admin1_code":"09","admin2_code":"VA","admin3_code":"012035","admin4_code":"","population":"4873","elevation":"403","dem":"389","timezone":"Europe/Rome","modification_date":"2014-01-16"},{"geonameid":"6534914","name":"Castello Cabiaglio","asciiname":"Castello Cabiaglio","alternatenames":"","latitude":"45.89358","longitude":"8.75763","feature_class":"P","feature_code":"PPLA3","country_code":"IT","cc2":"","admin1_code":"09","admin2_code":"VA","admin3_code":"012043","admin4_code":"","population":"517","elevation":"514","dem":"520","timezone":"Europe/Rome","modification_date":"2014-01-16"},{"geonameid":"6534915","name":"Clivio","asciiname":"Clivio","alternatenames":"","latitude":"45.86278","longitude":"8.93083","feature_class":"P","feature_code":"PPLA3","country_code":"IT","cc2":"IT,CH","admin1_code":"09","admin2_code":"VA","admin3_code":"012052","admin4_code":"","population":"1607","elevation":"468","dem":"451","timezone":"Europe/Rome","modification_date":"2014-01-16"},{"geonameid":"6534916","name":"Cuasso al Monte","asciiname":"Cuasso al Monte","alternatenames":"","latitude":"45.91478","longitude":"8.87923","feature_class":"P","feature_code":"PPLA3","country_code":"IT","cc2":"","admin1_code":"09","admin2_code":"VA","admin3_code":"012058","admin4_code":"","population":"524","elevation":"530","dem":"539","timezone":"Europe/Rome","modification_date":"2014-01-16"},{"geonameid":"6534917","name":"Cugliate-Fabiasco","asciiname":"Cugliate-Fabiasco","alternatenames":"","latitude":"45.94568","longitude":"8.81863","feature_class":"P","feature_code":"PPLA3","country_code":"IT","cc2":"","admin1_code":"09","admin2_code":"VA","admin3_code":"012059","admin4_code":"","population":"2873","elevation":"516","dem":"490","timezone":"Europe/Rome","modification_date":"2014-01-16"},{"geonameid":"6534918","name":"Cunardo","asciiname":"Cunardo","alternatenames":"","latitude":"45.93428","longitude":"8.80773","feature_class":"P","feature_code":"PPLA3","country_code":"IT","cc2":"","admin1_code":"09","admin2_code":"VA","admin3_code":"012060","admin4_code":"","population":"2651","elevation":"450","dem":"437","timezone":"Europe/Rome","modification_date":"2014-01-16"},{"geonameid":"6534919","name":"Daverio","asciiname":"Daverio","alternatenames":"","latitude":"45.77797","longitude":"8.77343","feature_class":"P","feature_code":"PPLA3","country_code":"IT","cc2":"","admin1_code":"09","admin2_code":"VA","admin3_code":"012064","admin4_code":"","population":"2989","elevation":"327","dem":"330","timezone":"Europe/Rome","modification_date":"2014-01-16"},{"geonameid":"6534920","name":"Duno","asciiname":"Duno","alternatenames":"","latitude":"45.91398","longitude":"8.73763","feature_class":"P","feature_code":"PPLA3","country_code":"IT","cc2":"","admin1_code":"09","admin2_code":"VA","admin3_code":"012066","admin4_code":"","population":"147","elevation":"530","dem":"547","timezone":"Europe/Rome","modification_date":"2014-01-19"},{"geonameid":"6534921","name":"Gorla Minore","asciiname":"Gorla Minore","alternatenames":"Gorla Minor,Gorla Minore,Gorla-Minore,Gòrla Minor,ge er la mi nuo lei,Горла-Миноре,Горла-Міноре,Գոռլա Մինորե,ゴルラ・ミノーレ,戈尔拉米诺雷","latitude":"45.64117","longitude":"8.90264","feature_class":"P","feature_code":"PPLA3","country_code":"IT","cc2":"","admin1_code":"09","admin2_code":"VA","admin3_code":"012079","admin4_code":"","population":"8324","elevation":"237","dem":"238","timezone":"Europe/Rome","modification_date":"2014-01-16"},{"geonameid":"6534922","name":"Jerago Con Orago","asciiname":"Jerago Con Orago","alternatenames":"","latitude":"45.70467","longitude":"8.79593","feature_class":"P","feature_code":"PPLA3","country_code":"IT","cc2":"","admin1_code":"09","admin2_code":"VA","admin3_code":"012085","admin4_code":"","population":"4910","elevation":"","dem":"320","timezone":"Europe/Rome","modification_date":"2014-05-01"},{"geonameid":"6534923","name":"Leggiuno","asciiname":"Leggiuno","alternatenames":"","latitude":"45.87588","longitude":"8.62063","feature_class":"P","feature_code":"PPLA3","country_code":"IT","cc2":"","admin1_code":"09","admin2_code":"VA","admin3_code":"012088","admin4_code":"","population":"3022","elevation":"240","dem":"243","timezone":"Europe/Rome","modification_date":"2014-01-16"},{"geonameid":"6534924","name":"Varano Borghi","asciiname":"Varano Borghi","alternatenames":"","latitude":"45.77407","longitude":"8.70403","feature_class":"P","feature_code":"PPLA3","country_code":"IT","cc2":"","admin1_code":"09","admin2_code":"VA","admin3_code":"012132","admin4_code":"","population":"2418","elevation":"281","dem":"277","timezone":"Europe/Rome","modification_date":"2014-01-16"},{"geonameid":"6534925","name":"Albese Con Cassano","asciiname":"Albese Con Cassano","alternatenames":"","latitude":"45.79488","longitude":"9.16364","feature_class":"P","feature_code":"PPLA3","country_code":"IT","cc2":"","admin1_code":"09","admin2_code":"CO","admin3_code":"013004","admin4_code":"","population":"4127","elevation":"","dem":"394","timezone":"Europe/Rome","modification_date":"2014-05-01"},{"geonameid":"6534926","name":"Alserio","asciiname":"Alserio","alternatenames":"","latitude":"45.77888","longitude":"9.20014","feature_class":"P","feature_code":"PPLA3","country_code":"IT","cc2":"","admin1_code":"09","admin2_code":"CO","admin3_code":"013006","admin4_code":"","population":"1106","elevation":"265","dem":"265","timezone":"Europe/Rome","modification_date":"2014-01-16"},{"geonameid":"6534927","name":"Cavallasca","asciiname":"Cavallasca","alternatenames":"Cavalasca,Kavalaska,Kavallaska,ka wa la si ka,kavu~arrasuka,Каваласка,Кавалласка,Կավալասկա,カヴァッラスカ,卡瓦拉斯卡","latitude":"45.80958","longitude":"9.03284","feature_class":"P","feature_code":"PPLA3","country_code":"IT","cc2":"","admin1_code":"09","admin2_code":"CO","admin3_code":"013061","admin4_code":"","population":"2883","elevation":"400","dem":"409","timezone":"Europe/Rome","modification_date":"2014-01-16"},{"geonameid":"6534928","name":"Civenna","asciiname":"Civenna","alternatenames":"Chivena,Chivenna,Chyvena,Scivenna,chivu~en'na,qi wen na,Чивена,Чивенна,Чывена,Չիվեննա,チヴェンナ,奇文纳","latitude":"45.94018","longitude":"9.27124","feature_class":"P","feature_code":"PPLA3","country_code":"IT","cc2":"","admin1_code":"09","admin2_code":"CO","admin3_code":"013070","admin4_code":"","population":"662","elevation":"627","dem":"676","timezone":"Europe/Rome","modification_date":"2014-01-16"},{"geonameid":"6534929","name":"Corrido","asciiname":"Corrido","alternatenames":"Corid o Coret,Corid o Corét","latitude":"46.04758","longitude":"9.13554","feature_class":"P","feature_code":"PPLA3","country_code":"IT","cc2":"","admin1_code":"09","admin2_code":"CO","admin3_code":"013077","admin4_code":"","population":"810","elevation":"483","dem":"505","timezone":"Europe/Rome","modification_date":"2014-01-16"},{"geonameid":"6534930","name":"Fenegrò","asciiname":"Fenegro","alternatenames":"","latitude":"45.70157","longitude":"8.99964","feature_class":"P","feature_code":"PPLA3","country_code":"IT","cc2":"","admin1_code":"09","admin2_code":"CO","admin3_code":"013100","admin4_code":"","population":"3114","elevation":"290","dem":"295","timezone":"Europe/Rome","modification_date":"2014-01-16"},{"geonameid":"6534932","name":"Laino","asciiname":"Laino","alternatenames":"","latitude":"45.98448","longitude":"9.07544","feature_class":"P","feature_code":"PPLA3","country_code":"IT","cc2":"","admin1_code":"09","admin2_code":"CO","admin3_code":"013120","admin4_code":"","population":"506","elevation":"671","dem":"680","timezone":"Europe/Rome","modification_date":"2014-01-16"},{"geonameid":"6534933","name":"Lasnigo","asciiname":"Lasnigo","alternatenames":"","latitude":"45.88198","longitude":"9.26644","feature_class":"P","feature_code":"PPLA3","country_code":"IT","cc2":"","admin1_code":"09","admin2_code":"CO","admin3_code":"013123","admin4_code":"","population":"462","elevation":"570","dem":"558","timezone":"Europe/Rome","modification_date":"2014-01-16"},{"geonameid":"6534934","name":"Albosaggia","asciiname":"Albosaggia","alternatenames":"","latitude":"46.14749","longitude":"9.85405","feature_class":"P","feature_code":"PPLA3","country_code":"IT","cc2":"","admin1_code":"09","admin2_code":"SO","admin3_code":"014002","admin4_code":"","population":"191","elevation":"490","dem":"495","timezone":"Europe/Rome","modification_date":"2014-01-19"},{"geonameid":"6534935","name":"Briosco","asciiname":"Briosco","alternatenames":"","latitude":"45.71008","longitude":"9.24064","feature_class":"P","feature_code":"PPLA3","country_code":"IT","cc2":"","admin1_code":"09","admin2_code":"MB","admin3_code":"108011","admin4_code":"","population":"2906","elevation":"271","dem":"273","timezone":"Europe/Rome","modification_date":"2014-01-16"},{"geonameid":"6534936","name":"Cassinetta di Lugagnano","asciiname":"Cassinetta di Lugagnano","alternatenames":"","latitude":"45.42247","longitude":"8.90604","feature_class":"P","feature_code":"PPLA3","country_code":"IT","cc2":"","admin1_code":"09","admin2_code":"MI","admin3_code":"015061","admin4_code":"","population":"1835","elevation":"125","dem":"124","timezone":"Europe/Rome","modification_date":"2014-01-16"},{"geonameid":"6534937","name":"Cogliate","asciiname":"Cogliate","alternatenames":"","latitude":"45.64597","longitude":"9.07884","feature_class":"P","feature_code":"PPLA3","country_code":"IT","cc2":"","admin1_code":"09","admin2_code":"MB","admin3_code":"108020","admin4_code":"","population":"8450","elevation":"236","dem":"231","timezone":"Europe/Rome","modification_date":"2014-01-16"},{"geonameid":"6534938","name":"Correzzana","asciiname":"Correzzana","alternatenames":"","latitude":"45.66658","longitude":"9.30755","feature_class":"P","feature_code":"PPLA3","country_code":"IT","cc2":"","admin1_code":"09","admin2_code":"MB","admin3_code":"108022","admin4_code":"","population":"2595","elevation":"255","dem":"260","timezone":"Europe/Rome","modification_date":"2014-01-16"},{"geonameid":"6534939","name":"Dresano","asciiname":"Dresano","alternatenames":"Darexanum,Dresan,Drezano,de lei sa nuo,dorezano,Дрезано,Դրեզանո,ドレザーノ,德雷萨诺","latitude":"45.37297","longitude":"9.35785","feature_class":"P","feature_code":"PPLA3","country_code":"IT","cc2":"","admin1_code":"09","admin2_code":"MI","admin3_code":"015101","admin4_code":"","population":"2968","elevation":"92","dem":"91","timezone":"Europe/Rome","modification_date":"2014-01-16"},{"geonameid":"6534940","name":"Gessate","asciiname":"Gessate","alternatenames":"","latitude":"45.54838","longitude":"9.43775","feature_class":"P","feature_code":"PPLA3","country_code":"IT","cc2":"","admin1_code":"09","admin2_code":"MI","admin3_code":"015106","admin4_code":"","population":"8407","elevation":"144","dem":"136","timezone":"Europe/Rome","modification_date":"2014-01-16"},{"geonameid":"6534941","name":"Gudo Visconti","asciiname":"Gudo Visconti","alternatenames":"","latitude":"45.37407","longitude":"9.00014","feature_class":"P","feature_code":"PPLA3","country_code":"IT","cc2":"","admin1_code":"09","admin2_code":"MI","admin3_code":"015112","admin4_code":"","population":"1638","elevation":"111","dem":"111","timezone":"Europe/Rome","modification_date":"2014-01-16"},{"geonameid":"6534942","name":"Lazzate","asciiname":"Lazzate","alternatenames":"","latitude":"45.67207","longitude":"9.08424","feature_class":"P","feature_code":"PPLA3","country_code":"IT","cc2":"","admin1_code":"09","admin2_code":"MB","admin3_code":"108025","admin4_code":"","population":"7560","elevation":"257","dem":"259","timezone":"Europe/Rome","modification_date":"2014-01-16"},{"geonameid":"6534943","name":"Lesmo","asciiname":"Lesmo","alternatenames":"","latitude":"45.64858","longitude":"9.30735","feature_class":"P","feature_code":"PPLA3","country_code":"IT","cc2":"","admin1_code":"09","admin2_code":"MB","admin3_code":"108026","admin4_code":"","population":"7959","elevation":"241","dem":"247","timezone":"Europe/Rome","modification_date":"2014-01-16"},{"geonameid":"6534944","name":"Macherio","asciiname":"Macherio","alternatenames":"","latitude":"45.63974","longitude":"9.27394","feature_class":"P","feature_code":"PPLA3","country_code":"IT","cc2":"","admin1_code":"09","admin2_code":"MB","admin3_code":"108029","admin4_code":"","population":"6999","elevation":"215","dem":"214","timezone":"Europe/Rome","modification_date":"2014-01-19"},{"geonameid":"6534945","name":"Masate","asciiname":"Masate","alternatenames":"","latitude":"45.56708","longitude":"9.46415","feature_class":"P","feature_code":"PPLA3","country_code":"IT","cc2":"","admin1_code":"09","admin2_code":"MI","admin3_code":"015136","admin4_code":"","population":"3295","elevation":"153","dem":"149","timezone":"Europe/Rome","modification_date":"2014-01-16"},{"geonameid":"6534946","name":"Mesero","asciiname":"Mesero","alternatenames":"","latitude":"45.50227","longitude":"8.85544","feature_class":"P","feature_code":"PPLA3","country_code":"IT","cc2":"","admin1_code":"09","admin2_code":"MI","admin3_code":"015144","admin4_code":"","population":"3792","elevation":"154","dem":"154","timezone":"Europe/Rome","modification_date":"2014-01-16"},{"geonameid":"6534947","name":"Mezzago","asciiname":"Mezzago","alternatenames":"","latitude":"45.62898","longitude":"9.44485","feature_class":"P","feature_code":"PPLA3","country_code":"IT","cc2":"","admin1_code":"09","admin2_code":"MB","admin3_code":"108031","admin4_code":"","population":"4106","elevation":"219","dem":"223","timezone":"Europe/Rome","modification_date":"2014-01-16"},{"geonameid":"6534948","name":"San Vittore Olona","asciiname":"San Vittore Olona","alternatenames":"","latitude":"45.58577","longitude":"8.94134","feature_class":"P","feature_code":"PPLA3","country_code":"IT","cc2":"","admin1_code":"09","admin2_code":"MI","admin3_code":"015201","admin4_code":"","population":"8225","elevation":"197","dem":"193","timezone":"Europe/Rome","modification_date":"2014-01-16"},{"geonameid":"6534949","name":"Sulbiate","asciiname":"Sulbiate","alternatenames":"","latitude":"45.64047","longitude":"9.42762","feature_class":"P","feature_code":"PPLA3","country_code":"IT","cc2":"","admin1_code":"09","admin2_code":"MB","admin3_code":"108042","admin4_code":"","population":"4021","elevation":"227","dem":"238","timezone":"Europe/Rome","modification_date":"2014-01-19"},{"geonameid":"6534950","name":"Veduggio Con Colzano","asciiname":"Veduggio Con Colzano","alternatenames":"","latitude":"45.73388","longitude":"9.27024","feature_class":"P","feature_code":"PPLA3","country_code":"IT","cc2":"","admin1_code":"09","admin2_code":"MB","admin3_code":"108047","admin4_code":"","population":"4314","elevation":"","dem":"299","timezone":"Europe/Rome","modification_date":"2014-05-01"},{"geonameid":"6534951","name":"Vizzolo Predabissi","asciiname":"Vizzolo Predabissi","alternatenames":"","latitude":"45.35587","longitude":"9.34815","feature_class":"P","feature_code":"PPLA3","country_code":"IT","cc2":"","admin1_code":"09","admin2_code":"MI","admin3_code":"015244","admin4_code":"","population":"3118","elevation":"90","dem":"90","timezone":"Europe/Rome","modification_date":"2014-01-16"},{"geonameid":"6534952","name":"Adrara San Rocco","asciiname":"Adrara San Rocco","alternatenames":"","latitude":"45.71578","longitude":"9.95906","feature_class":"P","feature_code":"PPLA3","country_code":"IT","cc2":"","admin1_code":"09","admin2_code":"BG","admin3_code":"016002","admin4_code":"","population":"799","elevation":"431","dem":"432","timezone":"Europe/Rome","modification_date":"2014-01-16"},{"geonameid":"6534953","name":"Ambivere","asciiname":"Ambivere","alternatenames":"","latitude":"45.71958","longitude":"9.55015","feature_class":"P","feature_code":"PPLA3","country_code":"IT","cc2":"","admin1_code":"09","admin2_code":"BG","admin3_code":"016009","admin4_code":"","population":"1879","elevation":"261","dem":"263","timezone":"Europe/Rome","modification_date":"2014-01-16"},{"geonameid":"6534954","name":"Aviatico","asciiname":"Aviatico","alternatenames":"","latitude":"45.79758","longitude":"9.77145","feature_class":"P","feature_code":"PPLA3","country_code":"IT","cc2":"","admin1_code":"09","admin2_code":"BG","admin3_code":"016015","admin4_code":"","population":"289","elevation":"1022","dem":"980","timezone":"Europe/Rome","modification_date":"2014-01-16"},{"geonameid":"6534955","name":"Barbata","asciiname":"Barbata","alternatenames":"","latitude":"45.47498","longitude":"9.77736","feature_class":"P","feature_code":"PPLA3","country_code":"IT","cc2":"","admin1_code":"09","admin2_code":"BG","admin3_code":"016019","admin4_code":"","population":"586","elevation":"105","dem":"103","timezone":"Europe/Rome","modification_date":"2014-01-16"},{"geonameid":"6534956","name":"Bianzano","asciiname":"Bianzano","alternatenames":"","latitude":"45.77309","longitude":"9.91816","feature_class":"P","feature_code":"PPLA3","country_code":"IT","cc2":"","admin1_code":"09","admin2_code":"BG","admin3_code":"016026","admin4_code":"","population":"465","elevation":"600","dem":"602","timezone":"Europe/Rome","modification_date":"2014-01-16"},{"geonameid":"6534957","name":"Boltiere","asciiname":"Boltiere","alternatenames":"","latitude":"45.60088","longitude":"9.57845","feature_class":"P","feature_code":"PPLA3","country_code":"IT","cc2":"","admin1_code":"09","admin2_code":"BG","admin3_code":"016029","admin4_code":"","population":"5568","elevation":"171","dem":"172","timezone":"Europe/Rome","modification_date":"2014-01-16"},{"geonameid":"6534958","name":"Bonate Sotto","asciiname":"Bonate Sotto","alternatenames":"","latitude":"45.66818","longitude":"9.55865","feature_class":"P","feature_code":"PPLA3","country_code":"IT","cc2":"","admin1_code":"09","admin2_code":"BG","admin3_code":"016031","admin4_code":"","population":"6236","elevation":"215","dem":"215","timezone":"Europe/Rome","modification_date":"2014-01-16"},{"geonameid":"6534959","name":"Bossico","asciiname":"Bossico","alternatenames":"","latitude":"45.82839","longitude":"10.04506","feature_class":"P","feature_code":"PPLA3","country_code":"IT","cc2":"","admin1_code":"09","admin2_code":"BG","admin3_code":"016033","admin4_code":"","population":"965","elevation":"860","dem":"855","timezone":"Europe/Rome","modification_date":"2014-01-16"},{"geonameid":"6534960","name":"Chignolo d'Isola","asciiname":"Chignolo d'Isola","alternatenames":"","latitude":"45.66758","longitude":"9.52765","feature_class":"P","feature_code":"PPLA3","country_code":"IT","cc2":"","admin1_code":"09","admin2_code":"BG","admin3_code":"016072","admin4_code":"","population":"2943","elevation":"229","dem":"227","timezone":"Europe/Rome","modification_date":"2014-01-16"},{"geonameid":"6534961","name":"Colzate","asciiname":"Colzate","alternatenames":"","latitude":"45.81719","longitude":"9.85615","feature_class":"P","feature_code":"PPLA3","country_code":"IT","cc2":"","admin1_code":"09","admin2_code":"BG","admin3_code":"016080","admin4_code":"","population":"1449","elevation":"424","dem":"437","timezone":"Europe/Rome","modification_date":"2014-01-16"},{"geonameid":"6534962","name":"Corna Imagna","asciiname":"Corna Imagna","alternatenames":"","latitude":"45.83068","longitude":"9.54485","feature_class":"P","feature_code":"PPLA3","country_code":"IT","cc2":"","admin1_code":"09","admin2_code":"BG","admin3_code":"016082","admin4_code":"","population":"337","elevation":"736","dem":"723","timezone":"Europe/Rome","modification_date":"2014-01-16"},{"geonameid":"6534963","name":"Entratico","asciiname":"Entratico","alternatenames":"","latitude":"45.70778","longitude":"9.87316","feature_class":"P","feature_code":"PPLA3","country_code":"IT","cc2":"","admin1_code":"09","admin2_code":"BG","admin3_code":"016094","admin4_code":"","population":"1734","elevation":"299","dem":"273","timezone":"Europe/Rome","modification_date":"2014-01-16"},{"geonameid":"6534964","name":"Filago","asciiname":"Filago","alternatenames":"","latitude":"45.63758","longitude":"9.55635","feature_class":"P","feature_code":"PPLA3","country_code":"IT","cc2":"","admin1_code":"09","admin2_code":"BG","admin3_code":"016098","admin4_code":"","population":"2575","elevation":"190","dem":"181","timezone":"Europe/Rome","modification_date":"2014-01-16"},{"geonameid":"6534965","name":"Fiorano al Serio","asciiname":"Fiorano al Serio","alternatenames":"","latitude":"45.80018","longitude":"9.84276","feature_class":"P","feature_code":"PPLA3","country_code":"IT","cc2":"","admin1_code":"09","admin2_code":"BG","admin3_code":"016100","admin4_code":"","population":"3057","elevation":"396","dem":"392","timezone":"Europe/Rome","modification_date":"2014-01-16"},{"geonameid":"6534966","name":"Fonteno","asciiname":"Fonteno","alternatenames":"","latitude":"45.75859","longitude":"10.01856","feature_class":"P","feature_code":"PPLA3","country_code":"IT","cc2":"","admin1_code":"09","admin2_code":"BG","admin3_code":"016102","admin4_code":"","population":"665","elevation":"606","dem":"655","timezone":"Europe/Rome","modification_date":"2014-01-16"},{"geonameid":"6534967","name":"Fuipiano Valle Imagna","asciiname":"Fuipiano Valle Imagna","alternatenames":"","latitude":"45.85428","longitude":"9.52845","feature_class":"P","feature_code":"PPLA3","country_code":"IT","cc2":"","admin1_code":"09","admin2_code":"BG","admin3_code":"016106","admin4_code":"","population":"205","elevation":"1019","dem":"1055","timezone":"Europe/Rome","modification_date":"2014-01-19"},{"geonameid":"6534968","name":"Gandellino","asciiname":"Gandellino","alternatenames":"","latitude":"45.99109","longitude":"9.94615","feature_class":"P","feature_code":"PPLA3","country_code":"IT","cc2":"","admin1_code":"09","admin2_code":"BG","admin3_code":"016107","admin4_code":"","population":"464","elevation":"682","dem":"677","timezone":"Europe/Rome","modification_date":"2014-01-16"},{"geonameid":"6534969","name":"Gaverina Terme","asciiname":"Gaverina Terme","alternatenames":"","latitude":"45.75578","longitude":"9.88666","feature_class":"P","feature_code":"PPLA3","country_code":"IT","cc2":"","admin1_code":"09","admin2_code":"BG","admin3_code":"016110","admin4_code":"","population":"358","elevation":"509","dem":"494","timezone":"Europe/Rome","modification_date":"2014-01-16"},{"geonameid":"6534970","name":"Gorlago","asciiname":"Gorlago","alternatenames":"","latitude":"45.67408","longitude":"9.82296","feature_class":"P","feature_code":"PPLA3","country_code":"IT","cc2":"","admin1_code":"09","admin2_code":"BG","admin3_code":"016114","admin4_code":"","population":"4898","elevation":"233","dem":"236","timezone":"Europe/Rome","modification_date":"2014-01-16"},{"geonameid":"6534971","name":"Madone","asciiname":"Madone","alternatenames":"","latitude":"45.65028","longitude":"9.55015","feature_class":"P","feature_code":"PPLA3","country_code":"IT","cc2":"","admin1_code":"09","admin2_code":"BG","admin3_code":"016131","admin4_code":"","population":"3919","elevation":"202","dem":"202","timezone":"Europe/Rome","modification_date":"2014-01-16"},{"geonameid":"6534972","name":"Premolo","asciiname":"Premolo","alternatenames":"","latitude":"45.87019","longitude":"9.87466","feature_class":"P","feature_code":"PPLA3","country_code":"IT","cc2":"","admin1_code":"09","admin2_code":"BG","admin3_code":"016175","admin4_code":"","population":"1118","elevation":"625","dem":"636","timezone":"Europe/Rome","modification_date":"2014-01-16"},{"geonameid":"6534973","name":"Presezzo","asciiname":"Presezzo","alternatenames":"","latitude":"45.69208","longitude":"9.57035","feature_class":"P","feature_code":"PPLA3","country_code":"IT","cc2":"","admin1_code":"09","admin2_code":"BG","admin3_code":"016176","admin4_code":"","population":"4918","elevation":"236","dem":"235","timezone":"Europe/Rome","modification_date":"2014-01-16"},{"geonameid":"6534974","name":"Riva di Solto","asciiname":"Riva di Solto","alternatenames":"","latitude":"45.77418","longitude":"10.03941","feature_class":"P","feature_code":"PPLA3","country_code":"IT","cc2":"","admin1_code":"09","admin2_code":"BG","admin3_code":"016180","admin4_code":"","population":"749","elevation":"186","dem":"195","timezone":"Europe/Rome","modification_date":"2014-01-19"},{"geonameid":"6534975","name":"Castelcovati","asciiname":"Castelcovati","alternatenames":"","latitude":"45.50198","longitude":"9.94596","feature_class":"P","feature_code":"PPLA3","country_code":"IT","cc2":"","admin1_code":"09","admin2_code":"BS","admin3_code":"017041","admin4_code":"","population":"6224","elevation":"121","dem":"121","timezone":"Europe/Rome","modification_date":"2014-01-16"},{"geonameid":"6534976","name":"Borgo San Siro","asciiname":"Borgo San Siro","alternatenames":"","latitude":"45.23506","longitude":"8.91334","feature_class":"P","feature_code":"PPLA3","country_code":"IT","cc2":"","admin1_code":"09","admin2_code":"PV","admin3_code":"018018","admin4_code":"","population":"714","elevation":"98","dem":"99","timezone":"Europe/Rome","modification_date":"2014-01-16"},{"geonameid":"6534977","name":"Castana","asciiname":"Castana","alternatenames":"","latitude":"45.02676","longitude":"9.27246","feature_class":"P","feature_code":"PPLA3","country_code":"IT","cc2":"","admin1_code":"09","admin2_code":"PV","admin3_code":"018036","admin4_code":"","population":"165","elevation":"290","dem":"290","timezone":"Europe/Rome","modification_date":"2014-01-19"},{"geonameid":"6534978","name":"Chignolo Po","asciiname":"Chignolo Po","alternatenames":"","latitude":"45.14817","longitude":"9.48156","feature_class":"P","feature_code":"PPLA3","country_code":"IT","cc2":"","admin1_code":"09","admin2_code":"PV","admin3_code":"018048","admin4_code":"","population":"2227","elevation":"68","dem":"67","timezone":"Europe/Rome","modification_date":"2014-01-16"},{"geonameid":"6534979","name":"Costa de' Nobili","asciiname":"Costa de' Nobili","alternatenames":"","latitude":"45.13217","longitude":"9.37886","feature_class":"P","feature_code":"PPLA3","country_code":"IT","cc2":"","admin1_code":"09","admin2_code":"PV","admin3_code":"018058","admin4_code":"","population":"297","elevation":"66","dem":"64","timezone":"Europe/Rome","modification_date":"2014-01-16"},{"geonameid":"6534980","name":"Frascarolo","asciiname":"Frascarolo","alternatenames":"","latitude":"45.04666","longitude":"8.68204","feature_class":"P","feature_code":"PPLA3","country_code":"IT","cc2":"","admin1_code":"09","admin2_code":"PV","admin3_code":"018065","admin4_code":"","population":"1112","elevation":"87","dem":"92","timezone":"Europe/Rome","modification_date":"2014-01-16"},{"geonameid":"6534981","name":"Golferenzo","asciiname":"Golferenzo","alternatenames":"","latitude":"44.96106","longitude":"9.30596","feature_class":"P","feature_code":"PPLA3","country_code":"IT","cc2":"","admin1_code":"09","admin2_code":"PV","admin3_code":"018074","admin4_code":"","population":"71","elevation":"464","dem":"432","timezone":"Europe/Rome","modification_date":"2014-01-19"},{"geonameid":"6534982","name":"Magherno","asciiname":"Magherno","alternatenames":"","latitude":"45.22357","longitude":"9.32935","feature_class":"P","feature_code":"PPLA3","country_code":"IT","cc2":"","admin1_code":"09","admin2_code":"PV","admin3_code":"018085","admin4_code":"","population":"1683","elevation":"76","dem":"74","timezone":"Europe/Rome","modification_date":"2014-01-16"},{"geonameid":"6534983","name":"Marcignago","asciiname":"Marcignago","alternatenames":"Marchin'jago,Marciniacum,Marsgna,Marsgnà,ma er qi ni ya ge,marsyghnaghw,maruchinyago,Марчиньяго,Մարչինյագո,مارسيغناغو,マルチニャーゴ,马尔奇尼亚戈","latitude":"45.25306","longitude":"9.07935","feature_class":"P","feature_code":"PPLA3","country_code":"IT","cc2":"","admin1_code":"09","admin2_code":"PV","admin3_code":"018086","admin4_code":"","population":"1895","elevation":"93","dem":"89","timezone":"Europe/Rome","modification_date":"2014-01-16"},{"geonameid":"6534984","name":"Marzano","asciiname":"Marzano","alternatenames":"","latitude":"45.24797","longitude":"9.29505","feature_class":"P","feature_code":"PPLA3","country_code":"IT","cc2":"","admin1_code":"09","admin2_code":"PV","admin3_code":"018087","admin4_code":"","population":"778","elevation":"78","dem":"79","timezone":"Europe/Rome","modification_date":"2014-01-16"},{"geonameid":"6534985","name":"Campagnola Cremasca","asciiname":"Campagnola Cremasca","alternatenames":"","latitude":"45.39847","longitude":"9.66946","feature_class":"P","feature_code":"PPLA3","country_code":"IT","cc2":"","admin1_code":"09","admin2_code":"CR","admin3_code":"019011","admin4_code":"","population":"533","elevation":"84","dem":"81","timezone":"Europe/Rome","modification_date":"2014-01-16"},{"geonameid":"6534986","name":"Casaletto Vaprio","asciiname":"Casaletto Vaprio","alternatenames":"","latitude":"45.40817","longitude":"9.62876","feature_class":"P","feature_code":"PPLA3","country_code":"IT","cc2":"","admin1_code":"09","admin2_code":"CR","admin3_code":"019020","admin4_code":"","population":"1729","elevation":"87","dem":"85","timezone":"Europe/Rome","modification_date":"2014-01-16"},{"geonameid":"6534987","name":"Cella Dati","asciiname":"Cella Dati","alternatenames":"","latitude":"45.09527","longitude":"10.22148","feature_class":"P","feature_code":"PPLA3","country_code":"IT","cc2":"","admin1_code":"09","admin2_code":"CR","admin3_code":"019028","admin4_code":"","population":"203","elevation":"34","dem":"34","timezone":"Europe/Rome","modification_date":"2014-01-16"},{"geonameid":"6534988","name":"Derovere","asciiname":"Derovere","alternatenames":"","latitude":"45.10997","longitude":"10.24798","feature_class":"P","feature_code":"PPLA3","country_code":"IT","cc2":"","admin1_code":"09","admin2_code":"CR","admin3_code":"019040","admin4_code":"","population":"109","elevation":"36","dem":"34","timezone":"Europe/Rome","modification_date":"2014-01-19"},{"geonameid":"6534989","name":"Drizzona","asciiname":"Drizzona","alternatenames":"","latitude":"45.14217","longitude":"10.35028","feature_class":"P","feature_code":"PPLA3","country_code":"IT","cc2":"","admin1_code":"09","admin2_code":"CR","admin3_code":"019042","admin4_code":"","population":"371","elevation":"34","dem":"31","timezone":"Europe/Rome","modification_date":"2014-01-16"},{"geonameid":"6534990","name":"Malagnino","asciiname":"Malagnino","alternatenames":"","latitude":"45.13477","longitude":"10.11477","feature_class":"P","feature_code":"PPLA3","country_code":"IT","cc2":"","admin1_code":"09","admin2_code":"CR","admin3_code":"019056","admin4_code":"","population":"858","elevation":"43","dem":"42","timezone":"Europe/Rome","modification_date":"2014-01-16"},{"geonameid":"6534991","name":"Spinadesco","asciiname":"Spinadesco","alternatenames":"Spinadesch,Spinadesco vald,Spinadescum,Spinadesko,si pi na de si ke,supinadesuko,Спинадеско,Спінадеско,Սպինադեսկո,スピナデスコ,斯皮纳德斯科","latitude":"45.14917","longitude":"9.92637","feature_class":"P","feature_code":"PPLA3","country_code":"IT","cc2":"","admin1_code":"09","admin2_code":"CR","admin3_code":"019100","admin4_code":"","population":"1529","elevation":"48","dem":"47","timezone":"Europe/Rome","modification_date":"2014-01-16"},{"geonameid":"6534992","name":"Castelbelforte","asciiname":"Castelbelforte","alternatenames":"","latitude":"45.21208","longitude":"10.89249","feature_class":"P","feature_code":"PPLA3","country_code":"IT","cc2":"","admin1_code":"09","admin2_code":"MN","admin3_code":"020013","admin4_code":"","population":"2513","elevation":"27","dem":"27","timezone":"Europe/Rome","modification_date":"2014-01-16"},{"geonameid":"6534993","name":"Motteggiana","asciiname":"Motteggiana","alternatenames":"Motegiana,Mottedzhana,Muntichiana,Munticiana,Munticiàna,mo tai gu na,mottejjana,Моттеджана,Մոթեջանա,モッテッジャーナ,莫泰贾纳","latitude":"45.03307","longitude":"10.76269","feature_class":"P","feature_code":"PPLA3","country_code":"IT","cc2":"","admin1_code":"09","admin2_code":"MN","admin3_code":"020037","admin4_code":"","population":"767","elevation":"20","dem":"18","timezone":"Europe/Rome","modification_date":"2014-01-16"},{"geonameid":"6534994","name":"Cunevo","asciiname":"Cunevo","alternatenames":"","latitude":"46.28641","longitude":"11.03457","feature_class":"P","feature_code":"PPLA3","country_code":"IT","cc2":"","admin1_code":"17","admin2_code":"TN","admin3_code":"022069","admin4_code":"","population":"568","elevation":"572","dem":"579","timezone":"Europe/Rome","modification_date":"2014-01-11"},{"geonameid":"6534995","name":"Daiano","asciiname":"Daiano","alternatenames":"","latitude":"46.30161","longitude":"11.44908","feature_class":"P","feature_code":"PPLA3","country_code":"IT","cc2":"","admin1_code":"17","admin2_code":"TN","admin3_code":"022070","admin4_code":"","population":"674","elevation":"1160","dem":"1196","timezone":"Europe/Rome","modification_date":"2014-01-11"},{"geonameid":"6534996","name":"Dorsino","asciiname":"Dorsino","alternatenames":"","latitude":"46.0727","longitude":"10.89737","feature_class":"P","feature_code":"PPLA3","country_code":"IT","cc2":"","admin1_code":"17","admin2_code":"TN","admin3_code":"022077","admin4_code":"","population":"303","elevation":"635","dem":"636","timezone":"Europe/Rome","modification_date":"2014-01-11"},{"geonameid":"6534997","name":"Isera","asciiname":"Isera","alternatenames":"","latitude":"45.8876","longitude":"11.00918","feature_class":"P","feature_code":"PPLA3","country_code":"IT","cc2":"","admin1_code":"17","admin2_code":"TN","admin3_code":"022098","admin4_code":"","population":"974","elevation":"243","dem":"235","timezone":"Europe/Rome","modification_date":"2014-01-11"},{"geonameid":"6534998","name":"Ronchi Valsugana","asciiname":"Ronchi Valsugana","alternatenames":"","latitude":"46.06841","longitude":"11.43519","feature_class":"P","feature_code":"PPLA3","country_code":"IT","cc2":"","admin1_code":"17","admin2_code":"TN","admin3_code":"022157","admin4_code":"","population":"58","elevation":"776","dem":"778","timezone":"Europe/Rome","modification_date":"2014-01-19"},{"geonameid":"6534999","name":"Rivoli Veronese","asciiname":"Rivoli Veronese","alternatenames":"","latitude":"45.57249","longitude":"10.81178","feature_class":"P","feature_code":"PPLA3","country_code":"IT","cc2":"","admin1_code":"20","admin2_code":"VR","admin3_code":"023062","admin4_code":"","population":"626","elevation":"191","dem":"194","timezone":"Europe/Rome","modification_date":"2014-01-11"},{"geonameid":"6535000","name":"Selva di Progno","asciiname":"Selva di Progno","alternatenames":"","latitude":"45.61139","longitude":"11.13799","feature_class":"P","feature_code":"PPLA3","country_code":"IT","cc2":"","admin1_code":"20","admin2_code":"VR","admin3_code":"023080","admin4_code":"","population":"179","elevation":"570","dem":"570","timezone":"Europe/Rome","modification_date":"2014-01-19"},{"geonameid":"6535001","name":"Alonte","asciiname":"Alonte","alternatenames":"","latitude":"45.36589","longitude":"11.4271","feature_class":"P","feature_code":"PPLA3","country_code":"IT","cc2":"","admin1_code":"20","admin2_code":"VI","admin3_code":"024003","admin4_code":"","population":"689","elevation":"34","dem":"37","timezone":"Europe/Rome","modification_date":"2014-01-11"},{"geonameid":"6535002","name":"Altissimo","asciiname":"Altissimo","alternatenames":"","latitude":"45.61429","longitude":"11.25189","feature_class":"P","feature_code":"PPLA3","country_code":"IT","cc2":"","admin1_code":"20","admin2_code":"VI","admin3_code":"024005","admin4_code":"","population":"342","elevation":"672","dem":"637","timezone":"Europe/Rome","modification_date":"2014-01-11"},