{"nextFile":"cities.105.json","rows":[{"geonameid":"1705084","name":"Lunas","asciiname":"Lunas","alternatenames":"Lunas","latitude":"10.6402","longitude":"123.7525","feature_class":"P","feature_code":"PPL","country_code":"PH","cc2":"","admin1_code":"07","admin2_code":"21","admin3_code":"","admin4_code":"","population":"5789","elevation":"","dem":"1","timezone":"Asia/Manila","modification_date":"2012-01-17"},{"geonameid":"1705089","name":"Lunao","asciiname":"Lunao","alternatenames":"Lunao","latitude":"8.85028","longitude":"125.05639","feature_class":"P","feature_code":"PPL","country_code":"PH","cc2":"","admin1_code":"10","admin2_code":"43","admin3_code":"","admin4_code":"","population":"8995","elevation":"","dem":"10","timezone":"Asia/Manila","modification_date":"2012-02-01"},{"geonameid":"1705093","name":"Luna","asciiname":"Luna","alternatenames":"","latitude":"18.32583","longitude":"121.35361","feature_class":"P","feature_code":"PPLA3","country_code":"PH","cc2":"","admin1_code":"15","admin2_code":"7115731","admin3_code":"1705113","admin4_code":"","population":"0","elevation":"","dem":"90","timezone":"Asia/Manila","modification_date":"2011-07-31"},{"geonameid":"1705096","name":"Luna","asciiname":"Luna","alternatenames":"Antatet,Luna,Puna","latitude":"16.96975","longitude":"121.72924","feature_class":"P","feature_code":"PPLA3","country_code":"PH","cc2":"","admin1_code":"02","admin2_code":"31","admin3_code":"1705114","admin4_code":"","population":"2616","elevation":"","dem":"57","timezone":"Asia/Manila","modification_date":"2011-07-31"},{"geonameid":"1705097","name":"Luna","asciiname":"Luna","alternatenames":"Luna","latitude":"16.8528","longitude":"120.3761","feature_class":"P","feature_code":"PPLA3","country_code":"PH","cc2":"","admin1_code":"01","admin2_code":"36","admin3_code":"1705115","admin4_code":"","population":"0","elevation":"","dem":"12","timezone":"Asia/Manila","modification_date":"2011-07-31"},{"geonameid":"1705105","name":"Luna","asciiname":"Luna","alternatenames":"Luna","latitude":"10.969","longitude":"123.2419","feature_class":"P","feature_code":"PPL","country_code":"PH","cc2":"","admin1_code":"06","admin2_code":"H3","admin3_code":"","admin4_code":"","population":"11312","elevation":"","dem":"15","timezone":"Asia/Manila","modification_date":"2012-06-05"},{"geonameid":"1705109","name":"Luna","asciiname":"Luna","alternatenames":"Luna","latitude":"9.737","longitude":"125.4976","feature_class":"P","feature_code":"PPL","country_code":"PH","cc2":"","admin1_code":"13","admin2_code":"61","admin3_code":"","admin4_code":"","population":"7799","elevation":"","dem":"12","timezone":"Asia/Manila","modification_date":"2013-03-05"},{"geonameid":"1705111","name":"Luna","asciiname":"Luna","alternatenames":"Luna","latitude":"7.57639","longitude":"125.66722","feature_class":"P","feature_code":"PPL","country_code":"PH","cc2":"","admin1_code":"11","admin2_code":"I7","admin3_code":"","admin4_code":"","population":"4551","elevation":"","dem":"35","timezone":"Asia/Manila","modification_date":"2012-02-01"},{"geonameid":"1705117","name":"Lumuyon","asciiname":"Lumuyon","alternatenames":"Lomoyon,Lumayan,Lumuyon","latitude":"5.91583","longitude":"124.78694","feature_class":"P","feature_code":"PPL","country_code":"PH","cc2":"","admin1_code":"12","admin2_code":"M9","admin3_code":"","admin4_code":"","population":"3761","elevation":"","dem":"11","timezone":"Asia/Manila","modification_date":"2012-01-17"},{"geonameid":"1705144","name":"Lumil","asciiname":"Lumil","alternatenames":"Lumil","latitude":"14.18144","longitude":"121.00989","feature_class":"P","feature_code":"PPL","country_code":"PH","cc2":"","admin1_code":"40","admin2_code":"20","admin3_code":"","admin4_code":"","population":"2512","elevation":"","dem":"381","timezone":"Asia/Manila","modification_date":"2013-07-05"},{"geonameid":"1705166","name":"Lumbia","asciiname":"Lumbia","alternatenames":"","latitude":"8.39583","longitude":"124.59389","feature_class":"P","feature_code":"PPL","country_code":"PH","cc2":"","admin1_code":"10","admin2_code":"B2","admin3_code":"","admin4_code":"","population":"7863","elevation":"","dem":"154","timezone":"Asia/Manila","modification_date":"2014-03-01"},{"geonameid":"1705169","name":"Lumbayao","asciiname":"Lumbayao","alternatenames":"Lumbayao","latitude":"8.01667","longitude":"125.16667","feature_class":"P","feature_code":"PPL","country_code":"PH","cc2":"","admin1_code":"10","admin2_code":"12","admin3_code":"","admin4_code":"","population":"3693","elevation":"","dem":"327","timezone":"Asia/Manila","modification_date":"2012-02-01"},{"geonameid":"1705171","name":"Lumbayanague","asciiname":"Lumbayanague","alternatenames":"Lumbayanague","latitude":"7.7825","longitude":"124.28","feature_class":"P","feature_code":"PPLA3","country_code":"PH","cc2":"","admin1_code":"14","admin2_code":"35","admin3_code":"1705172","admin4_code":"","population":"0","elevation":"","dem":"802","timezone":"Asia/Manila","modification_date":"2011-07-31"},{"geonameid":"1705174","name":"Lumbayan","asciiname":"Lumbayan","alternatenames":"Lumbayao","latitude":"6.94722","longitude":"122.14111","feature_class":"P","feature_code":"PPL","country_code":"PH","cc2":"","admin1_code":"09","admin2_code":"G7","admin3_code":"","admin4_code":"","population":"2557","elevation":"","dem":"15","timezone":"Asia/Manila","modification_date":"2014-03-01"},{"geonameid":"1705177","name":"Lumbatan","asciiname":"Lumbatan","alternatenames":"Luinbatan,Lumbatan","latitude":"7.785","longitude":"124.25639","feature_class":"P","feature_code":"PPLA3","country_code":"PH","cc2":"PH","admin1_code":"14","admin2_code":"35","admin3_code":"1705179","admin4_code":"","population":"0","elevation":"","dem":"737","timezone":"Asia/Manila","modification_date":"2011-07-31"},{"geonameid":"1705183","name":"Lumbangan","asciiname":"Lumbangan","alternatenames":"Lumbangan","latitude":"14.0524","longitude":"120.6667","feature_class":"P","feature_code":"PPL","country_code":"PH","cc2":"","admin1_code":"40","admin2_code":"09","admin3_code":"","admin4_code":"","population":"7071","elevation":"","dem":"21","timezone":"Asia/Manila","modification_date":"2012-01-17"},{"geonameid":"1705190","name":"Lumbang","asciiname":"Lumbang","alternatenames":"Lumban,Lumbang","latitude":"14.2973","longitude":"121.4598","feature_class":"P","feature_code":"PPL","country_code":"PH","cc2":"","admin1_code":"40","admin2_code":"33","admin3_code":"","admin4_code":"","population":"30269","elevation":"","dem":"9","timezone":"Asia/Manila","modification_date":"2012-01-17"},{"geonameid":"1705222","name":"Lumatil","asciiname":"Lumatil","alternatenames":"Lumatil","latitude":"5.87472","longitude":"124.88833","feature_class":"P","feature_code":"PPL","country_code":"PH","cc2":"","admin1_code":"12","admin2_code":"M9","admin3_code":"","admin4_code":"","population":"2172","elevation":"","dem":"17","timezone":"Asia/Manila","modification_date":"2012-02-01"},{"geonameid":"1705225","name":"Lumazal","asciiname":"Lumazal","alternatenames":"Lumasal,Lumazal","latitude":"5.88528","longitude":"124.84944","feature_class":"P","feature_code":"PPL","country_code":"PH","cc2":"","admin1_code":"12","admin2_code":"M9","admin3_code":"","admin4_code":"","population":"3876","elevation":"","dem":"10","timezone":"Asia/Manila","modification_date":"2012-01-17"},{"geonameid":"1705240","name":"Lumangbayan","asciiname":"Lumangbayan","alternatenames":"Lumangbayan","latitude":"13.419","longitude":"121.0348","feature_class":"P","feature_code":"PPL","country_code":"PH","cc2":"","admin1_code":"41","admin2_code":"41","admin3_code":"","admin4_code":"","population":"2227","elevation":"","dem":"9","timezone":"Asia/Manila","modification_date":"2012-01-17"},{"geonameid":"1705243","name":"Lumangbayan","asciiname":"Lumangbayan","alternatenames":"Lumangbayan","latitude":"13.0483","longitude":"121.49872","feature_class":"P","feature_code":"PPL","country_code":"PH","cc2":"","admin1_code":"41","admin2_code":"41","admin3_code":"","admin4_code":"","population":"2552","elevation":"","dem":"8","timezone":"Asia/Manila","modification_date":"2012-01-17"},{"geonameid":"1705271","name":"Luksuhin","asciiname":"Luksuhin","alternatenames":"Luksuhin","latitude":"14.09667","longitude":"120.88083","feature_class":"P","feature_code":"PPL","country_code":"PH","cc2":"","admin1_code":"40","admin2_code":"20","admin3_code":"","admin4_code":"","population":"4614","elevation":"","dem":"569","timezone":"Asia/Manila","modification_date":"2012-02-01"},{"geonameid":"1705276","name":"Luklukan","asciiname":"Luklukan","alternatenames":"Luklukan","latitude":"14.3254","longitude":"122.7124","feature_class":"P","feature_code":"PPL","country_code":"PH","cc2":"","admin1_code":"05","admin2_code":"15","admin3_code":"","admin4_code":"","population":"4335","elevation":"","dem":"8","timezone":"Asia/Manila","modification_date":"2012-01-17"},{"geonameid":"1705289","name":"Luisiana","asciiname":"Luisiana","alternatenames":"Luisiana","latitude":"14.185","longitude":"121.5109","feature_class":"P","feature_code":"PPLA3","country_code":"PH","cc2":"","admin1_code":"40","admin2_code":"33","admin3_code":"1705291","admin4_code":"","population":"4554","elevation":"","dem":"387","timezone":"Asia/Manila","modification_date":"2011-07-31"},{"geonameid":"1705300","name":"Lugus","asciiname":"Lugus","alternatenames":"Lugus","latitude":"5.70361","longitude":"120.82028","feature_class":"P","feature_code":"PPL","country_code":"PH","cc2":"","admin1_code":"14","admin2_code":"60","admin3_code":"","admin4_code":"","population":"7167","elevation":"","dem":"8","timezone":"Asia/Manila","modification_date":"2012-01-17"},{"geonameid":"1705303","name":"Lugui","asciiname":"Lugui","alternatenames":"Lugui","latitude":"14.1131","longitude":"122.7935","feature_class":"P","feature_code":"PPL","country_code":"PH","cc2":"","admin1_code":"05","admin2_code":"15","admin3_code":"","admin4_code":"","population":"2308","elevation":"","dem":"111","timezone":"Asia/Manila","modification_date":"2012-01-17"},{"geonameid":"1705312","name":"Lugo","asciiname":"Lugo","alternatenames":"Lugo","latitude":"10.81672","longitude":"123.98626","feature_class":"P","feature_code":"PPL","country_code":"PH","cc2":"","admin1_code":"07","admin2_code":"21","admin3_code":"","admin4_code":"","population":"2372","elevation":"","dem":"258","timezone":"Asia/Manila","modification_date":"2012-05-05"},{"geonameid":"1705330","name":"Lugait","asciiname":"Lugait","alternatenames":"Lugait","latitude":"8.34111","longitude":"124.25917","feature_class":"P","feature_code":"PPLA3","country_code":"PH","cc2":"","admin1_code":"10","admin2_code":"43","admin3_code":"1705331","admin4_code":"","population":"7370","elevation":"","dem":"7","timezone":"Asia/Manila","modification_date":"2011-07-31"},{"geonameid":"1705344","name":"Lucsuhin","asciiname":"Lucsuhin","alternatenames":"Lucsuhin,Luksuhin","latitude":"13.88186","longitude":"120.64131","feature_class":"P","feature_code":"PPL","country_code":"PH","cc2":"","admin1_code":"40","admin2_code":"09","admin3_code":"","admin4_code":"","population":"4240","elevation":"","dem":"14","timezone":"Asia/Manila","modification_date":"2012-01-17"},{"geonameid":"1705349","name":"Locmayan","asciiname":"Locmayan","alternatenames":"Locmayan,Lucmayan","latitude":"10.4726","longitude":"122.519","feature_class":"P","feature_code":"PPL","country_code":"PH","cc2":"","admin1_code":"06","admin2_code":"J3","admin3_code":"","admin4_code":"","population":"2024","elevation":"","dem":"38","timezone":"Asia/Manila","modification_date":"2012-01-17"},{"geonameid":"1705353","name":"Lucero","asciiname":"Lucero","alternatenames":"Lucero","latitude":"16.4051","longitude":"119.9124","feature_class":"P","feature_code":"PPL","country_code":"PH","cc2":"","admin1_code":"01","admin2_code":"51","admin3_code":"","admin4_code":"","population":"2990","elevation":"","dem":"8","timezone":"Asia/Manila","modification_date":"2012-01-17"},{"geonameid":"1705354","name":"Lucero","asciiname":"Lucero","alternatenames":"Lucero","latitude":"11.4542","longitude":"122.46431","feature_class":"P","feature_code":"PPL","country_code":"PH","cc2":"","admin1_code":"06","admin2_code":"18","admin3_code":"","admin4_code":"","population":"2155","elevation":"","dem":"69","timezone":"Asia/Manila","modification_date":"2012-01-17"},{"geonameid":"1705357","name":"Lucena","asciiname":"Lucena","alternatenames":"Dakbayan sa Lucena,Kota Lucena,Lucena,Lucena City,Lucena Lakanbalen,Lungsod ng Lucena,Lusena,Siudad ti Lucena,lu sai na,lusena,lwsyna  flpayn,Лусена,لوسینا، فلپائن,卢塞纳,루세나","latitude":"13.93139","longitude":"121.61722","feature_class":"P","feature_code":"PPLA2","country_code":"PH","cc2":"","admin1_code":"40","admin2_code":"H2","admin3_code":"","admin4_code":"","population":"228758","elevation":"","dem":"9","timezone":"Asia/Manila","modification_date":"2012-06-08"},{"geonameid":"1705367","name":"Lucban","asciiname":"Lucban","alternatenames":"Lucban","latitude":"14.11356","longitude":"121.55574","feature_class":"P","feature_code":"PPL","country_code":"PH","cc2":"","admin1_code":"40","admin2_code":"H2","admin3_code":"1705370","admin4_code":"","population":"30992","elevation":"","dem":"431","timezone":"Asia/Manila","modification_date":"2014-09-19"},{"geonameid":"1705372","name":"Lukatan","asciiname":"Lukatan","alternatenames":"Lucatan,Lukatan","latitude":"7.0096","longitude":"126.42118","feature_class":"P","feature_code":"PPL","country_code":"PH","cc2":"","admin1_code":"11","admin2_code":"26","admin3_code":"","admin4_code":"","population":"2557","elevation":"","dem":"95","timezone":"Asia/Manila","modification_date":"2012-01-17"},{"geonameid":"1705376","name":"Lucapon","asciiname":"Lucapon","alternatenames":"Lacapon,Locapon,Lucapon","latitude":"15.6998","longitude":"119.932","feature_class":"P","feature_code":"PPL","country_code":"PH","cc2":"","admin1_code":"03","admin2_code":"64","admin3_code":"","admin4_code":"","population":"5767","elevation":"","dem":"9","timezone":"Asia/Manila","modification_date":"2012-01-17"},{"geonameid":"1705378","name":"Lucap","asciiname":"Lucap","alternatenames":"Lucap","latitude":"16.19038","longitude":"120.00221","feature_class":"P","feature_code":"PPL","country_code":"PH","cc2":"","admin1_code":"01","admin2_code":"51","admin3_code":"","admin4_code":"","population":"4935","elevation":"","dem":"8","timezone":"Asia/Manila","modification_date":"2013-03-05"},{"geonameid":"1705391","name":"Lubuagan","asciiname":"Lubuagan","alternatenames":"Lubuagan","latitude":"17.3548","longitude":"121.1747","feature_class":"P","feature_code":"PPL","country_code":"PH","cc2":"","admin1_code":"15","admin2_code":"32","admin3_code":"","admin4_code":"","population":"2893","elevation":"","dem":"816","timezone":"Asia/Manila","modification_date":"2012-01-17"},{"geonameid":"1705424","name":"Lubigan","asciiname":"Lubigan","alternatenames":"Lubigan,Lubigan Sr","latitude":"13.742","longitude":"122.9373","feature_class":"P","feature_code":"PPL","country_code":"PH","cc2":"","admin1_code":"05","admin2_code":"16","admin3_code":"","admin4_code":"","population":"2444","elevation":"","dem":"125","timezone":"Asia/Manila","modification_date":"2012-01-17"},{"geonameid":"1705435","name":"Lucban","asciiname":"Lucban","alternatenames":"Luban,Lubban,Lucban","latitude":"18.33644","longitude":"121.43082","feature_class":"P","feature_code":"PPL","country_code":"PH","cc2":"","admin1_code":"02","admin2_code":"14","admin3_code":"","admin4_code":"","population":"2574","elevation":"","dem":"14","timezone":"Asia/Manila","modification_date":"2012-08-04"},{"geonameid":"1705440","name":"Lubao","asciiname":"Lubao","alternatenames":"Lubao","latitude":"14.9405","longitude":"120.6011","feature_class":"P","feature_code":"PPLA3","country_code":"PH","cc2":"","admin1_code":"03","admin2_code":"50","admin3_code":"1705441","admin4_code":"","population":"55645","elevation":"","dem":"11","timezone":"Asia/Manila","modification_date":"2011-07-31"},{"geonameid":"1705448","name":"Lubang","asciiname":"Lubang","alternatenames":"Lubang","latitude":"13.85835","longitude":"120.12402","feature_class":"P","feature_code":"PPLA3","country_code":"PH","cc2":"","admin1_code":"41","admin2_code":"40","admin3_code":"1705454","admin4_code":"","population":"5750","elevation":"","dem":"10","timezone":"Asia/Manila","modification_date":"2011-07-31"},{"geonameid":"1705460","name":"Luba","asciiname":"Luba","alternatenames":"Luba","latitude":"17.318","longitude":"120.6945","feature_class":"P","feature_code":"PPLA3","country_code":"PH","cc2":"","admin1_code":"15","admin2_code":"01","admin3_code":"1705462","admin4_code":"","population":"0","elevation":"","dem":"175","timezone":"Asia/Manila","modification_date":"2011-07-31"},{"geonameid":"1705489","name":"Loyola","asciiname":"Loyola","alternatenames":"Layola,Loyola","latitude":"8.33492","longitude":"126.33366","feature_class":"P","feature_code":"PPL","country_code":"PH","cc2":"","admin1_code":"13","admin2_code":"62","admin3_code":"","admin4_code":"","population":"2673","elevation":"","dem":"18","timezone":"Asia/Manila","modification_date":"2012-09-06"},{"geonameid":"1705503","name":"Lourdes","asciiname":"Lourdes","alternatenames":"Lourdes","latitude":"15.0193","longitude":"120.8511","feature_class":"P","feature_code":"PPL","country_code":"PH","cc2":"","admin1_code":"03","admin2_code":"50","admin3_code":"","admin4_code":"","population":"2370","elevation":"","dem":"15","timezone":"Asia/Manila","modification_date":"2012-01-17"},{"geonameid":"1705505","name":"Lourdes","asciiname":"Lourdes","alternatenames":"Lourdes","latitude":"14.96667","longitude":"120.68333","feature_class":"P","feature_code":"PPL","country_code":"PH","cc2":"","admin1_code":"03","admin2_code":"50","admin3_code":"","admin4_code":"","population":"11155","elevation":"","dem":"7","timezone":"Asia/Manila","modification_date":"2012-02-01"},{"geonameid":"1705509","name":"Lourdes","asciiname":"Lourdes","alternatenames":"Lourdes","latitude":"13.3899","longitude":"123.3735","feature_class":"P","feature_code":"PPL","country_code":"PH","cc2":"","admin1_code":"05","admin2_code":"16","admin3_code":"","admin4_code":"","population":"3791","elevation":"","dem":"16","timezone":"Asia/Manila","modification_date":"2012-01-17"},{"geonameid":"1705516","name":"Lourdes","asciiname":"Lourdes","alternatenames":"Lourdes","latitude":"8.525","longitude":"124.43222","feature_class":"P","feature_code":"PPL","country_code":"PH","cc2":"","admin1_code":"10","admin2_code":"43","admin3_code":"","admin4_code":"","population":"3198","elevation":"","dem":"50","timezone":"Asia/Manila","modification_date":"2012-01-17"},{"geonameid":"1705536","name":"Los Baños","asciiname":"Los Banos","alternatenames":"Los Banos,Los Baños,Los-Ban'os,Лос-Баньос","latitude":"14.17025","longitude":"121.24181","feature_class":"P","feature_code":"PPLA3","country_code":"PH","cc2":"","admin1_code":"40","admin2_code":"33","admin3_code":"1705539","admin4_code":"","population":"95750","elevation":"","dem":"32","timezone":"Asia/Manila","modification_date":"2015-01-17"},{"geonameid":"1705540","name":"Los Arcos","asciiname":"Los Arcos","alternatenames":"Los Arcos","latitude":"8.63278","longitude":"125.98556","feature_class":"P","feature_code":"PPL","country_code":"PH","cc2":"","admin1_code":"13","admin2_code":"03","admin3_code":"","admin4_code":"","population":"2234","elevation":"","dem":"56","timezone":"Asia/Manila","modification_date":"2012-02-01"},{"geonameid":"1705545","name":"Los Angeles","asciiname":"Los Angeles","alternatenames":"Angeles","latitude":"9.0125","longitude":"125.60806","feature_class":"P","feature_code":"PPL","country_code":"PH","cc2":"","admin1_code":"13","admin2_code":"02","admin3_code":"","admin4_code":"","population":"4054","elevation":"","dem":"16","timezone":"Asia/Manila","modification_date":"2015-01-27"},{"geonameid":"1705550","name":"Loreto","asciiname":"Loreto","alternatenames":"","latitude":"10.36361","longitude":"125.57306","feature_class":"P","feature_code":"PPLA3","country_code":"PH","cc2":"","admin1_code":"13","admin2_code":"61","admin3_code":"1705553","admin4_code":"","population":"5397","elevation":"","dem":"56","timezone":"Asia/Manila","modification_date":"2011-07-31"},{"geonameid":"1705552","name":"Loreto","asciiname":"Loreto","alternatenames":"Loreto","latitude":"8.18694","longitude":"125.85306","feature_class":"P","feature_code":"PPL","country_code":"PH","cc2":"","admin1_code":"13","admin2_code":"03","admin3_code":"","admin4_code":"","population":"5730","elevation":"","dem":"25","timezone":"Asia/Manila","modification_date":"2012-01-17"},{"geonameid":"1705563","name":"Lupo","asciiname":"Lupo","alternatenames":"Lapo,Lopo,Lupo","latitude":"11.5076","longitude":"122.4791","feature_class":"P","feature_code":"PPL","country_code":"PH","cc2":"","admin1_code":"06","admin2_code":"04","admin3_code":"","admin4_code":"","population":"2291","elevation":"","dem":"22","timezone":"Asia/Manila","modification_date":"2012-01-17"},{"geonameid":"1705567","name":"Lopez Jaena","asciiname":"Lopez Jaena","alternatenames":"Lopez Jaena","latitude":"10.8478","longitude":"123.4141","feature_class":"P","feature_code":"PPL","country_code":"PH","cc2":"","admin1_code":"06","admin2_code":"H3","admin3_code":"","admin4_code":"","population":"5573","elevation":"","dem":"66","timezone":"Asia/Manila","modification_date":"2012-08-04"},{"geonameid":"1705568","name":"Lopez Jaena","asciiname":"Lopez Jaena","alternatenames":"Lopez Jaena,Manella","latitude":"8.5528","longitude":"123.7615","feature_class":"P","feature_code":"PPL","country_code":"PH","cc2":"","admin1_code":"10","admin2_code":"42","admin3_code":"","admin4_code":"","population":"3575","elevation":"","dem":"19","timezone":"Asia/Manila","modification_date":"2012-01-17"},{"geonameid":"1705572","name":"Lopez","asciiname":"Lopez","alternatenames":"Lopez","latitude":"13.884","longitude":"122.2604","feature_class":"P","feature_code":"PPL","country_code":"PH","cc2":"","admin1_code":"40","admin2_code":"H2","admin3_code":"","admin4_code":"","population":"25752","elevation":"","dem":"9","timezone":"Asia/Manila","modification_date":"2012-06-05"},{"geonameid":"1705575","name":"Lope de Vega","asciiname":"Lope de Vega","alternatenames":"Lope de Vega,Lope de Vegas","latitude":"12.2983","longitude":"124.6238","feature_class":"P","feature_code":"PPL","country_code":"PH","cc2":"","admin1_code":"08","admin2_code":"67","admin3_code":"","admin4_code":"","population":"2532","elevation":"","dem":"25","timezone":"Asia/Manila","modification_date":"2012-01-17"},{"geonameid":"1705581","name":"Loon","asciiname":"Loon","alternatenames":"Loon","latitude":"9.7998","longitude":"123.7929","feature_class":"P","feature_code":"PPLA3","country_code":"PH","cc2":"","admin1_code":"07","admin2_code":"11","admin3_code":"1705582","admin4_code":"","population":"9484","elevation":"","dem":"24","timezone":"Asia/Manila","modification_date":"2011-07-31"},{"geonameid":"1705597","name":"Lookan","asciiname":"Lookan","alternatenames":"Lookan,Lookani,Luukan","latitude":"5.037","longitude":"120.1027","feature_class":"P","feature_code":"PPL","country_code":"PH","cc2":"","admin1_code":"14","admin2_code":"72","admin3_code":"","admin4_code":"","population":"2758","elevation":"","dem":"1","timezone":"Asia/Manila","modification_date":"2012-01-17"},{"geonameid":"1705609","name":"Looc","asciiname":"Looc","alternatenames":"Looc,Look","latitude":"8.84333","longitude":"124.79167","feature_class":"P","feature_code":"PPL","country_code":"PH","cc2":"","admin1_code":"10","admin2_code":"43","admin3_code":"","admin4_code":"","population":"2292","elevation":"","dem":"85","timezone":"Asia/Manila","modification_date":"2012-01-17"},{"geonameid":"1705639","name":"Looc","asciiname":"Looc","alternatenames":"Looc,Looe","latitude":"14.1648","longitude":"120.6293","feature_class":"P","feature_code":"PPL","country_code":"PH","cc2":"","admin1_code":"40","admin2_code":"09","admin3_code":"","admin4_code":"","population":"3092","elevation":"","dem":"12","timezone":"Asia/Manila","modification_date":"2012-01-17"},{"geonameid":"1705641","name":"Looc","asciiname":"Looc","alternatenames":"Looc,San Rafael","latitude":"13.72036","longitude":"120.24982","feature_class":"P","feature_code":"PPLA3","country_code":"PH","cc2":"","admin1_code":"41","admin2_code":"40","admin3_code":"1705667","admin4_code":"","population":"2627","elevation":"","dem":"9","timezone":"Asia/Manila","modification_date":"2011-07-31"},{"geonameid":"1705645","name":"Looc","asciiname":"Looc","alternatenames":"Looc","latitude":"12.2605","longitude":"121.9926","feature_class":"P","feature_code":"PPLA3","country_code":"PH","cc2":"","admin1_code":"41","admin2_code":"54","admin3_code":"1705668","admin4_code":"","population":"3389","elevation":"","dem":"7","timezone":"Asia/Manila","modification_date":"2011-07-31"},{"geonameid":"1705650","name":"Looc","asciiname":"Looc","alternatenames":"Lo-ok,Looc","latitude":"11.4788","longitude":"124.5542","feature_class":"P","feature_code":"PPL","country_code":"PH","cc2":"","admin1_code":"08","admin2_code":"H9","admin3_code":"","admin4_code":"","population":"2209","elevation":"","dem":"7","timezone":"Asia/Manila","modification_date":"2012-01-17"},{"geonameid":"1705679","name":"Lono","asciiname":"Lono","alternatenames":"Lono,Lonoy","latitude":"11.51361","longitude":"122.72972","feature_class":"P","feature_code":"PPL","country_code":"PH","cc2":"","admin1_code":"06","admin2_code":"18","admin3_code":"","admin4_code":"","population":"2096","elevation":"","dem":"36","timezone":"Asia/Manila","modification_date":"2012-08-04"},{"geonameid":"1705680","name":"Lonoy","asciiname":"Lonoy","alternatenames":"Lonoy","latitude":"11.51222","longitude":"122.55333","feature_class":"P","feature_code":"PPL","country_code":"PH","cc2":"","admin1_code":"06","admin2_code":"18","admin3_code":"","admin4_code":"","population":"3076","elevation":"","dem":"17","timezone":"Asia/Manila","modification_date":"2012-02-01"},{"geonameid":"1705702","name":"Longos","asciiname":"Longos","alternatenames":"Longos","latitude":"16.10734","longitude":"120.39658","feature_class":"P","feature_code":"PPL","country_code":"PH","cc2":"","admin1_code":"01","admin2_code":"51","admin3_code":"","admin4_code":"","population":"2638","elevation":"","dem":"6","timezone":"Asia/Manila","modification_date":"2013-02-08"},{"geonameid":"1705750","name":"Lomboy","asciiname":"Lomboy","alternatenames":"Lomboy","latitude":"15.49255","longitude":"120.71723","feature_class":"P","feature_code":"PPL","country_code":"PH","cc2":"","admin1_code":"03","admin2_code":"63","admin3_code":"","admin4_code":"","population":"3282","elevation":"","dem":"25","timezone":"Asia/Manila","modification_date":"2012-01-17"},{"geonameid":"1705759","name":"Lombog","asciiname":"Lombog","alternatenames":"Lombog","latitude":"9.7788","longitude":"124.4174","feature_class":"P","feature_code":"PPL","country_code":"PH","cc2":"","admin1_code":"07","admin2_code":"11","admin3_code":"","admin4_code":"","population":"2276","elevation":"","dem":"217","timezone":"Asia/Manila","modification_date":"2012-01-17"},{"geonameid":"1705760","name":"Lombocan","asciiname":"Lombocan","alternatenames":"","latitude":"9.00767","longitude":"125.50558","feature_class":"P","feature_code":"PPLX","country_code":"PH","cc2":"","admin1_code":"13","admin2_code":"02","admin3_code":"","admin4_code":"","population":"4521","elevation":"","dem":"6","timezone":"Asia/Manila","modification_date":"2015-02-01"},{"geonameid":"1705771","name":"Loma de Gato","asciiname":"Loma de Gato","alternatenames":"Loma de Gato","latitude":"14.78869","longitude":"120.99889","feature_class":"P","feature_code":"PPL","country_code":"PH","cc2":"","admin1_code":"03","admin2_code":"13","admin3_code":"","admin4_code":"","population":"21990","elevation":"","dem":"47","timezone":"Asia/Manila","modification_date":"2012-07-04"},{"geonameid":"1705788","name":"Loqueb Este","asciiname":"Loqueb Este","alternatenames":"Lokeb,Loqueb,Loqueb Este","latitude":"15.94481","longitude":"120.44607","feature_class":"P","feature_code":"PPL","country_code":"PH","cc2":"","admin1_code":"01","admin2_code":"51","admin3_code":"","admin4_code":"","population":"6141","elevation":"","dem":"17","timezone":"Asia/Manila","modification_date":"2013-01-10"},{"geonameid":"1705804","name":"Logon","asciiname":"Logon","alternatenames":"Logan,Logon","latitude":"11.3303","longitude":"124.1146","feature_class":"P","feature_code":"PPL","country_code":"PH","cc2":"","admin1_code":"07","admin2_code":"21","admin3_code":"","admin4_code":"","population":"3644","elevation":"","dem":"6","timezone":"Asia/Manila","modification_date":"2012-01-17"},{"geonameid":"1705858","name":"Lobong","asciiname":"Lobong","alternatenames":"Lobong","latitude":"16.0815","longitude":"120.4704","feature_class":"P","feature_code":"PPL","country_code":"PH","cc2":"","admin1_code":"01","admin2_code":"51","admin3_code":"","admin4_code":"","population":"3641","elevation":"","dem":"29","timezone":"Asia/Manila","modification_date":"2012-01-17"},{"geonameid":"1705871","name":"Loboc","asciiname":"Loboc","alternatenames":"Laboc,Loboc","latitude":"9.63833","longitude":"124.03482","feature_class":"P","feature_code":"PPLA3","country_code":"PH","cc2":"","admin1_code":"07","admin2_code":"11","admin3_code":"1705873","admin4_code":"","population":"16312","elevation":"0","dem":"47","timezone":"Asia/Manila","modification_date":"2015-04-12"},{"geonameid":"1705881","name":"Lobo","asciiname":"Lobo","alternatenames":"Lobo","latitude":"13.6481","longitude":"121.2112","feature_class":"P","feature_code":"PPLA3","country_code":"PH","cc2":"","admin1_code":"40","admin2_code":"09","admin3_code":"1705884","admin4_code":"","population":"3052","elevation":"","dem":"17","timezone":"Asia/Manila","modification_date":"2011-07-31"},{"geonameid":"1705897","name":"Loay","asciiname":"Loay","alternatenames":"Loay","latitude":"9.6006","longitude":"124.0142","feature_class":"P","feature_code":"PPLA3","country_code":"PH","cc2":"","admin1_code":"07","admin2_code":"11","admin3_code":"1705898","admin4_code":"","population":"0","elevation":"0","dem":"17","timezone":"Asia/Manila","modification_date":"2011-07-31"},{"geonameid":"1705905","name":"Loacan","asciiname":"Loacan","alternatenames":"Loacan","latitude":"16.55","longitude":"120.66667","feature_class":"P","feature_code":"PPL","country_code":"PH","cc2":"","admin1_code":"15","admin2_code":"10","admin3_code":"","admin4_code":"","population":"6371","elevation":"","dem":"1045","timezone":"Asia/Manila","modification_date":"2012-02-01"},{"geonameid":"1705910","name":"Llorente","asciiname":"Llorente","alternatenames":"Llorente,Lorente","latitude":"11.41194","longitude":"125.54583","feature_class":"P","feature_code":"PPL","country_code":"PH","cc2":"","admin1_code":"08","admin2_code":"23","admin3_code":"","admin4_code":"","population":"7908","elevation":"","dem":"11","timezone":"Asia/Manila","modification_date":"2012-01-17"},{"geonameid":"1705922","name":"Llanera","asciiname":"Llanera","alternatenames":"Llanera","latitude":"15.6635","longitude":"121.0182","feature_class":"P","feature_code":"PPLA3","country_code":"PH","cc2":"","admin1_code":"03","admin2_code":"47","admin3_code":"1705923","admin4_code":"","population":"5121","elevation":"","dem":"70","timezone":"Asia/Manila","modification_date":"2011-07-31"},{"geonameid":"1705975","name":"Little Baguio","asciiname":"Little Baguio","alternatenames":"Little Baguio","latitude":"7.89389","longitude":"125.27639","feature_class":"P","feature_code":"PPL","country_code":"PH","cc2":"","admin1_code":"10","admin2_code":"12","admin3_code":"","admin4_code":"","population":"4926","elevation":"","dem":"878","timezone":"Asia/Manila","modification_date":"2012-02-01"},{"geonameid":"1705985","name":"Litayan","asciiname":"Litayan","alternatenames":"Litayan,Litayen","latitude":"7.33583","longitude":"124.03472","feature_class":"P","feature_code":"PPL","country_code":"PH","cc2":"","admin1_code":"14","admin2_code":"56","admin3_code":"","admin4_code":"","population":"5294","elevation":"","dem":"36","timezone":"Asia/Manila","modification_date":"2012-01-17"},{"geonameid":"1706034","name":"Lipayran","asciiname":"Lipayran","alternatenames":"Lipayran","latitude":"11.0593","longitude":"123.6342","feature_class":"P","feature_code":"PPL","country_code":"PH","cc2":"","admin1_code":"07","admin2_code":"21","admin3_code":"","admin4_code":"","population":"6813","elevation":"","dem":"5","timezone":"Asia/Manila","modification_date":"2012-01-17"},{"geonameid":"1706044","name":"Lipay","asciiname":"Lipay","alternatenames":"Lipay","latitude":"15.4561","longitude":"119.9208","feature_class":"P","feature_code":"PPL","country_code":"PH","cc2":"","admin1_code":"03","admin2_code":"64","admin3_code":"","admin4_code":"","population":"2717","elevation":"","dem":"12","timezone":"Asia/Manila","modification_date":"2012-01-17"},{"geonameid":"1706084","name":"Lipahan","asciiname":"Lipahan","alternatenames":"Lipahan","latitude":"13.83687","longitude":"121.40167","feature_class":"P","feature_code":"PPLX","country_code":"PH","cc2":"","admin1_code":"40","admin2_code":"H2","admin3_code":"","admin4_code":"","population":"3403","elevation":"","dem":"18","timezone":"Asia/Manila","modification_date":"2015-04-26"},{"geonameid":"1706090","name":"Lipa City","asciiname":"Lipa City","alternatenames":"Ciudad ti Lipa,Lipa,Lipa City,Липа","latitude":"13.9411","longitude":"121.1631","feature_class":"P","feature_code":"PPL","country_code":"PH","cc2":"","admin1_code":"40","admin2_code":"09","admin3_code":"","admin4_code":"","population":"212287","elevation":"","dem":"325","timezone":"Asia/Manila","modification_date":"2012-07-04"},{"geonameid":"1706093","name":"Liozon","asciiname":"Liozon","alternatenames":"Lioson,Liozon","latitude":"15.3993","longitude":"119.933","feature_class":"P","feature_code":"PPL","country_code":"PH","cc2":"","admin1_code":"03","admin2_code":"64","admin3_code":"","admin4_code":"","population":"3245","elevation":"","dem":"11","timezone":"Asia/Manila","modification_date":"2012-01-17"},{"geonameid":"1706127","name":"Lintangan","asciiname":"Lintangan","alternatenames":"Lintangan,Litangan","latitude":"7.21554","longitude":"121.952","feature_class":"P","feature_code":"PPL","country_code":"PH","cc2":"","admin1_code":"09","admin2_code":"65","admin3_code":"","admin4_code":"","population":"3211","elevation":"","dem":"12","timezone":"Asia/Manila","modification_date":"2012-01-17"},{"geonameid":"1706148","name":"Linoan","asciiname":"Linoan","alternatenames":"Linoan","latitude":"7.626","longitude":"125.9741","feature_class":"P","feature_code":"PPL","country_code":"PH","cc2":"","admin1_code":"11","admin2_code":"I6","admin3_code":"","admin4_code":"","population":"2952","elevation":"","dem":"90","timezone":"Asia/Manila","modification_date":"2012-01-17"},{"geonameid":"1706152","name":"Linmansangan","asciiname":"Linmansangan","alternatenames":"Linmansangan","latitude":"15.8298","longitude":"120.29593","feature_class":"P","feature_code":"PPL","country_code":"PH","cc2":"","admin1_code":"01","admin2_code":"51","admin3_code":"","admin4_code":"","population":"3872","elevation":"","dem":"15","timezone":"Asia/Manila","modification_date":"2013-01-10"},{"geonameid":"1706173","name":"Lingion","asciiname":"Lingion","alternatenames":"Lingion","latitude":"8.18806","longitude":"124.60972","feature_class":"P","feature_code":"PPL","country_code":"PH","cc2":"","admin1_code":"10","admin2_code":"12","admin3_code":"","admin4_code":"","population":"4321","elevation":"","dem":"460","timezone":"Asia/Manila","modification_date":"2012-01-17"},{"geonameid":"1706176","name":"Lingig","asciiname":"Lingig","alternatenames":"Lingig","latitude":"8.03889","longitude":"126.4125","feature_class":"P","feature_code":"PPLA3","country_code":"PH","cc2":"","admin1_code":"13","admin2_code":"62","admin3_code":"1706177","admin4_code":"","population":"6400","elevation":"","dem":"8","timezone":"Asia/Manila","modification_date":"2011-07-31"},{"geonameid":"1706188","name":"Lingayen","asciiname":"Lingayen","alternatenames":"Lingayen","latitude":"16.02182","longitude":"120.23194","feature_class":"P","feature_code":"PPLA3","country_code":"PH","cc2":"","admin1_code":"01","admin2_code":"51","admin3_code":"1706191","admin4_code":"","population":"56580","elevation":"","dem":"9","timezone":"Asia/Manila","modification_date":"2011-07-31"},{"geonameid":"1706199","name":"Lingating","asciiname":"Lingating","alternatenames":"Lingating","latitude":"8.33167","longitude":"124.62889","feature_class":"P","feature_code":"PPL","country_code":"PH","cc2":"","admin1_code":"10","admin2_code":"12","admin3_code":"","admin4_code":"","population":"3774","elevation":"","dem":"277","timezone":"Asia/Manila","modification_date":"2012-01-17"},{"geonameid":"1706201","name":"Lingasan","asciiname":"Lingasan","alternatenames":"Lingasad,Lingasan","latitude":"8.4966","longitude":"123.3997","feature_class":"P","feature_code":"PPL","country_code":"PH","cc2":"","admin1_code":"09","admin2_code":"65","admin3_code":"","admin4_code":"","population":"2420","elevation":"","dem":"28","timezone":"Asia/Manila","modification_date":"2012-01-17"},{"geonameid":"1706229","name":"Linay","asciiname":"Linay","alternatenames":"","latitude":"8.51667","longitude":"123.13333","feature_class":"P","feature_code":"PPL","country_code":"PH","cc2":"","admin1_code":"09","admin2_code":"65","admin3_code":"","admin4_code":"","population":"2656","elevation":"","dem":"10","timezone":"Asia/Manila","modification_date":"2010-08-14"},{"geonameid":"1706242","name":"San Miguel","asciiname":"San Miguel","alternatenames":"Linapacan,San Miguel","latitude":"11.4924","longitude":"119.8703","feature_class":"P","feature_code":"PPL","country_code":"PH","cc2":"","admin1_code":"41","admin2_code":"49","admin3_code":"","admin4_code":"","population":"2972","elevation":"","dem":"16","timezone":"Asia/Manila","modification_date":"2012-01-17"},{"geonameid":"1706250","name":"Linaon","asciiname":"Linaon","alternatenames":"Linao,Linaon","latitude":"9.9499","longitude":"122.4483","feature_class":"P","feature_code":"PPL","country_code":"PH","cc2":"","admin1_code":"06","admin2_code":"H3","admin3_code":"","admin4_code":"","population":"3669","elevation":"","dem":"13","timezone":"Asia/Manila","modification_date":"2012-01-17"},{"geonameid":"1706272","name":"Linao","asciiname":"Linao","alternatenames":"Linao","latitude":"7.16778","longitude":"124.9675","feature_class":"P","feature_code":"PPL","country_code":"PH","cc2":"","admin1_code":"12","admin2_code":"57","admin3_code":"","admin4_code":"","population":"4489","elevation":"","dem":"79","timezone":"Asia/Manila","modification_date":"2012-02-01"},{"geonameid":"1706273","name":"Linao","asciiname":"Linao","alternatenames":"Linao","latitude":"7.0172","longitude":"125.992","feature_class":"P","feature_code":"PPL","country_code":"PH","cc2":"","admin1_code":"11","admin2_code":"26","admin3_code":"","admin4_code":"","population":"2571","elevation":"","dem":"14","timezone":"Asia/Manila","modification_date":"2012-01-17"},{"geonameid":"1706282","name":"Linan","asciiname":"Linan","alternatenames":"Linan","latitude":"6.43","longitude":"124.97556","feature_class":"P","feature_code":"PPL","country_code":"PH","cc2":"","admin1_code":"12","admin2_code":"70","admin3_code":"","admin4_code":"","population":"3160","elevation":"","dem":"224","timezone":"Asia/Manila","modification_date":"2012-02-01"},{"geonameid":"1706287","name":"Linamon","asciiname":"Linamon","alternatenames":"Linamon,Tomas Cabili","latitude":"8.18603","longitude":"124.16276","feature_class":"P","feature_code":"PPL","country_code":"PH","cc2":"","admin1_code":"12","admin2_code":"34","admin3_code":"1706288","admin4_code":"","population":"6848","elevation":"","dem":"7","timezone":"Asia/Manila","modification_date":"2015-01-17"},{"geonameid":"1706298","name":"Linabuan Sur","asciiname":"Linabuan Sur","alternatenames":"Linabuan,Linabuan Sur","latitude":"11.65111","longitude":"122.345","feature_class":"P","feature_code":"PPL","country_code":"PH","cc2":"","admin1_code":"06","admin2_code":"04","admin3_code":"","admin4_code":"","population":"2789","elevation":"","dem":"18","timezone":"Asia/Manila","modification_date":"2012-01-17"},{"geonameid":"1706299","name":"Linabuan","asciiname":"Linabuan","alternatenames":"Linabuan","latitude":"11.651","longitude":"122.3575","feature_class":"P","feature_code":"PPL","country_code":"PH","cc2":"","admin1_code":"06","admin2_code":"04","admin3_code":"","admin4_code":"","population":"3431","elevation":"","dem":"12","timezone":"Asia/Manila","modification_date":"2012-01-17"},{"geonameid":"1706303","name":"Linabo","asciiname":"Linabo","alternatenames":"Linabo","latitude":"8.05417","longitude":"125.155","feature_class":"P","feature_code":"PPL","country_code":"PH","cc2":"","admin1_code":"10","admin2_code":"12","admin3_code":"","admin4_code":"","population":"5849","elevation":"","dem":"359","timezone":"Asia/Manila","modification_date":"2012-01-17"},{"geonameid":"1706313","name":"Limulan","asciiname":"Limulan","alternatenames":"Limulan","latitude":"6.58528","longitude":"124.06189","feature_class":"P","feature_code":"PPL","country_code":"PH","cc2":"","admin1_code":"12","admin2_code":"71","admin3_code":"","admin4_code":"","population":"3933","elevation":"","dem":"11","timezone":"Asia/Manila","modification_date":"2012-01-17"},{"geonameid":"1706317","name":"Limpapa","asciiname":"Limpapa","alternatenames":"","latitude":"7.11972","longitude":"121.91056","feature_class":"P","feature_code":"PPL","country_code":"PH","cc2":"","admin1_code":"09","admin2_code":"66","admin3_code":"","admin4_code":"","population":"3751","elevation":"","dem":"176","timezone":"Asia/Manila","modification_date":"2010-08-14"},{"geonameid":"1706319","name":"Limot","asciiname":"Limot","alternatenames":"Limot","latitude":"7.0405","longitude":"126.27268","feature_class":"P","feature_code":"PPL","country_code":"PH","cc2":"","admin1_code":"11","admin2_code":"26","admin3_code":"","admin4_code":"","population":"2221","elevation":"","dem":"221","timezone":"Asia/Manila","modification_date":"2012-01-17"},{"geonameid":"1706325","name":"Limon","asciiname":"Limon","alternatenames":"Limon","latitude":"12.3","longitude":"122.01667","feature_class":"P","feature_code":"PPL","country_code":"PH","cc2":"","admin1_code":"41","admin2_code":"54","admin3_code":"","admin4_code":"","population":"2495","elevation":"","dem":"48","timezone":"Asia/Manila","modification_date":"2012-02-01"},{"geonameid":"1706326","name":"Limon","asciiname":"Limon","alternatenames":"Lemon,Limon","latitude":"11.2889","longitude":"124.5671","feature_class":"P","feature_code":"PPL","country_code":"PH","cc2":"","admin1_code":"08","admin2_code":"37","admin3_code":"","admin4_code":"","population":"2102","elevation":"","dem":"56","timezone":"Asia/Manila","modification_date":"2012-01-17"},{"geonameid":"1706332","name":"Limanancong","asciiname":"Limanancong","alternatenames":"Limanancang,Limanancany,Limanancong,Liminancong,Liminangcong,Liminangoon","latitude":"10.9893","longitude":"119.3593","feature_class":"P","feature_code":"PPL","country_code":"PH","cc2":"","admin1_code":"41","admin2_code":"49","admin3_code":"","admin4_code":"","population":"4790","elevation":"","dem":"8","timezone":"Asia/Manila","modification_date":"2012-01-17"},{"geonameid":"1706349","name":"Limbo","asciiname":"Limbo","alternatenames":"Limbo","latitude":"7.25167","longitude":"124.24389","feature_class":"P","feature_code":"PPL","country_code":"PH","cc2":"","admin1_code":"14","admin2_code":"56","admin3_code":"","admin4_code":"","population":"4842","elevation":"","dem":"11","timezone":"Asia/Manila","modification_date":"2012-02-01"},{"geonameid":"1706354","name":"Limbalod","asciiname":"Limbalod","alternatenames":"Limbalod","latitude":"7.13278","longitude":"124.79889","feature_class":"P","feature_code":"PPL","country_code":"PH","cc2":"","admin1_code":"12","admin2_code":"57","admin3_code":"","admin4_code":"","population":"2848","elevation":"","dem":"19","timezone":"Asia/Manila","modification_date":"2012-02-01"},{"geonameid":"1706356","name":"Limbaan","asciiname":"Limbaan","alternatenames":"Limbaan","latitude":"7.6396","longitude":"125.8209","feature_class":"P","feature_code":"PPL","country_code":"PH","cc2":"","admin1_code":"10","admin2_code":"43","admin3_code":"","admin4_code":"","population":"4855","elevation":"","dem":"40","timezone":"Asia/Manila","modification_date":"2012-06-05"},{"geonameid":"1706361","name":"Limay","asciiname":"Limay","alternatenames":"Limay","latitude":"14.56194","longitude":"120.59833","feature_class":"P","feature_code":"PPLA3","country_code":"PH","cc2":"","admin1_code":"03","admin2_code":"07","admin3_code":"1706362","admin4_code":"","population":"52824","elevation":"","dem":"7","timezone":"Asia/Manila","modification_date":"2011-07-31"},{"geonameid":"1706374","name":"Limaong","asciiname":"Limaong","alternatenames":"","latitude":"7.36056","longitude":"122.36639","feature_class":"P","feature_code":"PPL","country_code":"PH","cc2":"","admin1_code":"09","admin2_code":"66","admin3_code":"","admin4_code":"","population":"3321","elevation":"","dem":"33","timezone":"Asia/Manila","modification_date":"2010-08-14"},{"geonameid":"1706377","name":"Limao","asciiname":"Limao","alternatenames":"Limao","latitude":"7.07917","longitude":"125.67361","feature_class":"P","feature_code":"PPL","country_code":"PH","cc2":"","admin1_code":"11","admin2_code":"I7","admin3_code":"","admin4_code":"","population":"2123","elevation":"","dem":"27","timezone":"Asia/Manila","modification_date":"2012-02-01"},{"geonameid":"1706383","name":"Liloy","asciiname":"Liloy","alternatenames":"Liloy,Pataong","latitude":"8.11444","longitude":"122.65944","feature_class":"P","feature_code":"PPLA3","country_code":"PH","cc2":"","admin1_code":"09","admin2_code":"65","admin3_code":"1706385","admin4_code":"","population":"4784","elevation":"","dem":"53","timezone":"Asia/Manila","modification_date":"2011-07-31"},{"geonameid":"1706392","name":"Liloan","asciiname":"Liloan","alternatenames":"","latitude":"11.04417","longitude":"124.55056","feature_class":"P","feature_code":"PPL","country_code":"PH","cc2":"","admin1_code":"08","admin2_code":"E4","admin3_code":"","admin4_code":"","population":"3521","elevation":"","dem":"8","timezone":"Asia/Manila","modification_date":"2014-03-01"},{"geonameid":"1706393","name":"Liloan","asciiname":"Liloan","alternatenames":"Liloan","latitude":"10.3991","longitude":"123.9992","feature_class":"P","feature_code":"PPLA3","country_code":"PH","cc2":"","admin1_code":"07","admin2_code":"21","admin3_code":"1706400","admin4_code":"","population":"49198","elevation":"","dem":"8","timezone":"Asia/Manila","modification_date":"2011-07-31"},{"geonameid":"1706394","name":"Liloan","asciiname":"Liloan","alternatenames":"Liloan","latitude":"10.16139","longitude":"125.13028","feature_class":"P","feature_code":"PPL","country_code":"PH","cc2":"","admin1_code":"08","admin2_code":"59","admin3_code":"","admin4_code":"","population":"3549","elevation":"","dem":"6","timezone":"Asia/Manila","modification_date":"2012-01-17"},{"geonameid":"1706402","name":"Lilio","asciiname":"Lilio","alternatenames":"Lilio,Liliw","latitude":"14.1313","longitude":"121.4362","feature_class":"P","feature_code":"PPL","country_code":"PH","cc2":"","admin1_code":"40","admin2_code":"33","admin3_code":"","admin4_code":"","population":"15246","elevation":"","dem":"256","timezone":"Asia/Manila","modification_date":"2012-01-17"},{"geonameid":"1706410","name":"Liliongan","asciiname":"Liliongan","alternatenames":"Liliongan","latitude":"7.36278","longitude":"124.79278","feature_class":"P","feature_code":"PPL","country_code":"PH","cc2":"","admin1_code":"12","admin2_code":"57","admin3_code":"","admin4_code":"","population":"3049","elevation":"","dem":"167","timezone":"Asia/Manila","modification_date":"2012-02-01"},{"geonameid":"1706422","name":"Lila","asciiname":"Lila","alternatenames":"Lila","latitude":"9.5918","longitude":"124.0958","feature_class":"P","feature_code":"PPLA3","country_code":"PH","cc2":"","admin1_code":"07","admin2_code":"11","admin3_code":"1706423","admin4_code":"","population":"0","elevation":"0","dem":"14","timezone":"Asia/Manila","modification_date":"2011-07-31"},{"geonameid":"1706466","name":"Ligayan","asciiname":"Ligayan","alternatenames":"Ligayan,Ligayen","latitude":"4.65442","longitude":"119.47062","feature_class":"P","feature_code":"PPL","country_code":"PH","cc2":"","admin1_code":"14","admin2_code":"72","admin3_code":"","admin4_code":"","population":"2319","elevation":"","dem":"5","timezone":"Asia/Manila","modification_date":"2012-05-05"},{"geonameid":"1706467","name":"Ligaya","asciiname":"Ligaya","alternatenames":"Ligaya","latitude":"15.5091","longitude":"121.2872","feature_class":"P","feature_code":"PPL","country_code":"PH","cc2":"","admin1_code":"03","admin2_code":"47","admin3_code":"","admin4_code":"","population":"5299","elevation":"","dem":"113","timezone":"Asia/Manila","modification_date":"2012-01-17"},{"geonameid":"1706468","name":"Ligaya","asciiname":"Ligaya","alternatenames":"Ligaya","latitude":"12.65993","longitude":"120.89231","feature_class":"P","feature_code":"PPL","country_code":"PH","cc2":"","admin1_code":"41","admin2_code":"40","admin3_code":"","admin4_code":"","population":"8431","elevation":"","dem":"8","timezone":"Asia/Manila","modification_date":"2012-01-17"},{"geonameid":"1706474","name":"Ligao","asciiname":"Ligao","alternatenames":"","latitude":"13.21697","longitude":"123.51924","feature_class":"P","feature_code":"PPLA3","country_code":"PH","cc2":"","admin1_code":"05","admin2_code":"05","admin3_code":"1706476","admin4_code":"","population":"10295","elevation":"","dem":"60","timezone":"Asia/Manila","modification_date":"2014-11-17"},{"geonameid":"1706487","name":"Lidlidda","asciiname":"Lidlidda","alternatenames":"Lidlidda","latitude":"17.2693","longitude":"120.5213","feature_class":"P","feature_code":"PPLA3","country_code":"PH","cc2":"","admin1_code":"01","admin2_code":"29","admin3_code":"1706488","admin4_code":"","population":"0","elevation":"","dem":"47","timezone":"Asia/Manila","modification_date":"2011-07-31"},{"geonameid":"1706499","name":"Licuan","asciiname":"Licuan","alternatenames":"Licuan","latitude":"17.6089","longitude":"120.9059","feature_class":"P","feature_code":"PPLA3","country_code":"PH","cc2":"","admin1_code":"15","admin2_code":"01","admin3_code":"1706502","admin4_code":"","population":"0","elevation":"","dem":"377","timezone":"Asia/Manila","modification_date":"2011-07-31"},{"geonameid":"1706526","name":"Liciada","asciiname":"Liciada","alternatenames":"Lachada,Liciada,Lisiada","latitude":"14.91484","longitude":"120.93182","feature_class":"P","feature_code":"PPL","country_code":"PH","cc2":"","admin1_code":"03","admin2_code":"13","admin3_code":"","admin4_code":"","population":"3982","elevation":"","dem":"27","timezone":"Asia/Manila","modification_date":"2012-07-04"},{"geonameid":"1706532","name":"Licab","asciiname":"Licab","alternatenames":"Licab","latitude":"15.5439","longitude":"120.7634","feature_class":"P","feature_code":"PPLA3","country_code":"PH","cc2":"","admin1_code":"03","admin2_code":"47","admin3_code":"1706533","admin4_code":"","population":"6783","elevation":"","dem":"28","timezone":"Asia/Manila","modification_date":"2011-07-31"},{"geonameid":"1706550","name":"Libungan","asciiname":"Libungan","alternatenames":"","latitude":"7.24083","longitude":"124.52","feature_class":"P","feature_code":"PPLA3","country_code":"PH","cc2":"","admin1_code":"12","admin2_code":"57","admin3_code":"1706551","admin4_code":"","population":"5606","elevation":"","dem":"27","timezone":"Asia/Manila","modification_date":"2011-07-31"},{"geonameid":"1706557","name":"Libuganon","asciiname":"Libuganon","alternatenames":"Liboganon,Libuganon","latitude":"7.3488","longitude":"125.7782","feature_class":"P","feature_code":"PPL","country_code":"PH","cc2":"","admin1_code":"11","admin2_code":"I7","admin3_code":"","admin4_code":"","population":"2338","elevation":"","dem":"8","timezone":"Asia/Manila","modification_date":"2012-08-04"},{"geonameid":"1706598","name":"Liboro","asciiname":"Liboro","alternatenames":"Liboro","latitude":"13.8245","longitude":"122.7295","feature_class":"P","feature_code":"PPL","country_code":"PH","cc2":"","admin1_code":"05","admin2_code":"16","admin3_code":"","admin4_code":"","population":"6028","elevation":"","dem":"4","timezone":"Asia/Manila","modification_date":"2012-01-17"},{"geonameid":"1706599","name":"Liboran","asciiname":"Liboran","alternatenames":"Liboran,Liburan","latitude":"8.35472","longitude":"124.64889","feature_class":"P","feature_code":"PPL","country_code":"PH","cc2":"","admin1_code":"10","admin2_code":"12","admin3_code":"","admin4_code":"","population":"2772","elevation":"","dem":"277","timezone":"Asia/Manila","modification_date":"2012-01-17"},{"geonameid":"1706607","name":"Libona","asciiname":"Libona","alternatenames":"Libona","latitude":"8.33889","longitude":"124.73528","feature_class":"P","feature_code":"PPLA3","country_code":"PH","cc2":"","admin1_code":"10","admin2_code":"12","admin3_code":"1706608","admin4_code":"","population":"5713","elevation":"","dem":"576","timezone":"Asia/Manila","modification_date":"2011-07-31"},{"geonameid":"1706609","name":"Libon","asciiname":"Libon","alternatenames":"Libon","latitude":"13.2997","longitude":"123.4386","feature_class":"P","feature_code":"PPLA3","country_code":"PH","cc2":"","admin1_code":"05","admin2_code":"05","admin3_code":"1706612","admin4_code":"","population":"68846","elevation":"","dem":"18","timezone":"Asia/Manila","modification_date":"2011-08-19"},{"geonameid":"1706614","name":"Libog","asciiname":"Libog","alternatenames":"Libog","latitude":"13.2349","longitude":"123.7778","feature_class":"P","feature_code":"PPL","country_code":"PH","cc2":"","admin1_code":"05","admin2_code":"05","admin3_code":"","admin4_code":"","population":"11692","elevation":"","dem":"21","timezone":"Asia/Manila","modification_date":"2012-01-17"},{"geonameid":"1706629","name":"Libmanan","asciiname":"Libmanan","alternatenames":"Libmanan","latitude":"13.6928","longitude":"123.0596","feature_class":"P","feature_code":"PPLA3","country_code":"PH","cc2":"","admin1_code":"05","admin2_code":"16","admin3_code":"1706630","admin4_code":"","population":"0","elevation":"","dem":"6","timezone":"Asia/Manila","modification_date":"2011-07-31"},{"geonameid":"1706646","name":"Libjo","asciiname":"Libjo","alternatenames":"Libja,Libjo","latitude":"10.19778","longitude":"125.53528","feature_class":"P","feature_code":"PPLA3","country_code":"PH","cc2":"PH","admin1_code":"13","admin2_code":"61","admin3_code":"1706651","admin4_code":"","population":"0","elevation":"","dem":"13","timezone":"Asia/Manila","modification_date":"2011-07-31"},{"geonameid":"1706658","name":"Liberty","asciiname":"Liberty","alternatenames":"Liberty","latitude":"10.87417","longitude":"125.0025","feature_class":"P","feature_code":"PPL","country_code":"PH","cc2":"","admin1_code":"08","admin2_code":"37","admin3_code":"","admin4_code":"","population":"2323","elevation":"","dem":"7","timezone":"Asia/Manila","modification_date":"2012-02-01"},{"geonameid":"1706659","name":"Liberty","asciiname":"Liberty","alternatenames":"Liberty","latitude":"6.54111","longitude":"124.62889","feature_class":"P","feature_code":"PPL","country_code":"PH","cc2":"","admin1_code":"12","admin2_code":"70","admin3_code":"","admin4_code":"","population":"2662","elevation":"","dem":"94","timezone":"Asia/Manila","modification_date":"2012-02-01"},{"geonameid":"1706660","name":"Liberty","asciiname":"Liberty","alternatenames":"Liberty","latitude":"6.45528","longitude":"124.98194","feature_class":"P","feature_code":"PPL","country_code":"PH","cc2":"","admin1_code":"12","admin2_code":"70","admin3_code":"","admin4_code":"","population":"2172","elevation":"","dem":"250","timezone":"Asia/Manila","modification_date":"2012-02-01"},{"geonameid":"1706667","name":"Libertad","asciiname":"Libertad","alternatenames":"Libertad","latitude":"12.45412","longitude":"122.00828","feature_class":"P","feature_code":"PPL","country_code":"PH","cc2":"","admin1_code":"41","admin2_code":"54","admin3_code":"","admin4_code":"","population":"2231","elevation":"","dem":"29","timezone":"Asia/Manila","modification_date":"2012-05-05"},{"geonameid":"1706669","name":"Libertad","asciiname":"Libertad","alternatenames":"Libertad,Libertad Town","latitude":"11.7694","longitude":"121.919","feature_class":"P","feature_code":"PPLA3","country_code":"PH","cc2":"","admin1_code":"06","admin2_code":"06","admin3_code":"1706692","admin4_code":"","population":"2025","elevation":"","dem":"11","timezone":"Asia/Manila","modification_date":"2011-07-31"},{"geonameid":"1706673","name":"Libertad","asciiname":"Libertad","alternatenames":"","latitude":"11.03639","longitude":"124.56833","feature_class":"P","feature_code":"PPL","country_code":"PH","cc2":"","admin1_code":"08","admin2_code":"E4","admin3_code":"","admin4_code":"","population":"2383","elevation":"","dem":"8","timezone":"Asia/Manila","modification_date":"2014-03-01"},{"geonameid":"1706674","name":"Libertad","asciiname":"Libertad","alternatenames":"Libertad","latitude":"11.03528","longitude":"122.76944","feature_class":"P","feature_code":"PPL","country_code":"PH","cc2":"","admin1_code":"06","admin2_code":"30","admin3_code":"","admin4_code":"","population":"2537","elevation":"","dem":"66","timezone":"Asia/Manila","modification_date":"2012-02-01"},{"geonameid":"1706675","name":"Libertad","asciiname":"Libertad","alternatenames":"Libertad","latitude":"11.0304","longitude":"124.0215","feature_class":"P","feature_code":"PPL","country_code":"PH","cc2":"","admin1_code":"07","admin2_code":"21","admin3_code":"","admin4_code":"","population":"3798","elevation":"","dem":"104","timezone":"Asia/Manila","modification_date":"2012-01-17"},{"geonameid":"1706677","name":"Libertad","asciiname":"Libertad","alternatenames":"Libertad","latitude":"10.91667","longitude":"124.45","feature_class":"P","feature_code":"PPL","country_code":"PH","cc2":"","admin1_code":"08","admin2_code":"37","admin3_code":"","admin4_code":"","population":"4486","elevation":"","dem":"59","timezone":"Asia/Manila","modification_date":"2012-02-01"},{"geonameid":"1706678","name":"Libertad","asciiname":"Libertad","alternatenames":"Libertad","latitude":"10.83333","longitude":"123.56667","feature_class":"P","feature_code":"PPL","country_code":"PH","cc2":"","admin1_code":"06","admin2_code":"H3","admin3_code":"","admin4_code":"","population":"3132","elevation":"","dem":"-9999","timezone":"Asia/Manila","modification_date":"2012-02-01"},{"geonameid":"1706684","name":"Libertad","asciiname":"Libertad","alternatenames":"","latitude":"8.94417","longitude":"125.50194","feature_class":"P","feature_code":"PPL","country_code":"PH","cc2":"","admin1_code":"13","admin2_code":"02","admin3_code":"","admin4_code":"","population":"250353","elevation":"","dem":"8","timezone":"Asia/Manila","modification_date":"2013-10-29"},{"geonameid":"1706685","name":"Libertad","asciiname":"Libertad","alternatenames":"Libertad","latitude":"8.56111","longitude":"124.35139","feature_class":"P","feature_code":"PPL","country_code":"PH","cc2":"","admin1_code":"10","admin2_code":"43","admin3_code":"","admin4_code":"","population":"4516","elevation":"","dem":"6","timezone":"Asia/Manila","modification_date":"2012-01-17"},{"geonameid":"1706687","name":"Libertad","asciiname":"Libertad","alternatenames":"Libertad","latitude":"8.2755","longitude":"123.8382","feature_class":"P","feature_code":"PPL","country_code":"PH","cc2":"","admin1_code":"10","admin2_code":"42","admin3_code":"","admin4_code":"","population":"2349","elevation":"","dem":"36","timezone":"Asia/Manila","modification_date":"2012-01-17"},{"geonameid":"1706688","name":"Libertad","asciiname":"Libertad","alternatenames":"","latitude":"8.25","longitude":"124.23333","feature_class":"P","feature_code":"PPL","country_code":"PH","cc2":"","admin1_code":"00","admin2_code":"C8","admin3_code":"","admin4_code":"","population":"5210","elevation":"","dem":"-9999","timezone":"Asia/Manila","modification_date":"2010-08-14"},{"geonameid":"1706689","name":"Libertad","asciiname":"Libertad","alternatenames":"Libertad","latitude":"8.1075","longitude":"126.02639","feature_class":"P","feature_code":"PPL","country_code":"PH","cc2":"","admin1_code":"13","admin2_code":"03","admin3_code":"","admin4_code":"","population":"5799","elevation":"","dem":"33","timezone":"Asia/Manila","modification_date":"2012-02-01"},{"geonameid":"1706702","name":"Libato","asciiname":"Libato","alternatenames":"Libato","latitude":"13.81514","longitude":"121.33463","feature_class":"P","feature_code":"PPL","country_code":"PH","cc2":"","admin1_code":"40","admin2_code":"09","admin3_code":"","admin4_code":"","population":"3830","elevation":"","dem":"56","timezone":"Asia/Manila","modification_date":"2012-04-05"},{"geonameid":"1706716","name":"Libas","asciiname":"Libas","alternatenames":"Libas","latitude":"15.87789","longitude":"120.31633","feature_class":"P","feature_code":"PPL","country_code":"PH","cc2":"","admin1_code":"01","admin2_code":"51","admin3_code":"","admin4_code":"","population":"3311","elevation":"","dem":"17","timezone":"Asia/Manila","modification_date":"2013-01-10"},{"geonameid":"1706717","name":"Libas","asciiname":"Libas","alternatenames":"Libas","latitude":"13.24167","longitude":"121.95555","feature_class":"P","feature_code":"PPL","country_code":"PH","cc2":"","admin1_code":"41","admin2_code":"38","admin3_code":"","admin4_code":"","population":"2256","elevation":"","dem":"10","timezone":"Asia/Manila","modification_date":"2012-01-17"},{"geonameid":"1706726","name":"Libas","asciiname":"Libas","alternatenames":"Libas","latitude":"10.9388","longitude":"124.545","feature_class":"P","feature_code":"PPL","country_code":"PH","cc2":"","admin1_code":"08","admin2_code":"37","admin3_code":"","admin4_code":"","population":"2056","elevation":"","dem":"9","timezone":"Asia/Manila","modification_date":"2012-01-17"},{"geonameid":"1706732","name":"Libas","asciiname":"Libas","alternatenames":"Libas","latitude":"9.88333","longitude":"125.98333","feature_class":"P","feature_code":"PPL","country_code":"PH","cc2":"","admin1_code":"13","admin2_code":"62","admin3_code":"","admin4_code":"","population":"3373","elevation":"","dem":"15","timezone":"Asia/Manila","modification_date":"2012-02-01"},{"geonameid":"1706736","name":"Libas","asciiname":"Libas","alternatenames":"Libas","latitude":"6.53556","longitude":"124.77889","feature_class":"P","feature_code":"PPL","country_code":"PH","cc2":"","admin1_code":"12","admin2_code":"70","admin3_code":"","admin4_code":"","population":"2153","elevation":"","dem":"36","timezone":"Asia/Manila","modification_date":"2012-02-01"},{"geonameid":"1706750","name":"Libagon","asciiname":"Libagon","alternatenames":"Libagon","latitude":"10.30083","longitude":"125.05583","feature_class":"P","feature_code":"PPLA3","country_code":"PH","cc2":"","admin1_code":"08","admin2_code":"59","admin3_code":"1706751","admin4_code":"","population":"0","elevation":"","dem":"51","timezone":"Asia/Manila","modification_date":"2011-07-31"},{"geonameid":"1706757","name":"Libacao","asciiname":"Libacao","alternatenames":"Libacao","latitude":"11.4802","longitude":"122.30421","feature_class":"P","feature_code":"PPLA3","country_code":"PH","cc2":"","admin1_code":"06","admin2_code":"04","admin3_code":"1706759","admin4_code":"","population":"2897","elevation":"","dem":"60","timezone":"Asia/Manila","modification_date":"2011-07-31"},{"geonameid":"1706758","name":"Libacao","asciiname":"Libacao","alternatenames":"Libacao","latitude":"10.18","longitude":"122.9137","feature_class":"P","feature_code":"PPL","country_code":"PH","cc2":"","admin1_code":"06","admin2_code":"H3","admin3_code":"","admin4_code":"","population":"4796","elevation":"","dem":"16","timezone":"Asia/Manila","modification_date":"2012-06-05"},{"geonameid":"1706781","name":"Lianga","asciiname":"Lianga","alternatenames":"Lianga","latitude":"8.63361","longitude":"126.09472","feature_class":"P","feature_code":"PPLA3","country_code":"PH","cc2":"","admin1_code":"13","admin2_code":"62","admin3_code":"1706782","admin4_code":"","population":"13623","elevation":"","dem":"10","timezone":"Asia/Manila","modification_date":"2011-07-31"},{"geonameid":"1706787","name":"Lian","asciiname":"Lian","alternatenames":"Lian","latitude":"14.03364","longitude":"120.64928","feature_class":"P","feature_code":"PPLA3","country_code":"PH","cc2":"","admin1_code":"40","admin2_code":"09","admin3_code":"1706788","admin4_code":"","population":"7496","elevation":"","dem":"11","timezone":"Asia/Manila","modification_date":"2015-04-22"},{"geonameid":"1706801","name":"Leyte","asciiname":"Leyte","alternatenames":"Leyte,lytt,ليتة","latitude":"11.36687","longitude":"124.48239","feature_class":"P","feature_code":"PPLA3","country_code":"PH","cc2":"","admin1_code":"08","admin2_code":"37","admin3_code":"1706803","admin4_code":"","population":"7223","elevation":"","dem":"1","timezone":"Asia/Manila","modification_date":"2015-01-17"},{"geonameid":"1706810","name":"Leuteboro","asciiname":"Leuteboro","alternatenames":"Leuteboro","latitude":"13.061","longitude":"121.37472","feature_class":"P","feature_code":"PPL","country_code":"PH","cc2":"","admin1_code":"41","admin2_code":"41","admin3_code":"","admin4_code":"","population":"3802","elevation":"","dem":"27","timezone":"Asia/Manila","modification_date":"2012-01-17"},{"geonameid":"1706834","name":"Lepanto","asciiname":"Lepanto","alternatenames":"Lepanto","latitude":"9.6845","longitude":"123.4026","feature_class":"P","feature_code":"PPL","country_code":"PH","cc2":"","admin1_code":"07","admin2_code":"21","admin3_code":"","admin4_code":"","population":"2472","elevation":"","dem":"575","timezone":"Asia/Manila","modification_date":"2012-01-17"},{"geonameid":"1706836","name":"Lepa","asciiname":"Lepa","alternatenames":"Lepa","latitude":"15.88438","longitude":"120.45089","feature_class":"P","feature_code":"PPL","country_code":"PH","cc2":"","admin1_code":"01","admin2_code":"51","admin3_code":"","admin4_code":"","population":"8877","elevation":"","dem":"21","timezone":"Asia/Manila","modification_date":"2013-01-10"},{"geonameid":"1706839","name":"Leones East","asciiname":"Leones East","alternatenames":"Leones,Leones East","latitude":"16.3633","longitude":"120.3919","feature_class":"P","feature_code":"PPL","country_code":"PH","cc2":"","admin1_code":"01","admin2_code":"36","admin3_code":"","admin4_code":"","population":"2713","elevation":"","dem":"33","timezone":"Asia/Manila","modification_date":"2012-01-17"},{"geonameid":"1706843","name":"Leon","asciiname":"Leon","alternatenames":"Leon","latitude":"10.78085","longitude":"122.3894","feature_class":"P","feature_code":"PPLA3","country_code":"PH","cc2":"","admin1_code":"06","admin2_code":"30","admin3_code":"1706844","admin4_code":"","population":"5172","elevation":"","dem":"68","timezone":"Asia/Manila","modification_date":"2011-07-31"},{"geonameid":"1706852","name":"Lennec","asciiname":"Lennec","alternatenames":"Lenec,Lennec","latitude":"15.6835","longitude":"120.7338","feature_class":"P","feature_code":"PPL","country_code":"PH","cc2":"","admin1_code":"03","admin2_code":"47","admin3_code":"","admin4_code":"","population":"3142","elevation":"","dem":"37","timezone":"Asia/Manila","modification_date":"2012-01-17"},{"geonameid":"1706863","name":"Lemery","asciiname":"Lemery","alternatenames":"Lemery","latitude":"13.8809","longitude":"120.91389","feature_class":"P","feature_code":"PPLA3","country_code":"PH","cc2":"","admin1_code":"40","admin2_code":"09","admin3_code":"1706866","admin4_code":"","population":"0","elevation":"","dem":"9","timezone":"Asia/Manila","modification_date":"2011-07-31"},{"geonameid":"1706864","name":"Lemery","asciiname":"Lemery","alternatenames":"Lemery","latitude":"11.2258","longitude":"122.9275","feature_class":"P","feature_code":"PPLA3","country_code":"PH","cc2":"","admin1_code":"06","admin2_code":"30","admin3_code":"1706867","admin4_code":"","population":"3240","elevation":"","dem":"90","timezone":"Asia/Manila","modification_date":"2011-07-31"},{"geonameid":"1706889","name":"Legaspi","asciiname":"Legaspi","alternatenames":"LGP,Legaspi City,Legazpi,Legazpi City","latitude":"13.14125","longitude":"123.74073","feature_class":"P","feature_code":"PPLA","country_code":"PH","cc2":"PH","admin1_code":"05","admin2_code":"D5","admin3_code":"","admin4_code":"","population":"179481","elevation":"","dem":"9","timezone":"Asia/Manila","modification_date":"2015-12-19"},{"geonameid":"1706894","name":"Legrada","asciiname":"Legrada","alternatenames":"Legarda,Legarda 1,Legardo,Legrada","latitude":"7.6333","longitude":"123.3045","feature_class":"P","feature_code":"PPL","country_code":"PH","cc2":"","admin1_code":"09","admin2_code":"66","admin3_code":"","admin4_code":"","population":"4016","elevation":"","dem":"242","timezone":"Asia/Manila","modification_date":"2010-08-14"},{"geonameid":"1706895","name":"Leganes","asciiname":"Leganes","alternatenames":"Leganes","latitude":"10.78722","longitude":"122.58917","feature_class":"P","feature_code":"PPLA3","country_code":"PH","cc2":"","admin1_code":"06","admin2_code":"30","admin3_code":"1706896","admin4_code":"","population":"2464","elevation":"","dem":"9","timezone":"Asia/Manila","modification_date":"2011-07-31"},{"geonameid":"1706915","name":"Lebak","asciiname":"Lebak","alternatenames":"Lebak,Salaman","latitude":"6.64389","longitude":"124.06583","feature_class":"P","feature_code":"PPLA3","country_code":"PH","cc2":"PH","admin1_code":"12","admin2_code":"71","admin3_code":"1706919","admin4_code":"","population":"0","elevation":"","dem":"9","timezone":"Asia/Manila","modification_date":"2011-07-31"},{"geonameid":"1706923","name":"Lazi","asciiname":"Lazi","alternatenames":"Lazi","latitude":"9.1287","longitude":"123.6356","feature_class":"P","feature_code":"PPLA3","country_code":"PH","cc2":"","admin1_code":"07","admin2_code":"69","admin3_code":"1706924","admin4_code":"","population":"3429","elevation":"","dem":"28","timezone":"Asia/Manila","modification_date":"2011-07-31"},{"geonameid":"1706944","name":"Layog","asciiname":"Layog","alternatenames":"Layog","latitude":"7.07667","longitude":"124.73056","feature_class":"P","feature_code":"PPL","country_code":"PH","cc2":"","admin1_code":"14","admin2_code":"56","admin3_code":"","admin4_code":"","population":"2588","elevation":"","dem":"19","timezone":"Asia/Manila","modification_date":"2012-02-01"},{"geonameid":"1706950","name":"Laylay","asciiname":"Laylay","alternatenames":"Laylay","latitude":"13.4391","longitude":"121.8202","feature_class":"P","feature_code":"PPL","country_code":"PH","cc2":"","admin1_code":"41","admin2_code":"38","admin3_code":"","admin4_code":"","population":"2718","elevation":"","dem":"10","timezone":"Asia/Manila","modification_date":"2012-01-17"},{"geonameid":"1706971","name":"Laya","asciiname":"Laya","alternatenames":"Laya","latitude":"17.4726","longitude":"121.4678","feature_class":"P","feature_code":"PPL","country_code":"PH","cc2":"","admin1_code":"15","admin2_code":"32","admin3_code":"","admin4_code":"","population":"3787","elevation":"","dem":"142","timezone":"Asia/Manila","modification_date":"2012-01-17"},{"geonameid":"1707003","name":"Lawang Kupang","asciiname":"Lawang Kupang","alternatenames":"Lauang Cupang,Lawan Kupana,Lawang Kupang","latitude":"15.34807","longitude":"120.85752","feature_class":"P","feature_code":"PPL","country_code":"PH","cc2":"","admin1_code":"03","admin2_code":"47","admin3_code":"","admin4_code":"","population":"2616","elevation":"","dem":"22","timezone":"Asia/Manila","modification_date":"2012-12-05"},{"geonameid":"1707015","name":"Lawa-an","asciiname":"Lawa-an","alternatenames":"Laua-an,Lawa-an,Lawan","latitude":"11.14028","longitude":"125.30139","feature_class":"P","feature_code":"PPLA3","country_code":"PH","cc2":"PH","admin1_code":"08","admin2_code":"23","admin3_code":"1707026","admin4_code":"","population":"0","elevation":"","dem":"5","timezone":"Asia/Manila","modification_date":"2011-07-31"},{"geonameid":"1707016","name":"Lawa-an","asciiname":"Lawa-an","alternatenames":"Laua-an,Lava-an,Lawa-an","latitude":"11.15","longitude":"122.03333","feature_class":"P","feature_code":"PPLA3","country_code":"PH","cc2":"PH","admin1_code":"06","admin2_code":"06","admin3_code":"1707027","admin4_code":"","population":"0","elevation":"","dem":"-9999","timezone":"Asia/Manila","modification_date":"2011-07-31"},{"geonameid":"1707035","name":"Lavezares","asciiname":"Lavezares","alternatenames":"Lavezaras,Lavezares","latitude":"12.5336","longitude":"124.3305","feature_class":"P","feature_code":"PPLA3","country_code":"PH","cc2":"","admin1_code":"08","admin2_code":"67","admin3_code":"1707036","admin4_code":"","population":"4082","elevation":"","dem":"6","timezone":"Asia/Manila","modification_date":"2011-07-31"},{"geonameid":"1707045","name":"Laurel","asciiname":"Laurel","alternatenames":"Laurel","latitude":"14.05542","longitude":"120.91932","feature_class":"P","feature_code":"PPLA3","country_code":"PH","cc2":"","admin1_code":"40","admin2_code":"09","admin3_code":"1707047","admin4_code":"","population":"9720","elevation":"","dem":"81","timezone":"Asia/Manila","modification_date":"2011-07-31"},{"geonameid":"1707049","name":"Laur","asciiname":"Laur","alternatenames":"Laur,San Estaban","latitude":"15.5865","longitude":"121.1834","feature_class":"P","feature_code":"PPLA3","country_code":"PH","cc2":"","admin1_code":"03","admin2_code":"47","admin3_code":"1707050","admin4_code":"","population":"19206","elevation":"","dem":"73","timezone":"Asia/Manila","modification_date":"2011-07-31"},{"geonameid":"1707057","name":"La Union","asciiname":"La Union","alternatenames":"La Union","latitude":"9.08556","longitude":"125.53583","feature_class":"P","feature_code":"PPL","country_code":"PH","cc2":"","admin1_code":"13","admin2_code":"02","admin3_code":"","admin4_code":"","population":"4758","elevation":"","dem":"6","timezone":"Asia/Manila","modification_date":"2012-02-01"},{"geonameid":"1707058","name":"La Union","asciiname":"La Union","alternatenames":"La Union,Uangon","latitude":"6.70413","longitude":"126.08798","feature_class":"P","feature_code":"PPL","country_code":"PH","cc2":"","admin1_code":"11","admin2_code":"26","admin3_code":"","admin4_code":"","population":"5221","elevation":"","dem":"19","timezone":"Asia/Manila","modification_date":"2012-01-17"},{"geonameid":"1707076","name":"Lawigan","asciiname":"Lawigan","alternatenames":"Lauigan,Lavigan,Lawigan","latitude":"10.487","longitude":"122.0354","feature_class":"P","feature_code":"PPL","country_code":"PH","cc2":"","admin1_code":"06","admin2_code":"30","admin3_code":"","admin4_code":"","population":"2571","elevation":"","dem":"45","timezone":"Asia/Manila","modification_date":"2012-01-17"},{"geonameid":"1707108","name":"Latung","asciiname":"Latung","alternatenames":"Latung","latitude":"5.5","longitude":"120.88333","feature_class":"P","feature_code":"PPL","country_code":"PH","cc2":"","admin1_code":"14","admin2_code":"60","admin3_code":"","admin4_code":"","population":"2964","elevation":"","dem":"5","timezone":"Asia/Manila","modification_date":"2012-02-01"},{"geonameid":"1707123","name":"La Trinidad","asciiname":"La Trinidad","alternatenames":"La Trinidad,La-Trinidad,Trinidad,lateulinidadeu,Ла-Тринидад,لا ٹرینیڈاڈ، بینگیت,라트리니다드","latitude":"16.455","longitude":"120.5875","feature_class":"P","feature_code":"PPLA3","country_code":"PH","cc2":"","admin1_code":"15","admin2_code":"10","admin3_code":"1707125","admin4_code":"","population":"41258","elevation":"","dem":"1318","timezone":"Asia/Manila","modification_date":"2011-07-31"},{"geonameid":"1707174","name":"Las Piñas","asciiname":"Las Pinas","alternatenames":"Las Pinas,Las Piñas","latitude":"14.45056","longitude":"120.98278","feature_class":"P","feature_code":"PPLA3","country_code":"PH","cc2":"","admin1_code":"40","admin2_code":"53","admin3_code":"1707175","admin4_code":"","population":"0","elevation":"","dem":"17","timezone":"Asia/Manila","modification_date":"2011-07-31"},{"geonameid":"1707179","name":"Las Navas","asciiname":"Las Navas","alternatenames":"Las Navas","latitude":"12.3392","longitude":"125.0313","feature_class":"P","feature_code":"PPLA3","country_code":"PH","cc2":"","admin1_code":"08","admin2_code":"67","admin3_code":"1707181","admin4_code":"","population":"3415","elevation":"","dem":"9","timezone":"Asia/Manila","modification_date":"2011-07-31"},{"geonameid":"1707202","name":"Lasang","asciiname":"Lasang","alternatenames":"Lasong","latitude":"7.26694","longitude":"125.665","feature_class":"P","feature_code":"PPL","country_code":"PH","cc2":"","admin1_code":"11","admin2_code":"C3","admin3_code":"","admin4_code":"","population":"8318","elevation":"","dem":"8","timezone":"Asia/Manila","modification_date":"2013-03-31"},{"geonameid":"1707204","name":"Lasam","asciiname":"Lasam","alternatenames":"Lasam","latitude":"18.06519","longitude":"121.60065","feature_class":"P","feature_code":"PPLA3","country_code":"PH","cc2":"","admin1_code":"02","admin2_code":"14","admin3_code":"1707205","admin4_code":"","population":"6352","elevation":"","dem":"15","timezone":"Asia/Manila","modification_date":"2011-07-31"},{"geonameid":"1707211","name":"La Roxas","asciiname":"La Roxas","alternatenames":"La Roxas","latitude":"7.86417","longitude":"124.88694","feature_class":"P","feature_code":"PPL","country_code":"PH","cc2":"","admin1_code":"10","admin2_code":"12","admin3_code":"","admin4_code":"","population":"2456","elevation":"","dem":"891","timezone":"Asia/Manila","modification_date":"2012-02-01"},{"geonameid":"1707213","name":"Larion Alto","asciiname":"Larion Alto","alternatenames":"Larion,Larion Acto,Larion Alto,Larion Altu","latitude":"17.63082","longitude":"121.76062","feature_class":"P","feature_code":"PPL","country_code":"PH","cc2":"","admin1_code":"02","admin2_code":"14","admin3_code":"","admin4_code":"","population":"3010","elevation":"","dem":"28","timezone":"Asia/Manila","modification_date":"2013-04-03"},{"geonameid":"1707223","name":"Larena","asciiname":"Larena","alternatenames":"Canoan,Larena","latitude":"9.24528","longitude":"123.59389","feature_class":"P","feature_code":"PPLA3","country_code":"PH","cc2":"PH","admin1_code":"07","admin2_code":"69","admin3_code":"1707224","admin4_code":"","population":"0","elevation":"","dem":"36","timezone":"Asia/Manila","modification_date":"2011-07-31"},{"geonameid":"1707233","name":"Larap","asciiname":"Larap","alternatenames":"Larap","latitude":"14.299","longitude":"122.6504","feature_class":"P","feature_code":"PPL","country_code":"PH","cc2":"","admin1_code":"05","admin2_code":"15","admin3_code":"","admin4_code":"","population":"4329","elevation":"","dem":"8","timezone":"Asia/Manila","modification_date":"2012-01-17"},{"geonameid":"1707236","name":"Larap","asciiname":"Larap","alternatenames":"Larap","latitude":"4.76154","longitude":"119.40511","feature_class":"P","feature_code":"PPL","country_code":"PH","cc2":"","admin1_code":"14","admin2_code":"72","admin3_code":"","admin4_code":"","population":"4113","elevation":"","dem":"5","timezone":"Asia/Manila","modification_date":"2012-05-05"},{"geonameid":"1707248","name":"Lapuz","asciiname":"Lapuz","alternatenames":"Lapuz","latitude":"6.52333","longitude":"124.63","feature_class":"P","feature_code":"PPL","country_code":"PH","cc2":"","admin1_code":"12","admin2_code":"70","admin3_code":"","admin4_code":"","population":"2601","elevation":"","dem":"97","timezone":"Asia/Manila","modification_date":"2012-02-01"},{"geonameid":"1707250","name":"Lapuyan","asciiname":"Lapuyan","alternatenames":"Lapuyan","latitude":"7.6379","longitude":"123.1944","feature_class":"P","feature_code":"PPL","country_code":"PH","cc2":"","admin1_code":"09","admin2_code":"66","admin3_code":"","admin4_code":"","population":"5274","elevation":"","dem":"24","timezone":"Asia/Manila","modification_date":"2010-08-14"},{"geonameid":"1707267","name":"Lapu-Lapu City","asciiname":"Lapu-Lapu City","alternatenames":"Dakbayan sa Lapu-Lapu,Lapu-Lapu,Lapu-Lapu City,Opon,Siudad ti Lapu-Lapu,la pu la pu shi,rapu=rapu shi,ラプ＝ラプ市,拉普拉普市","latitude":"10.31028","longitude":"123.94944","feature_class":"P","feature_code":"PPL","country_code":"PH","cc2":"","admin1_code":"07","admin2_code":"","admin3_code":"","admin4_code":"","population":"350467","elevation":"","dem":"4","timezone":"Asia/Manila","modification_date":"2013-08-18"},{"geonameid":"1707269","name":"Lapuan","asciiname":"Lapuan","alternatenames":"Lapuan","latitude":"6.14444","longitude":"125.70083","feature_class":"P","feature_code":"PPL","country_code":"PH","cc2":"","admin1_code":"11","admin2_code":"25","admin3_code":"","admin4_code":"","population":"3825","elevation":"","dem":"30","timezone":"Asia/Manila","modification_date":"2012-01-17"},{"geonameid":"1707281","name":"Lapolapo","asciiname":"Lapolapo","alternatenames":"Lapolapo","latitude":"13.8341","longitude":"121.1379","feature_class":"P","feature_code":"PPL","country_code":"PH","cc2":"","admin1_code":"40","admin2_code":"09","admin3_code":"","admin4_code":"","population":"3621","elevation":"","dem":"145","timezone":"Asia/Manila","modification_date":"2012-01-17"},{"geonameid":"1707309","name":"Lapinigan","asciiname":"Lapinigan","alternatenames":"Lapinigan","latitude":"8.42056","longitude":"125.9825","feature_class":"P","feature_code":"PPL","country_code":"PH","cc2":"","admin1_code":"13","admin2_code":"03","admin3_code":"","admin4_code":"","population":"4328","elevation":"","dem":"40","timezone":"Asia/Manila","modification_date":"2012-02-01"},{"geonameid":"1707311","name":"Lapinig","asciiname":"Lapinig","alternatenames":"Lapinig","latitude":"12.3151","longitude":"125.3032","feature_class":"P","feature_code":"PPLA3","country_code":"PH","cc2":"","admin1_code":"08","admin2_code":"67","admin3_code":"1707313","admin4_code":"","population":"3685","elevation":"","dem":"2","timezone":"Asia/Manila","modification_date":"2011-07-31"},{"geonameid":"1707316","name":"Lapi","asciiname":"Lapi","alternatenames":"Lapi,Lappi","latitude":"17.716","longitude":"121.89775","feature_class":"P","feature_code":"PPL","country_code":"PH","cc2":"","admin1_code":"02","admin2_code":"14","admin3_code":"","admin4_code":"","population":"2849","elevation":"","dem":"96","timezone":"Asia/Manila","modification_date":"2012-01-17"},{"geonameid":"1707321","name":"La Paz","asciiname":"La Paz","alternatenames":"La Paz","latitude":"17.6746","longitude":"120.6864","feature_class":"P","feature_code":"PPLA3","country_code":"PH","cc2":"","admin1_code":"15","admin2_code":"01","admin3_code":"1707345","admin4_code":"","population":"3405","elevation":"","dem":"91","timezone":"Asia/Manila","modification_date":"2011-07-31"},{"geonameid":"1707322","name":"La Paz","asciiname":"La Paz","alternatenames":"La Paz","latitude":"16.91075","longitude":"121.66824","feature_class":"P","feature_code":"PPL","country_code":"PH","cc2":"","admin1_code":"02","admin2_code":"31","admin3_code":"","admin4_code":"","population":"4017","elevation":"","dem":"65","timezone":"Asia/Manila","modification_date":"2012-01-17"},{"geonameid":"1707324","name":"La Paz","asciiname":"La Paz","alternatenames":"La Paz,La-Pas,Ла-Пас","latitude":"15.44125","longitude":"120.72863","feature_class":"P","feature_code":"PPLA3","country_code":"PH","cc2":"","admin1_code":"03","admin2_code":"63","admin3_code":"1707346","admin4_code":"","population":"25801","elevation":"","dem":"22","timezone":"Asia/Manila","modification_date":"2011-07-31"},{"geonameid":"1707334","name":"De la Paz","asciiname":"De la Paz","alternatenames":"De la Paz,La Paz","latitude":"11.06444","longitude":"122.77917","feature_class":"P","feature_code":"PPL","country_code":"PH","cc2":"","admin1_code":"06","admin2_code":"30","admin3_code":"","admin4_code":"","population":"2117","elevation":"","dem":"26","timezone":"Asia/Manila","modification_date":"2012-01-17"},{"geonameid":"1707335","name":"Lapaz","asciiname":"Lapaz","alternatenames":"Lapaz","latitude":"10.9887","longitude":"123.9797","feature_class":"P","feature_code":"PPL","country_code":"PH","cc2":"","admin1_code":"07","admin2_code":"21","admin3_code":"","admin4_code":"","population":"3091","elevation":"","dem":"93","timezone":"Asia/Manila","modification_date":"2012-01-17"},{"geonameid":"1707336","name":"La Paz","asciiname":"La Paz","alternatenames":"La Paz,La-Pas,Ла-Пас","latitude":"10.8925","longitude":"124.95583","feature_class":"P","feature_code":"PPLA3","country_code":"PH","cc2":"","admin1_code":"08","admin2_code":"37","admin3_code":"1707347","admin4_code":"","population":"4146","elevation":"","dem":"27","timezone":"Asia/Manila","modification_date":"2011-07-31"},{"geonameid":"1707339","name":"La Paz","asciiname":"La Paz","alternatenames":"La Paz","latitude":"10.4131","longitude":"122.5162","feature_class":"P","feature_code":"PPL","country_code":"PH","cc2":"","admin1_code":"06","admin2_code":"J3","admin3_code":"","admin4_code":"","population":"2024","elevation":"","dem":"28","timezone":"Asia/Manila","modification_date":"2012-01-17"},{"geonameid":"1707342","name":"La Paz","asciiname":"La Paz","alternatenames":"La Pas,La Paz,La-Pas,Magabao Cove,Ла-Пас","latitude":"8.98471","longitude":"126.26299","feature_class":"P","feature_code":"PPL","country_code":"PH","cc2":"","admin1_code":"13","admin2_code":"62","admin3_code":"","admin4_code":"","population":"2314","elevation":"","dem":"3","timezone":"Asia/Manila","modification_date":"2012-09-06"},{"geonameid":"1707343","name":"La Paz","asciiname":"La Paz","alternatenames":"La Paz,La-Pas,Ла-Пас","latitude":"8.27083","longitude":"125.79972","feature_class":"P","feature_code":"PPL","country_code":"PH","cc2":"","admin1_code":"13","admin2_code":"03","admin3_code":"","admin4_code":"","population":"3618","elevation":"","dem":"23","timezone":"Asia/Manila","modification_date":"2012-01-17"},{"geonameid":"1707344","name":"La Paz","asciiname":"La Paz","alternatenames":"La Paz","latitude":"7.31583","longitude":"125.73333","feature_class":"P","feature_code":"PPL","country_code":"PH","cc2":"","admin1_code":"11","admin2_code":"I7","admin3_code":"","admin4_code":"","population":"2782","elevation":"","dem":"6","timezone":"Asia/Manila","modification_date":"2012-02-01"},{"geonameid":"1707398","name":"Laoang","asciiname":"Laoang","alternatenames":"Laoang,Loangan","latitude":"12.5698","longitude":"125.0141","feature_class":"P","feature_code":"PPLA3","country_code":"PH","cc2":"","admin1_code":"08","admin2_code":"67","admin3_code":"1707399","admin4_code":"","population":"16725","elevation":"","dem":"12","timezone":"Asia/Manila","modification_date":"2011-07-31"},{"geonameid":"1707404","name":"Laoag","asciiname":"Laoag","alternatenames":"Dakbayan sa Laoag,Kota Laoag,LAO,Laoag,Laoag City,Laoag Lakanbalen,Laoang,Laog,Loag,Lungsod ng Laoag,Siyudad na Laoag,Syudad nin Laoag,lao wo,laoageu,lawag,raoagu,Лаоаг,لاواگ,ལའ་ཨག,ལའོ་ཨག,ラオアグ,佬沃,라오아그","latitude":"18.1978","longitude":"120.5957","feature_class":"P","feature_code":"PPLA2","country_code":"PH","cc2":"","admin1_code":"01","admin2_code":"28","admin3_code":"","admin4_code":"","population":"102105","elevation":"","dem":"15","timezone":"Asia/Manila","modification_date":"2013-11-03"},{"geonameid":"1707411","name":"Lao","asciiname":"Lao","alternatenames":"","latitude":"11.01806","longitude":"124.55972","feature_class":"P","feature_code":"PPL","country_code":"PH","cc2":"","admin1_code":"08","admin2_code":"E4","admin3_code":"","admin4_code":"","population":"2154","elevation":"","dem":"6","timezone":"Asia/Manila","modification_date":"2014-03-01"},{"geonameid":"1707415","name":"Lanuza","asciiname":"Lanuza","alternatenames":"Lanuza","latitude":"9.23417","longitude":"126.06444","feature_class":"P","feature_code":"PPLA3","country_code":"PH","cc2":"","admin1_code":"13","admin2_code":"62","admin3_code":"1707416","admin4_code":"","population":"2033","elevation":"","dem":"9","timezone":"Asia/Manila","modification_date":"2011-07-31"},{"geonameid":"1707434","name":"Tairan Camp","asciiname":"Tairan Camp","alternatenames":"Lantawan,Tairan,Tairan Camp","latitude":"6.6402","longitude":"121.8395","feature_class":"P","feature_code":"PPL","country_code":"PH","cc2":"","admin1_code":"14","admin2_code":"22","admin3_code":"","admin4_code":"","population":"2766","elevation":"","dem":"36","timezone":"Asia/Manila","modification_date":"2012-01-17"},{"geonameid":"1707438","name":"Lantapan","asciiname":"Lantapan","alternatenames":"Lantapan,Lantapán","latitude":"7.99778","longitude":"125.02778","feature_class":"P","feature_code":"PPL","country_code":"PH","cc2":"","admin1_code":"10","admin2_code":"12","admin3_code":"","admin4_code":"","population":"5021","elevation":"","dem":"595","timezone":"Asia/Manila","modification_date":"2012-02-01"},{"geonameid":"1707445","name":"Lantangan","asciiname":"Lantangan","alternatenames":"Lantangan","latitude":"12.19815","longitude":"123.27101","feature_class":"P","feature_code":"PPL","country_code":"PH","cc2":"","admin1_code":"05","admin2_code":"39","admin3_code":"","admin4_code":"","population":"2385","elevation":"","dem":"17","timezone":"Asia/Manila","modification_date":"2012-01-17"},{"geonameid":"1707446","name":"Lantangan","asciiname":"Lantangan","alternatenames":"Lantangan","latitude":"11.5882","longitude":"123.3256","feature_class":"P","feature_code":"PPL","country_code":"PH","cc2":"","admin1_code":"06","admin2_code":"30","admin3_code":"","admin4_code":"","population":"3103","elevation":"","dem":"21","timezone":"Asia/Manila","modification_date":"2012-01-17"},{"geonameid":"1707448","name":"Lantangan","asciiname":"Lantangan","alternatenames":"Lantangan","latitude":"11.386","longitude":"122.8887","feature_class":"P","feature_code":"PPL","country_code":"PH","cc2":"","admin1_code":"06","admin2_code":"18","admin3_code":"","admin4_code":"","population":"2252","elevation":"","dem":"93","timezone":"Asia/Manila","modification_date":"2012-01-17"},{"geonameid":"1707470","name":"Lanot","asciiname":"Lanot","alternatenames":"Lanot","latitude":"11.51917","longitude":"122.75722","feature_class":"P","feature_code":"PPL","country_code":"PH","cc2":"","admin1_code":"06","admin2_code":"18","admin3_code":"","admin4_code":"","population":"6928","elevation":"","dem":"10","timezone":"Asia/Manila","modification_date":"2012-08-04"},{"geonameid":"1707476","name":"Lanna","asciiname":"Lanna","alternatenames":"Lanna","latitude":"17.696","longitude":"121.70014","feature_class":"P","feature_code":"PPL","country_code":"PH","cc2":"","admin1_code":"02","admin2_code":"14","admin3_code":"","admin4_code":"","population":"3439","elevation":"","dem":"26","timezone":"Asia/Manila","modification_date":"2013-04-03"},{"geonameid":"1707500","name":"Lanigay","asciiname":"Lanigay","alternatenames":"Lanigay","latitude":"13.31667","longitude":"123.5","feature_class":"P","feature_code":"PPL","country_code":"PH","cc2":"","admin1_code":"05","admin2_code":"05","admin3_code":"","admin4_code":"","population":"2789","elevation":"","dem":"175","timezone":"Asia/Manila","modification_date":"2012-02-01"},{"geonameid":"1707511","name":"Languyan","asciiname":"Languyan","alternatenames":"Languyan","latitude":"5.2618","longitude":"120.0807","feature_class":"P","feature_code":"PPL","country_code":"PH","cc2":"","admin1_code":"14","admin2_code":"72","admin3_code":"","admin4_code":"","population":"8900","elevation":"","dem":"76","timezone":"Asia/Manila","modification_date":"2012-01-17"},{"geonameid":"1707513","name":"Lañgub","asciiname":"Langub","alternatenames":"Langub,Langud,Lañgub","latitude":"10.79754","longitude":"123.5338","feature_class":"P","feature_code":"PPL","country_code":"PH","cc2":"","admin1_code":"06","admin2_code":"H3","admin3_code":"","admin4_code":"","population":"3039","elevation":"","dem":"19","timezone":"Asia/Manila","modification_date":"2012-06-05"},{"geonameid":"1707518","name":"Langob","asciiname":"Langob","alternatenames":"Langob,Langub","latitude":"10.5774","longitude":"123.7309","feature_class":"P","feature_code":"PPL","country_code":"PH","cc2":"","admin1_code":"07","admin2_code":"21","admin3_code":"","admin4_code":"","population":"2861","elevation":"","dem":"2","timezone":"Asia/Manila","modification_date":"2012-01-17"},{"geonameid":"1707523","name":"Langtad","asciiname":"Langtad","alternatenames":"Angtad,Langtad","latitude":"10.18568","longitude":"123.7344","feature_class":"P","feature_code":"PPL","country_code":"PH","cc2":"","admin1_code":"07","admin2_code":"21","admin3_code":"","admin4_code":"","population":"5531","elevation":"0","dem":"17","timezone":"Asia/Manila","modification_date":"2012-01-17"},{"geonameid":"1707524","name":"Langtad","asciiname":"Langtad","alternatenames":"Langtad","latitude":"9.89094","longitude":"123.6043","feature_class":"P","feature_code":"PPL","country_code":"PH","cc2":"","admin1_code":"07","admin2_code":"21","admin3_code":"","admin4_code":"","population":"2502","elevation":"","dem":"9","timezone":"Asia/Manila","modification_date":"2012-04-05"},{"geonameid":"1707525","name":"Langpas","asciiname":"Langpas","alternatenames":"Langpas","latitude":"5.975","longitude":"120.949","feature_class":"P","feature_code":"PPL","country_code":"PH","cc2":"","admin1_code":"14","admin2_code":"60","admin3_code":"","admin4_code":"","population":"2378","elevation":"","dem":"176","timezone":"Asia/Manila","modification_date":"2012-01-17"},{"geonameid":"1707564","name":"Langiden","asciiname":"Langiden","alternatenames":"Langiden","latitude":"17.5771","longitude":"120.564","feature_class":"P","feature_code":"PPLA3","country_code":"PH","cc2":"","admin1_code":"15","admin2_code":"01","admin3_code":"1707565","admin4_code":"","population":"0","elevation":"","dem":"57","timezone":"Asia/Manila","modification_date":"2011-07-31"},{"geonameid":"1707574","name":"Langcangan","asciiname":"Langcangan","alternatenames":"","latitude":"8.47944","longitude":"123.75583","feature_class":"P","feature_code":"PPL","country_code":"PH","cc2":"","admin1_code":"10","admin2_code":"42","admin3_code":"","admin4_code":"","population":"8707","elevation":"","dem":"130","timezone":"Asia/Manila","modification_date":"2010-08-14"},{"geonameid":"1707593","name":"Langatian","asciiname":"Langatian","alternatenames":"Langatian","latitude":"8.5208","longitude":"123.2324","feature_class":"P","feature_code":"PPL","country_code":"PH","cc2":"","admin1_code":"09","admin2_code":"65","admin3_code":"","admin4_code":"","population":"3518","elevation":"","dem":"6","timezone":"Asia/Manila","modification_date":"2012-01-17"},{"geonameid":"1707659","name":"Lanat","asciiname":"Lanat","alternatenames":"Lanat","latitude":"15.79189","longitude":"120.60461","feature_class":"P","feature_code":"PPL","country_code":"PH","cc2":"","admin1_code":"03","admin2_code":"63","admin3_code":"","admin4_code":"","population":"2178","elevation":"","dem":"29","timezone":"Asia/Manila","modification_date":"2012-08-04"},{"geonameid":"1707665","name":"Lanas","asciiname":"Lanas","alternatenames":"Cogon,Lanas","latitude":"12.04946","longitude":"121.91851","feature_class":"P","feature_code":"PPL","country_code":"PH","cc2":"","admin1_code":"41","admin2_code":"54","admin3_code":"","admin4_code":"","population":"2499","elevation":"","dem":"7","timezone":"Asia/Manila","modification_date":"2012-01-17"},{"geonameid":"1707666","name":"Lanas","asciiname":"Lanas","alternatenames":"Lanas","latitude":"10.26667","longitude":"123.73333","feature_class":"P","feature_code":"PPL","country_code":"PH","cc2":"","admin1_code":"07","admin2_code":"21","admin3_code":"","admin4_code":"","population":"2325","elevation":"","dem":"237","timezone":"Asia/Manila","modification_date":"2012-02-01"},{"geonameid":"1707675","name":"Lanao","asciiname":"Lanao","alternatenames":"Lanao","latitude":"11.25636","longitude":"124.02423","feature_class":"P","feature_code":"PPL","country_code":"PH","cc2":"","admin1_code":"07","admin2_code":"21","admin3_code":"","admin4_code":"","population":"2875","elevation":"","dem":"9","timezone":"Asia/Manila","modification_date":"2015-04-19"},{"geonameid":"1707710","name":"Lamut","asciiname":"Lamut","alternatenames":"Lamut","latitude":"16.64907","longitude":"121.22474","feature_class":"P","feature_code":"PPLA3","country_code":"PH","cc2":"","admin1_code":"15","admin2_code":"27","admin3_code":"1707712","admin4_code":"","population":"4089","elevation":"","dem":"220","timezone":"Asia/Manila","modification_date":"2011-07-31"},{"geonameid":"1707724","name":"Lampitak","asciiname":"Lampitak","alternatenames":"Lampitak","latitude":"6.43222","longitude":"125.0525","feature_class":"P","feature_code":"PPL","country_code":"PH","cc2":"","admin1_code":"12","admin2_code":"70","admin3_code":"","admin4_code":"","population":"2266","elevation":"","dem":"739","timezone":"Asia/Manila","modification_date":"2012-02-01"},{"geonameid":"1707735","name":"Lampari","asciiname":"Lampari","alternatenames":"Lampari","latitude":"6.3125","longitude":"124.88028","feature_class":"P","feature_code":"PPL","country_code":"PH","cc2":"","admin1_code":"12","admin2_code":"70","admin3_code":"","admin4_code":"","population":"2383","elevation":"","dem":"254","timezone":"Asia/Manila","modification_date":"2012-02-01"},{"geonameid":"1707761","name":"Lamitan City","asciiname":"Lamitan City","alternatenames":"Lamitan","latitude":"6.6502","longitude":"122.12952","feature_class":"P","feature_code":"PPLA3","country_code":"PH","cc2":"","admin1_code":"14","admin2_code":"22","admin3_code":"1707763","admin4_code":"","population":"6114","elevation":"","dem":"42","timezone":"Asia/Manila","modification_date":"2015-02-01"},{"geonameid":"1707762","name":"Lamitan","asciiname":"Lamitan","alternatenames":"Lamidan,Lamitan","latitude":"6.08722","longitude":"125.70222","feature_class":"P","feature_code":"PPL","country_code":"PH","cc2":"","admin1_code":"11","admin2_code":"25","admin3_code":"","admin4_code":"","population":"3241","elevation":"","dem":"23","timezone":"Asia/Manila","modification_date":"2012-01-17"},{"geonameid":"1707770","name":"Laminusa","asciiname":"Laminusa","alternatenames":"Laminusa","latitude":"5.5549","longitude":"120.9136","feature_class":"P","feature_code":"PPL","country_code":"PH","cc2":"","admin1_code":"14","admin2_code":"60","admin3_code":"","admin4_code":"","population":"8113","elevation":"","dem":"3","timezone":"Asia/Manila","modification_date":"2012-01-17"},{"geonameid":"1707782","name":"Lamian","asciiname":"Lamian","alternatenames":"Lamian","latitude":"6.30917","longitude":"124.84639","feature_class":"P","feature_code":"PPL","country_code":"PH","cc2":"","admin1_code":"12","admin2_code":"70","admin3_code":"","admin4_code":"","population":"3936","elevation":"","dem":"257","timezone":"Asia/Manila","modification_date":"2012-02-01"},{"geonameid":"1707799","name":"Lambunao","asciiname":"Lambunao","alternatenames":"Lambunao","latitude":"11.05563","longitude":"122.4759","feature_class":"P","feature_code":"PPLA3","country_code":"PH","cc2":"","admin1_code":"06","admin2_code":"30","admin3_code":"1707801","admin4_code":"","population":"5500","elevation":"","dem":"177","timezone":"Asia/Manila","modification_date":"2011-07-31"},{"geonameid":"1707812","name":"Lambayong","asciiname":"Lambayong","alternatenames":"Lambayong,Lombaying,Lombayong","latitude":"6.51944","longitude":"125.04444","feature_class":"P","feature_code":"PPL","country_code":"PH","cc2":"","admin1_code":"12","admin2_code":"71","admin3_code":"","admin4_code":"","population":"11009","elevation":"","dem":"810","timezone":"Asia/Manila","modification_date":"2012-01-17"},{"geonameid":"1707826","name":"Lambakin","asciiname":"Lambakin","alternatenames":"Lambakin","latitude":"15.37171","longitude":"120.8607","feature_class":"P","feature_code":"PPL","country_code":"PH","cc2":"","admin1_code":"03","admin2_code":"47","admin3_code":"","admin4_code":"","population":"2995","elevation":"","dem":"24","timezone":"Asia/Manila","modification_date":"2012-12-05"},