{"nextFile":"cities.93.json","rows":[{"geonameid":"934631","name":"Centre de Flacq","asciiname":"Centre de Flacq","alternatenames":"Centre of Flacq,Flacq","latitude":"-20.18972","longitude":"57.71444","feature_class":"P","feature_code":"PPLA","country_code":"MU","cc2":"","admin1_code":"13","admin2_code":"","admin3_code":"","admin4_code":"","population":"17710","elevation":"","dem":"53","timezone":"Indian/Mauritius","modification_date":"2008-03-15"},{"geonameid":"934644","name":"Cascavelle","asciiname":"Cascavelle","alternatenames":"","latitude":"-20.28694","longitude":"57.40722","feature_class":"P","feature_code":"PPL","country_code":"MU","cc2":"","admin1_code":"12","admin2_code":"","admin3_code":"","admin4_code":"","population":"2613","elevation":"","dem":"135","timezone":"Indian/Mauritius","modification_date":"2006-01-17"},{"geonameid":"934649","name":"Cap Malheureux","asciiname":"Cap Malheureux","alternatenames":"Cap Malheureux","latitude":"-19.98417","longitude":"57.61417","feature_class":"P","feature_code":"PPL","country_code":"MU","cc2":"","admin1_code":"19","admin2_code":"","admin3_code":"","admin4_code":"","population":"4803","elevation":"","dem":"9","timezone":"Indian/Mauritius","modification_date":"2012-05-05"},{"geonameid":"934656","name":"Camp Thorel","asciiname":"Camp Thorel","alternatenames":"Camp Thorel,Camp Thoret","latitude":"-20.21472","longitude":"57.61611","feature_class":"P","feature_code":"PPL","country_code":"MU","cc2":"","admin1_code":"15","admin2_code":"","admin3_code":"","admin4_code":"","population":"2299","elevation":"","dem":"392","timezone":"Indian/Mauritius","modification_date":"2012-01-18"},{"geonameid":"934660","name":"Camp Diable","asciiname":"Camp Diable","alternatenames":"","latitude":"-20.46278","longitude":"57.57889","feature_class":"P","feature_code":"PPL","country_code":"MU","cc2":"","admin1_code":"20","admin2_code":"","admin3_code":"","admin4_code":"","population":"5082","elevation":"","dem":"198","timezone":"Indian/Mauritius","modification_date":"2006-01-17"},{"geonameid":"934661","name":"Camp de Masque","asciiname":"Camp de Masque","alternatenames":"Camp de Masque,Camp de Masque Station","latitude":"-20.23694","longitude":"57.66333","feature_class":"P","feature_code":"PPL","country_code":"MU","cc2":"","admin1_code":"13","admin2_code":"","admin3_code":"","admin4_code":"","population":"2721","elevation":"","dem":"265","timezone":"Indian/Mauritius","modification_date":"2012-01-18"},{"geonameid":"934677","name":"Brisée Verdière","asciiname":"Brisee Verdiere","alternatenames":"","latitude":"-20.16389","longitude":"57.64667","feature_class":"P","feature_code":"PPL","country_code":"MU","cc2":"","admin1_code":"13","admin2_code":"","admin3_code":"","admin4_code":"","population":"7374","elevation":"","dem":"183","timezone":"Indian/Mauritius","modification_date":"2006-01-17"},{"geonameid":"934693","name":"Bon Accueil","asciiname":"Bon Accueil","alternatenames":"","latitude":"-20.17083","longitude":"57.65639","feature_class":"P","feature_code":"PPL","country_code":"MU","cc2":"","admin1_code":"13","admin2_code":"","admin3_code":"","admin4_code":"","population":"6553","elevation":"","dem":"183","timezone":"Indian/Mauritius","modification_date":"2006-01-17"},{"geonameid":"934705","name":"Bois des Amourettes","asciiname":"Bois des Amourettes","alternatenames":"","latitude":"-20.36306","longitude":"57.73111","feature_class":"P","feature_code":"PPL","country_code":"MU","cc2":"","admin1_code":"14","admin2_code":"","admin3_code":"","admin4_code":"","population":"1986","elevation":"","dem":"182","timezone":"Indian/Mauritius","modification_date":"2006-01-17"},{"geonameid":"934750","name":"Bel Air Rivière Sèche","asciiname":"Bel Air Riviere Seche","alternatenames":"Bel Air Riviere Seche,Bel Air Rivière Sèche","latitude":"-20.25777","longitude":"57.74976","feature_class":"P","feature_code":"PPL","country_code":"MU","cc2":"","admin1_code":"13","admin2_code":"","admin3_code":"","admin4_code":"","population":"17671","elevation":"","dem":"78","timezone":"Indian/Mauritius","modification_date":"2014-05-18"},{"geonameid":"934753","name":"Beau Vallon","asciiname":"Beau Vallon","alternatenames":"Beau Vallon,Beau-Vallon","latitude":"-20.41889","longitude":"57.69528","feature_class":"P","feature_code":"PPL","country_code":"MU","cc2":"","admin1_code":"14","admin2_code":"","admin3_code":"","admin4_code":"","population":"7016","elevation":"","dem":"35","timezone":"Indian/Mauritius","modification_date":"2013-07-05"},{"geonameid":"934812","name":"Albion","asciiname":"Albion","alternatenames":"","latitude":"-20.21167","longitude":"57.40083","feature_class":"P","feature_code":"PPL","country_code":"MU","cc2":"","admin1_code":"12","admin2_code":"","admin3_code":"","admin4_code":"","population":"3254","elevation":"","dem":"147","timezone":"Indian/Mauritius","modification_date":"2006-01-17"},{"geonameid":"1106584","name":"Laventure","asciiname":"Laventure","alternatenames":"","latitude":"-20.14583","longitude":"57.67667","feature_class":"P","feature_code":"PPL","country_code":"MU","cc2":"","admin1_code":"13","admin2_code":"","admin3_code":"","admin4_code":"","population":"6171","elevation":"","dem":"120","timezone":"Indian/Mauritius","modification_date":"2006-01-17"},{"geonameid":"1106589","name":"Cluny","asciiname":"Cluny","alternatenames":"","latitude":"-20.36694","longitude":"57.60389","feature_class":"P","feature_code":"PPL","country_code":"MU","cc2":"","admin1_code":"14","admin2_code":"","admin3_code":"","admin4_code":"","population":"1629","elevation":"","dem":"317","timezone":"Indian/Mauritius","modification_date":"2006-01-17"},{"geonameid":"1106596","name":"Cottage","asciiname":"Cottage","alternatenames":"","latitude":"-20.05972","longitude":"57.62917","feature_class":"P","feature_code":"PPL","country_code":"MU","cc2":"","admin1_code":"19","admin2_code":"","admin3_code":"","admin4_code":"","population":"3646","elevation":"","dem":"58","timezone":"Indian/Mauritius","modification_date":"2006-01-17"},{"geonameid":"1106614","name":"Grande Pointe aux Piments","asciiname":"Grande Pointe aux Piments","alternatenames":"","latitude":"-20.06278","longitude":"57.51306","feature_class":"P","feature_code":"PPL","country_code":"MU","cc2":"","admin1_code":"16","admin2_code":"","admin3_code":"","admin4_code":"","population":"7556","elevation":"","dem":"-9999","timezone":"Indian/Mauritius","modification_date":"2006-01-17"},{"geonameid":"1106621","name":"Congomah","asciiname":"Congomah","alternatenames":"","latitude":"-20.14889","longitude":"57.59083","feature_class":"P","feature_code":"PPL","country_code":"MU","cc2":"","admin1_code":"16","admin2_code":"","admin3_code":"","admin4_code":"","population":"1956","elevation":"","dem":"199","timezone":"Indian/Mauritius","modification_date":"2006-01-17"},{"geonameid":"1106630","name":"Amaury","asciiname":"Amaury","alternatenames":"","latitude":"-20.13083","longitude":"57.65917","feature_class":"P","feature_code":"PPL","country_code":"MU","cc2":"","admin1_code":"19","admin2_code":"","admin3_code":"","admin4_code":"","population":"2912","elevation":"","dem":"129","timezone":"Indian/Mauritius","modification_date":"2006-01-17"},{"geonameid":"1106631","name":"Plaines des Roches","asciiname":"Plaines des Roches","alternatenames":"","latitude":"-20.11167","longitude":"57.69083","feature_class":"P","feature_code":"PPL","country_code":"MU","cc2":"","admin1_code":"19","admin2_code":"","admin3_code":"","admin4_code":"","population":"4218","elevation":"","dem":"52","timezone":"Indian/Mauritius","modification_date":"2006-01-17"},{"geonameid":"1106638","name":"Mare La Chaux","asciiname":"Mare La Chaux","alternatenames":"","latitude":"-20.19806","longitude":"57.74944","feature_class":"P","feature_code":"PPL","country_code":"MU","cc2":"","admin1_code":"13","admin2_code":"","admin3_code":"","admin4_code":"","population":"2058","elevation":"","dem":"50","timezone":"Indian/Mauritius","modification_date":"2006-01-17"},{"geonameid":"1106643","name":"Quatre Cocos","asciiname":"Quatre Cocos","alternatenames":"Quatre Cocos","latitude":"-20.20778","longitude":"57.7625","feature_class":"P","feature_code":"PPL","country_code":"MU","cc2":"","admin1_code":"13","admin2_code":"","admin3_code":"","admin4_code":"","population":"5724","elevation":"","dem":"39","timezone":"Indian/Mauritius","modification_date":"2016-03-10"},{"geonameid":"1106645","name":"Camp Ithier","asciiname":"Camp Ithier","alternatenames":"","latitude":"-20.21583","longitude":"57.74556","feature_class":"P","feature_code":"PPL","country_code":"MU","cc2":"","admin1_code":"13","admin2_code":"","admin3_code":"","admin4_code":"","population":"4401","elevation":"","dem":"63","timezone":"Indian/Mauritius","modification_date":"2006-01-17"},{"geonameid":"1106660","name":"Ecroignard","asciiname":"Ecroignard","alternatenames":"","latitude":"-20.22611","longitude":"57.73611","feature_class":"P","feature_code":"PPL","country_code":"MU","cc2":"","admin1_code":"13","admin2_code":"","admin3_code":"","admin4_code":"","population":"5952","elevation":"","dem":"81","timezone":"Indian/Mauritius","modification_date":"2006-01-17"},{"geonameid":"1106677","name":"Bambous Virieux","asciiname":"Bambous Virieux","alternatenames":"","latitude":"-20.34278","longitude":"57.7575","feature_class":"P","feature_code":"PPL","country_code":"MU","cc2":"","admin1_code":"14","admin2_code":"","admin3_code":"","admin4_code":"","population":"1540","elevation":"","dem":"45","timezone":"Indian/Mauritius","modification_date":"2006-01-17"},{"geonameid":"1106748","name":"Ebene","asciiname":"Ebene","alternatenames":"Ebene City,Ebene CyberCity","latitude":"-20.24494","longitude":"57.49163","feature_class":"P","feature_code":"PPL","country_code":"MU","cc2":"","admin1_code":"17","admin2_code":"","admin3_code":"","admin4_code":"","population":"1001","elevation":"","dem":"312","timezone":"Indian/Mauritius","modification_date":"2014-08-11"},{"geonameid":"1106763","name":"Gros Cailloux","asciiname":"Gros Cailloux","alternatenames":"","latitude":"-20.20722","longitude":"57.43","feature_class":"P","feature_code":"PPL","country_code":"MU","cc2":"","admin1_code":"12","admin2_code":"","admin3_code":"","admin4_code":"","population":"3361","elevation":"","dem":"71","timezone":"Indian/Mauritius","modification_date":"2006-01-17"},{"geonameid":"1106771","name":"Mapou","asciiname":"Mapou","alternatenames":"Mapou","latitude":"-20.07583","longitude":"57.60139","feature_class":"P","feature_code":"PPL","country_code":"MU","cc2":"","admin1_code":"19","admin2_code":"","admin3_code":"","admin4_code":"","population":"1288","elevation":"","dem":"91","timezone":"Indian/Mauritius","modification_date":"2012-01-20"},{"geonameid":"1106788","name":"Dubreuil","asciiname":"Dubreuil","alternatenames":"","latitude":"-20.30132","longitude":"57.59861","feature_class":"P","feature_code":"PPL","country_code":"MU","cc2":"","admin1_code":"15","admin2_code":"","admin3_code":"","admin4_code":"","population":"2726","elevation":"","dem":"389","timezone":"Indian/Mauritius","modification_date":"2015-08-20"},{"geonameid":"1106809","name":"Le Hochet","asciiname":"Le Hochet","alternatenames":"Le Hochet","latitude":"-20.135","longitude":"57.52111","feature_class":"P","feature_code":"PPL","country_code":"MU","cc2":"","admin1_code":"16","admin2_code":"","admin3_code":"","admin4_code":"","population":"15197","elevation":"","dem":"30","timezone":"Indian/Mauritius","modification_date":"2016-03-10"},{"geonameid":"1106811","name":"Calebasses","asciiname":"Calebasses","alternatenames":"","latitude":"-20.11167","longitude":"57.55389","feature_class":"P","feature_code":"PPL","country_code":"MU","cc2":"","admin1_code":"16","admin2_code":"","admin3_code":"","admin4_code":"","population":"4648","elevation":"","dem":"55","timezone":"Indian/Mauritius","modification_date":"2006-01-17"},{"geonameid":"1106813","name":"Arsenal","asciiname":"Arsenal","alternatenames":"","latitude":"-20.10556","longitude":"57.53528","feature_class":"P","feature_code":"PPL","country_code":"MU","cc2":"","admin1_code":"16","admin2_code":"","admin3_code":"","admin4_code":"","population":"2599","elevation":"","dem":"40","timezone":"Indian/Mauritius","modification_date":"2006-01-17"},{"geonameid":"1545752","name":"Port Mathurin","asciiname":"Port Mathurin","alternatenames":"Port Mathurin","latitude":"-19.68333","longitude":"63.41667","feature_class":"P","feature_code":"PPLA","country_code":"MU","cc2":"","admin1_code":"23","admin2_code":"","admin3_code":"","admin4_code":"","population":"6000","elevation":"","dem":"44","timezone":"Indian/Mauritius","modification_date":"2013-08-05"},{"geonameid":"1547471","name":"Baie aux Huîtres","asciiname":"Baie aux Huitres","alternatenames":"Baie aux Huitres,Baie aux Huîtres,Oyster Bay","latitude":"-19.69444","longitude":"63.40833","feature_class":"P","feature_code":"PPL","country_code":"MU","cc2":"MU","admin1_code":"23","admin2_code":"","admin3_code":"","admin4_code":"","population":"2500","elevation":"","dem":"6","timezone":"Indian/Mauritius","modification_date":"2013-05-05"},{"geonameid":"8199111","name":"Cargados Carajos","asciiname":"Cargados Carajos","alternatenames":"Saint Brandon","latitude":"-16.60329","longitude":"59.65851","feature_class":"P","feature_code":"PPLA","country_code":"MU","cc2":"","admin1_code":"22","admin2_code":"","admin3_code":"","admin4_code":"","population":"63","elevation":"","dem":"-9999","timezone":"Indian/Mauritius","modification_date":"2013-07-10"},{"geonameid":"1281980","name":"Meedhoo","asciiname":"Meedhoo","alternatenames":"","latitude":"-0.58333","longitude":"73.23333","feature_class":"P","feature_code":"PPL","country_code":"MV","cc2":"","admin1_code":"01","admin2_code":"","admin3_code":"","admin4_code":"","population":"1726","elevation":"","dem":"1","timezone":"Indian/Maldives","modification_date":"2011-07-15"},{"geonameid":"1282027","name":"Male","asciiname":"Male","alternatenames":"MLE,Maale,Male,Malé,Malė,ma lei,ma lu,male,malle,mare,Μαλέ,Мале,מאלה,މާލެ,माले,মালে,மாலே,มาเล,มาเล่,マレ,瑪律,馬累,말레","latitude":"4.1748","longitude":"73.50888","feature_class":"P","feature_code":"PPLC","country_code":"MV","cc2":"","admin1_code":"38","admin2_code":"","admin3_code":"","admin4_code":"","population":"103693","elevation":"","dem":"8","timezone":"Indian/Maldives","modification_date":"2015-08-04"},{"geonameid":"1282256","name":"Hithadhoo","asciiname":"Hithadhoo","alternatenames":"Hitaddu,Hithadhoo","latitude":"-0.6","longitude":"73.08333","feature_class":"P","feature_code":"PPL","country_code":"MV","cc2":"","admin1_code":"48","admin2_code":"","admin3_code":"","admin4_code":"","population":"9927","elevation":"","dem":"6","timezone":"Indian/Maldives","modification_date":"2012-01-18"},{"geonameid":"1337605","name":"Mahibadhoo","asciiname":"Mahibadhoo","alternatenames":"Mahibadhoo","latitude":"3.75713","longitude":"72.96893","feature_class":"P","feature_code":"PPL","country_code":"MV","cc2":"","admin1_code":"53","admin2_code":"","admin3_code":"","admin4_code":"","population":"2156","elevation":"","dem":"9","timezone":"Indian/Maldives","modification_date":"2013-04-07"},{"geonameid":"1337606","name":"Eydhafushi","asciiname":"Eydhafushi","alternatenames":"","latitude":"5.10327","longitude":"73.07078","feature_class":"P","feature_code":"PPLA","country_code":"MV","cc2":"","admin1_code":"31","admin2_code":"","admin3_code":"","admin4_code":"","population":"2808","elevation":"","dem":"7","timezone":"Indian/Maldives","modification_date":"2013-07-04"},{"geonameid":"1337607","name":"Kudahuvadhoo","asciiname":"Kudahuvadhoo","alternatenames":"","latitude":"2.67075","longitude":"72.89437","feature_class":"P","feature_code":"PPLA","country_code":"MV","cc2":"","admin1_code":"32","admin2_code":"","admin3_code":"","admin4_code":"","population":"1562","elevation":"","dem":"9","timezone":"Indian/Maldives","modification_date":"2013-07-04"},{"geonameid":"1337609","name":"Viligili","asciiname":"Viligili","alternatenames":"Viligili,Villingili","latitude":"0.75906","longitude":"73.43296","feature_class":"P","feature_code":"PPLA","country_code":"MV","cc2":"","admin1_code":"34","admin2_code":"","admin3_code":"","admin4_code":"","population":"2925","elevation":"","dem":"5","timezone":"Indian/Maldives","modification_date":"2013-07-04"},{"geonameid":"1337610","name":"Thinadhoo","asciiname":"Thinadhoo","alternatenames":"Thinadhoo","latitude":"0.53333","longitude":"72.93333","feature_class":"P","feature_code":"PPLA","country_code":"MV","cc2":"","admin1_code":"35","admin2_code":"","admin3_code":"","admin4_code":"","population":"6376","elevation":"","dem":"-9999","timezone":"Indian/Maldives","modification_date":"2013-07-04"},{"geonameid":"1337611","name":"Fuvahmulah","asciiname":"Fuvahmulah","alternatenames":"","latitude":"-0.29878","longitude":"73.42403","feature_class":"P","feature_code":"PPLA","country_code":"MV","cc2":"","admin1_code":"42","admin2_code":"","admin3_code":"","admin4_code":"","population":"11140","elevation":"","dem":"9","timezone":"Indian/Maldives","modification_date":"2013-07-04"},{"geonameid":"1337612","name":"Dhidhdhoo","asciiname":"Dhidhdhoo","alternatenames":"Dhidhdhoo","latitude":"6.88744","longitude":"73.11402","feature_class":"P","feature_code":"PPLA","country_code":"MV","cc2":"","admin1_code":"36","admin2_code":"","admin3_code":"","admin4_code":"","population":"3039","elevation":"","dem":"8","timezone":"Indian/Maldives","modification_date":"2015-06-29"},{"geonameid":"1337613","name":"Kulhudhuffushi","asciiname":"Kulhudhuffushi","alternatenames":"","latitude":"6.62207","longitude":"73.06998","feature_class":"P","feature_code":"PPLA","country_code":"MV","cc2":"","admin1_code":"37","admin2_code":"","admin3_code":"","admin4_code":"","population":"9500","elevation":"","dem":"6","timezone":"Indian/Maldives","modification_date":"2013-07-04"},{"geonameid":"1337616","name":"Naifaru","asciiname":"Naifaru","alternatenames":"","latitude":"5.44438","longitude":"73.36571","feature_class":"P","feature_code":"PPLA","country_code":"MV","cc2":"","admin1_code":"39","admin2_code":"","admin3_code":"","admin4_code":"","population":"5044","elevation":"","dem":"6","timezone":"Indian/Maldives","modification_date":"2013-07-04"},{"geonameid":"1337617","name":"Muli","asciiname":"Muli","alternatenames":"Muli","latitude":"2.91667","longitude":"73.56667","feature_class":"P","feature_code":"PPLA","country_code":"MV","cc2":"","admin1_code":"41","admin2_code":"","admin3_code":"","admin4_code":"","population":"1008","elevation":"","dem":"-9999","timezone":"Indian/Maldives","modification_date":"2013-07-04"},{"geonameid":"1337618","name":"Manadhoo","asciiname":"Manadhoo","alternatenames":"Manadhoo","latitude":"5.76687","longitude":"73.4136","feature_class":"P","feature_code":"PPLA","country_code":"MV","cc2":"","admin1_code":"43","admin2_code":"","admin3_code":"","admin4_code":"","population":"1580","elevation":"","dem":"8","timezone":"Indian/Maldives","modification_date":"2013-07-04"},{"geonameid":"1337619","name":"Ugoofaaru","asciiname":"Ugoofaaru","alternatenames":"U'ngoofaaru,Ugoofaaru,U’ngoofaaru","latitude":"5.66812","longitude":"73.03017","feature_class":"P","feature_code":"PPLA","country_code":"MV","cc2":"","admin1_code":"44","admin2_code":"","admin3_code":"","admin4_code":"","population":"1575","elevation":"","dem":"9","timezone":"Indian/Maldives","modification_date":"2013-07-04"},{"geonameid":"1337620","name":"Funadhoo","asciiname":"Funadhoo","alternatenames":"Farukolhufunadhoo,Funadhoo","latitude":"6.15091","longitude":"73.29013","feature_class":"P","feature_code":"PPLA","country_code":"MV","cc2":"","admin1_code":"45","admin2_code":"","admin3_code":"","admin4_code":"","population":"2900","elevation":"","dem":"9","timezone":"Indian/Maldives","modification_date":"2013-07-04"},{"geonameid":"1337622","name":"Veymandoo","asciiname":"Veymandoo","alternatenames":"Veymandhoo,Veymandoo","latitude":"2.18772","longitude":"73.09556","feature_class":"P","feature_code":"PPLA","country_code":"MV","cc2":"","admin1_code":"46","admin2_code":"","admin3_code":"","admin4_code":"","population":"1100","elevation":"","dem":"10","timezone":"Indian/Maldives","modification_date":"2013-09-22"},{"geonameid":"1337623","name":"Felidhoo","asciiname":"Felidhoo","alternatenames":"Felidhoo","latitude":"3.47182","longitude":"73.54699","feature_class":"P","feature_code":"PPLA","country_code":"MV","cc2":"","admin1_code":"47","admin2_code":"","admin3_code":"","admin4_code":"","population":"541","elevation":"","dem":"8","timezone":"Indian/Maldives","modification_date":"2013-07-04"},{"geonameid":"7874641","name":"Fonadhoo","asciiname":"Fonadhoo","alternatenames":"","latitude":"1.83243","longitude":"73.50257","feature_class":"P","feature_code":"PPLA","country_code":"MV","cc2":"","admin1_code":"05","admin2_code":"","admin3_code":"","admin4_code":"","population":"1773","elevation":"","dem":"7","timezone":"Indian/Maldives","modification_date":"2013-07-04"},{"geonameid":"7910632","name":"Vilufushi","asciiname":"Vilufushi","alternatenames":"","latitude":"2.50306","longitude":"73.30859","feature_class":"P","feature_code":"PPL","country_code":"MV","cc2":"","admin1_code":"","admin2_code":"","admin3_code":"","admin4_code":"","population":"2077","elevation":"","dem":"7","timezone":"Indian/Maldives","modification_date":"2011-07-29"},{"geonameid":"7911024","name":"Madifushi","asciiname":"Madifushi","alternatenames":"","latitude":"2.35582","longitude":"73.35473","feature_class":"P","feature_code":"PPL","country_code":"MV","cc2":"","admin1_code":"","admin2_code":"","admin3_code":"","admin4_code":"","population":"1110","elevation":"","dem":"9","timezone":"Indian/Maldives","modification_date":"2011-08-04"},{"geonameid":"8410622","name":"Open Stage","asciiname":"Open Stage","alternatenames":"","latitude":"5.1053","longitude":"73.07115","feature_class":"P","feature_code":"PPLL","country_code":"MV","cc2":"","admin1_code":"","admin2_code":"","admin3_code":"","admin4_code":"","population":"1258","elevation":"250","dem":"8","timezone":"Indian/Maldives","modification_date":"2012-10-10"},{"geonameid":"235715","name":"Karonga","asciiname":"Karonga","alternatenames":"KGJ,Karonga,Каронга","latitude":"-9.93333","longitude":"33.93333","feature_class":"P","feature_code":"PPLA2","country_code":"MW","cc2":"","admin1_code":"N","admin2_code":"08","admin3_code":"","admin4_code":"","population":"34207","elevation":"","dem":"486","timezone":"Africa/Blantyre","modification_date":"2011-04-25"},{"geonameid":"235751","name":"Chitipa","asciiname":"Chitipa","alternatenames":"Chipita,Chitipa,Fort Hill","latitude":"-9.70237","longitude":"33.26969","feature_class":"P","feature_code":"PPLA2","country_code":"MW","cc2":"","admin1_code":"N","admin2_code":"04","admin3_code":"","admin4_code":"","population":"8824","elevation":"","dem":"1286","timezone":"Africa/Blantyre","modification_date":"2011-04-25"},{"geonameid":"923295","name":"Zomba","asciiname":"Zomba","alternatenames":"Zomba,jomba,song ba,zomba,zonba,zwmba  malawy,Зомба,زومبا، مالاوی,ზომბა,ゾンバ,松巴,좀바","latitude":"-15.38596","longitude":"35.3188","feature_class":"P","feature_code":"PPLA2","country_code":"MW","cc2":"","admin1_code":"S","admin2_code":"23","admin3_code":"","admin4_code":"","population":"80932","elevation":"","dem":"949","timezone":"Africa/Blantyre","modification_date":"2011-04-25"},{"geonameid":"923652","name":"Thyolo","asciiname":"Thyolo","alternatenames":"Cholo,Thyolo","latitude":"-16.06775","longitude":"35.14046","feature_class":"P","feature_code":"PPLA2","country_code":"MW","cc2":"","admin1_code":"S","admin2_code":"05","admin3_code":"","admin4_code":"","population":"5775","elevation":"","dem":"912","timezone":"Africa/Blantyre","modification_date":"2011-11-08"},{"geonameid":"924055","name":"Salima","asciiname":"Salima","alternatenames":"LMB,Salima,Салима","latitude":"-13.7804","longitude":"34.4587","feature_class":"P","feature_code":"PPLA2","country_code":"MW","cc2":"","admin1_code":"C","admin2_code":"22","admin3_code":"","admin4_code":"","population":"30052","elevation":"","dem":"512","timezone":"Africa/Blantyre","modification_date":"2011-04-25"},{"geonameid":"924102","name":"Rumphi","asciiname":"Rumphi","alternatenames":"Rumphi,Rumpi,Rumpi Boma","latitude":"-11.01863","longitude":"33.85746","feature_class":"P","feature_code":"PPLA2","country_code":"MW","cc2":"","admin1_code":"N","admin2_code":"21","admin3_code":"","admin4_code":"","population":"20727","elevation":"","dem":"1084","timezone":"Africa/Blantyre","modification_date":"2011-11-08"},{"geonameid":"924206","name":"Phalombe","asciiname":"Phalombe","alternatenames":"Palombe,Palombe Market,Phalombe","latitude":"-15.80635","longitude":"35.65067","feature_class":"P","feature_code":"PPLA2","country_code":"MW","cc2":"","admin1_code":"S","admin2_code":"30","admin3_code":"","admin4_code":"","population":"2663","elevation":"","dem":"766","timezone":"Africa/Blantyre","modification_date":"2011-04-25"},{"geonameid":"924491","name":"Ntchisi","asciiname":"Ntchisi","alternatenames":"Nchisi,Nchisi Boma,Ntchisi","latitude":"-13.52775","longitude":"33.9149","feature_class":"P","feature_code":"PPLA2","country_code":"MW","cc2":"","admin1_code":"C","admin2_code":"20","admin3_code":"","admin4_code":"","population":"7918","elevation":"","dem":"1545","timezone":"Africa/Blantyre","modification_date":"2011-06-02"},{"geonameid":"924492","name":"Ntcheu","asciiname":"Ntcheu","alternatenames":"Ncheu,Nitcheu,Ntcheu","latitude":"-14.82027","longitude":"34.63586","feature_class":"P","feature_code":"PPLA2","country_code":"MW","cc2":"","admin1_code":"C","admin2_code":"16","admin3_code":"","admin4_code":"","population":"10445","elevation":"","dem":"1132","timezone":"Africa/Blantyre","modification_date":"2011-11-08"},{"geonameid":"924572","name":"Nsanje","asciiname":"Nsanje","alternatenames":"Chimombi,Nsanje,Port Herald","latitude":"-16.91995","longitude":"35.26199","feature_class":"P","feature_code":"PPLA2","country_code":"MW","cc2":"","admin1_code":"S","admin2_code":"19","admin3_code":"","admin4_code":"","population":"21774","elevation":"","dem":"55","timezone":"Africa/Blantyre","modification_date":"2011-11-08"},{"geonameid":"924705","name":"Nkhotakota","asciiname":"Nkhotakota","alternatenames":"Kota Kota,Nkhotakota,en ke ta ke ta,eunkotakota,nkhwtakwta,نخوتاکوتا,恩科塔科塔,은코타코타","latitude":"-12.92744","longitude":"34.29614","feature_class":"P","feature_code":"PPLA2","country_code":"MW","cc2":"","admin1_code":"C","admin2_code":"18","admin3_code":"","admin4_code":"","population":"24865","elevation":"","dem":"497","timezone":"Africa/Blantyre","modification_date":"2011-11-08"},{"geonameid":"924732","name":"Nkhata Bay","asciiname":"Nkhata Bay","alternatenames":"Nkata,Nkata Bay,Nkhata Bay","latitude":"-11.60659","longitude":"34.29073","feature_class":"P","feature_code":"PPLA2","country_code":"MW","cc2":"","admin1_code":"N","admin2_code":"17","admin3_code":"","admin4_code":"","population":"11721","elevation":"","dem":"547","timezone":"Africa/Blantyre","modification_date":"2011-11-08"},{"geonameid":"924963","name":"Neno","asciiname":"Neno","alternatenames":"","latitude":"-15.39805","longitude":"34.65343","feature_class":"P","feature_code":"PPLA2","country_code":"MW","cc2":"","admin1_code":"S","admin2_code":"31","admin3_code":"","admin4_code":"","population":"0","elevation":"","dem":"907","timezone":"Africa/Blantyre","modification_date":"2011-04-25"},{"geonameid":"925475","name":"Mzuzu","asciiname":"Mzuzu","alternatenames":"Kaningina,Mzouzou,Mzuzo,Mzuzu,ZZU,eumjuju,mu zu zu,muzuzu,mzwzw,Μζούζου,Мзузу,مزوزو,ムズズ,姆祖祖,음주주","latitude":"-11.46556","longitude":"34.02071","feature_class":"P","feature_code":"PPLA","country_code":"MW","cc2":"","admin1_code":"N","admin2_code":"15","admin3_code":"","admin4_code":"","population":"175345","elevation":"","dem":"1275","timezone":"Africa/Blantyre","modification_date":"2013-08-05"},{"geonameid":"925498","name":"Mzimba","asciiname":"Mzimba","alternatenames":"Mzimba,Мзимба","latitude":"-11.9","longitude":"33.6","feature_class":"P","feature_code":"PPLA2","country_code":"MW","cc2":"","admin1_code":"N","admin2_code":"15","admin3_code":"","admin4_code":"","population":"19308","elevation":"","dem":"1339","timezone":"Africa/Blantyre","modification_date":"2011-04-25"},{"geonameid":"925596","name":"Mwanza","asciiname":"Mwanza","alternatenames":"Mwanza","latitude":"-15.60262","longitude":"34.52479","feature_class":"P","feature_code":"PPLA2","country_code":"MW","cc2":"","admin1_code":"S","admin2_code":"25","admin3_code":"","admin4_code":"","population":"11379","elevation":"","dem":"654","timezone":"Africa/Blantyre","modification_date":"2011-11-08"},{"geonameid":"925789","name":"Mulanje","asciiname":"Mulanje","alternatenames":"Mlange,Mlanje,Mlanje Boma,Mulanje","latitude":"-16.03163","longitude":"35.5","feature_class":"P","feature_code":"PPLA2","country_code":"MW","cc2":"","admin1_code":"S","admin2_code":"29","admin3_code":"","admin4_code":"","population":"16483","elevation":"","dem":"609","timezone":"Africa/Blantyre","modification_date":"2011-11-08"},{"geonameid":"926087","name":"Mponela","asciiname":"Mponela","alternatenames":"Mponela","latitude":"-13.53194","longitude":"33.74008","feature_class":"P","feature_code":"PPL","country_code":"MW","cc2":"","admin1_code":"C","admin2_code":"07","admin3_code":"","admin4_code":"","population":"11222","elevation":"","dem":"1216","timezone":"Africa/Blantyre","modification_date":"2012-01-18"},{"geonameid":"926308","name":"Monkey Bay","asciiname":"Monkey Bay","alternatenames":"Lusumbwe,MYZ,Monkey Bay","latitude":"-14.08239","longitude":"34.91652","feature_class":"P","feature_code":"PPL","country_code":"MW","cc2":"","admin1_code":"S","admin2_code":"12","admin3_code":"","admin4_code":"","population":"11619","elevation":"","dem":"484","timezone":"Africa/Blantyre","modification_date":"2015-12-13"},{"geonameid":"926747","name":"Mchinji","asciiname":"Mchinji","alternatenames":"Chimji,Fort Manning,Mchinji","latitude":"-13.79841","longitude":"32.88019","feature_class":"P","feature_code":"PPLA2","country_code":"MW","cc2":"","admin1_code":"C","admin2_code":"13","admin3_code":"","admin4_code":"","population":"18305","elevation":"","dem":"1186","timezone":"Africa/Blantyre","modification_date":"2011-11-08"},{"geonameid":"927246","name":"Mangochi","asciiname":"Mangochi","alternatenames":"Fort Johnston,MAI,Mangoche,Mangochi,Mponda,Мангочи","latitude":"-14.47815","longitude":"35.26448","feature_class":"P","feature_code":"PPLA2","country_code":"MW","cc2":"","admin1_code":"S","admin2_code":"12","admin3_code":"","admin4_code":"","population":"40236","elevation":"","dem":"484","timezone":"Africa/Blantyre","modification_date":"2011-04-25"},{"geonameid":"927643","name":"Machinga","asciiname":"Machinga","alternatenames":"","latitude":"-15.16849","longitude":"35.30002","feature_class":"P","feature_code":"PPLA2","country_code":"MW","cc2":"","admin1_code":"S","admin2_code":"28","admin3_code":"","admin4_code":"","population":"1418","elevation":"","dem":"768","timezone":"Africa/Blantyre","modification_date":"2011-11-08"},{"geonameid":"927792","name":"Luchenza","asciiname":"Luchenza","alternatenames":"Luchenya,Luchenza,Lughenza","latitude":"-16.00693","longitude":"35.30947","feature_class":"P","feature_code":"PPL","country_code":"MW","cc2":"","admin1_code":"S","admin2_code":"05","admin3_code":"","admin4_code":"","population":"11939","elevation":"","dem":"682","timezone":"Africa/Blantyre","modification_date":"2012-01-18"},{"geonameid":"927834","name":"Liwonde","asciiname":"Liwonde","alternatenames":"Liwonde,Old Liwonde Boma,VUU","latitude":"-15.06665","longitude":"35.22543","feature_class":"P","feature_code":"PPL","country_code":"MW","cc2":"","admin1_code":"S","admin2_code":"28","admin3_code":"","admin4_code":"","population":"22469","elevation":"","dem":"499","timezone":"Africa/Blantyre","modification_date":"2013-04-27"},{"geonameid":"927856","name":"Livingstonia","asciiname":"Livingstonia","alternatenames":"Kondowe,Livingstonia,Livingstonia Mission","latitude":"-10.60602","longitude":"34.10628","feature_class":"P","feature_code":"PPL","country_code":"MW","cc2":"","admin1_code":"N","admin2_code":"21","admin3_code":"","admin4_code":"","population":"5552","elevation":"","dem":"1350","timezone":"Africa/Blantyre","modification_date":"2012-01-18"},{"geonameid":"927967","name":"Lilongwe","asciiname":"Lilongwe","alternatenames":"Gorad Lilongveh,LLW,Lilon'nkoue,Lilonguee,Lilongve,Lilongvo,Lilongvė,Lilongwe,Lilongüe,Lilonhue,Lilonqve,Lílongve,li lang wei,li long gui,li lxng we,lilamgve,lilangave,lillong-gwe,lilongve,lilonve,lylwnghwy,lylwngwh,lylwngwwh,rironguu~e,Λιλόνγκουε,Горад Лілонгвэ,Лилонгве,Лілонгве,Լիլոնգվե,לילאנגווע,לילונגווה,ليلونغوي,لیلونگوه,لیلونگوے,لیلۆنگوێ,لیلیونگوے,लिलाँग्वे,ਲਿਲਾਂਗਵੇ,லிலொங்வே,ลิลองเว,ལི་ལོང་ཀུའེ།,ლილონგვე,ሊሎንጔ,リロングウェ,利隆圭,里朗威,릴롱궤","latitude":"-13.96692","longitude":"33.78725","feature_class":"P","feature_code":"PPLC","country_code":"MW","cc2":"","admin1_code":"C","admin2_code":"11","admin3_code":"","admin4_code":"","population":"646750","elevation":"","dem":"1056","timezone":"Africa/Blantyre","modification_date":"2012-01-18"},{"geonameid":"928534","name":"Kasungu","asciiname":"Kasungu","alternatenames":"KBQ,Kasungu,Касунгу","latitude":"-13.03333","longitude":"33.48333","feature_class":"P","feature_code":"PPLA2","country_code":"MW","cc2":"","admin1_code":"C","admin2_code":"09","admin3_code":"","admin4_code":"","population":"42555","elevation":"","dem":"1051","timezone":"Africa/Blantyre","modification_date":"2011-04-25"},{"geonameid":"929977","name":"Dowa","asciiname":"Dowa","alternatenames":"Dowa","latitude":"-13.65399","longitude":"33.93754","feature_class":"P","feature_code":"PPLA2","country_code":"MW","cc2":"","admin1_code":"C","admin2_code":"07","admin3_code":"","admin4_code":"","population":"5565","elevation":"","dem":"1361","timezone":"Africa/Blantyre","modification_date":"2011-04-25"},{"geonameid":"930025","name":"Dedza","asciiname":"Dedza","alternatenames":"Dedza","latitude":"-14.3779","longitude":"34.33322","feature_class":"P","feature_code":"PPLA2","country_code":"MW","cc2":"","admin1_code":"C","admin2_code":"06","admin3_code":"","admin4_code":"","population":"15608","elevation":"","dem":"1608","timezone":"Africa/Blantyre","modification_date":"2011-04-25"},{"geonameid":"930580","name":"Chiradzulu","asciiname":"Chiradzulu","alternatenames":"Chiradzulu,Chiradzulu Boma","latitude":"-15.67461","longitude":"35.14071","feature_class":"P","feature_code":"PPLA2","country_code":"MW","cc2":"","admin1_code":"S","admin2_code":"03","admin3_code":"","admin4_code":"","population":"1580","elevation":"","dem":"1118","timezone":"Africa/Blantyre","modification_date":"2011-11-08"},{"geonameid":"930582","name":"Chipyela","asciiname":"Chipyela","alternatenames":"","latitude":"-12.06618","longitude":"34.74092","feature_class":"P","feature_code":"PPLA2","country_code":"MW","cc2":"","admin1_code":"N","admin2_code":"27","admin3_code":"","admin4_code":"","population":"0","elevation":"","dem":"491","timezone":"Africa/Blantyre","modification_date":"2011-04-25"},{"geonameid":"930629","name":"Chipoka","asciiname":"Chipoka","alternatenames":"Chipoka","latitude":"-13.99329","longitude":"34.51566","feature_class":"P","feature_code":"PPL","country_code":"MW","cc2":"","admin1_code":"C","admin2_code":"22","admin3_code":"","admin4_code":"","population":"4346","elevation":"","dem":"483","timezone":"Africa/Blantyre","modification_date":"2012-01-18"},{"geonameid":"931070","name":"Chikwawa","asciiname":"Chikwawa","alternatenames":"Chikwawa","latitude":"-16.03352","longitude":"34.80091","feature_class":"P","feature_code":"PPLA2","country_code":"MW","cc2":"","admin1_code":"S","admin2_code":"02","admin3_code":"","admin4_code":"","population":"6987","elevation":"","dem":"106","timezone":"Africa/Blantyre","modification_date":"2011-11-09"},{"geonameid":"931755","name":"Blantyre","asciiname":"Blantyre","alternatenames":"BLZ,Blantair,Blantairas,Blantajer,Blantajr,Blantajur,Blantire,Blantyre,Blantyre-Limbe,Gorad Blantajr,Kapeni,beullaentaieo,blamtayara,blantayr,blantayr  malawy,blantyyr,blntyyr,bu lan tai er,burantaiya,Μπλαντάιρ,Блантайр,Блантайър,Блантајер,Горад Блантайр,בלנטייר,بلانتاير,بلانتایر، مالاوی,بلانتیئر,ब्लँटायर,ブランタイヤ,布兰太尔,블랜타이어","latitude":"-15.78499","longitude":"35.00854","feature_class":"P","feature_code":"PPLA","country_code":"MW","cc2":"","admin1_code":"S","admin2_code":"24","admin3_code":"","admin4_code":"","population":"584877","elevation":"","dem":"1041","timezone":"Africa/Blantyre","modification_date":"2014-07-21"},{"geonameid":"931865","name":"Balaka","asciiname":"Balaka","alternatenames":"Balaka,Balakas,Palaka,Балака","latitude":"-14.97928","longitude":"34.95575","feature_class":"P","feature_code":"PPLA2","country_code":"MW","cc2":"","admin1_code":"S","admin2_code":"26","admin3_code":"","admin4_code":"","population":"18902","elevation":"","dem":"633","timezone":"Africa/Blantyre","modification_date":"2011-11-08"},{"geonameid":"7839184","name":"Makata","asciiname":"Makata","alternatenames":"","latitude":"-15.78721","longitude":"35.03046","feature_class":"P","feature_code":"PPLA3","country_code":"MW","cc2":"","admin1_code":"S","admin2_code":"","admin3_code":"","admin4_code":"","population":"0","elevation":"","dem":"1085","timezone":"Africa/Blantyre","modification_date":"2011-06-01"},{"geonameid":"3482886","name":"Cuauhtémoc","asciiname":"Cuauhtemoc","alternatenames":"Cuauhtemoc,Cuauhtémoc","latitude":"22.54408","longitude":"-98.15074","feature_class":"P","feature_code":"PPL","country_code":"MX","cc2":"","admin1_code":"28","admin2_code":"003","admin3_code":"","admin4_code":"","population":"5924","elevation":"","dem":"16","timezone":"America/Monterrey","modification_date":"2015-06-22"},{"geonameid":"3482946","name":"Santa Martha","asciiname":"Santa Martha","alternatenames":"","latitude":"22.34278","longitude":"-98.70639","feature_class":"P","feature_code":"PPL","country_code":"MX","cc2":"","admin1_code":"24","admin2_code":"040","admin3_code":"","admin4_code":"","population":"2374","elevation":"","dem":"95","timezone":"America/Mexico_City","modification_date":"2013-08-01"},{"geonameid":"3482969","name":"Gustavo A. Madero","asciiname":"Gustavo A. Madero","alternatenames":"Gustavo A. Madero","latitude":"22.8694","longitude":"-98.75886","feature_class":"P","feature_code":"PPL","country_code":"MX","cc2":"","admin1_code":"28","admin2_code":"012","admin3_code":"","admin4_code":"","population":"1185772","elevation":"","dem":"60","timezone":"America/Monterrey","modification_date":"2015-06-22"},{"geonameid":"3483063","name":"Xicoténcatl","asciiname":"Xicotencatl","alternatenames":"Xicohtencatl,Xicohténcatl,Xicotencate,Xicotencatl,Xicoténcatl","latitude":"22.99623","longitude":"-98.94218","feature_class":"P","feature_code":"PPL","country_code":"MX","cc2":"","admin1_code":"28","admin2_code":"043","admin3_code":"","admin4_code":"","population":"9346","elevation":"","dem":"95","timezone":"America/Monterrey","modification_date":"2015-06-22"},{"geonameid":"3483197","name":"San Fernando","asciiname":"San Fernando","alternatenames":"San Fernando,San Fernando de Presas","latitude":"24.84749","longitude":"-98.14828","feature_class":"P","feature_code":"PPL","country_code":"MX","cc2":"","admin1_code":"28","admin2_code":"035","admin3_code":"","admin4_code":"","population":"29171","elevation":"","dem":"44","timezone":"America/Monterrey","modification_date":"2015-06-22"},{"geonameid":"3483328","name":"El Control","asciiname":"El Control","alternatenames":"Control Cik,El Control","latitude":"25.95867","longitude":"-97.81281","feature_class":"P","feature_code":"PPL","country_code":"MX","cc2":"","admin1_code":"28","admin2_code":"022","admin3_code":"","admin4_code":"","population":"3136","elevation":"","dem":"24","timezone":"America/Matamoros","modification_date":"2015-01-06"},{"geonameid":"3483393","name":"Ciudad Díaz Ordaz","asciiname":"Ciudad Diaz Ordaz","alternatenames":"Ciudad Diaz Ordaz,Ciudad Díaz Ordaz,Gustavo Diaz Ordaz,Gustavo Díaz Ordaz,San Miguel de Camargo","latitude":"26.23186","longitude":"-98.5956","feature_class":"P","feature_code":"PPL","country_code":"MX","cc2":"","admin1_code":"28","admin2_code":"015","admin3_code":"","admin4_code":"","population":"12698","elevation":"","dem":"45","timezone":"America/Monterrey","modification_date":"2015-06-22"},{"geonameid":"3483609","name":"Nueva Primavera","asciiname":"Nueva Primavera","alternatenames":"Nueva Primavera","latitude":"21.91342","longitude":"-98.85785","feature_class":"P","feature_code":"PPL","country_code":"MX","cc2":"","admin1_code":"24","admin2_code":"040","admin3_code":"","admin4_code":"","population":"1278","elevation":"","dem":"51","timezone":"America/Mexico_City","modification_date":"2014-11-05"},{"geonameid":"3483637","name":"Tamcuime","asciiname":"Tamcuime","alternatenames":"","latitude":"21.60137","longitude":"-99.01077","feature_class":"P","feature_code":"PPL","country_code":"MX","cc2":"","admin1_code":"24","admin2_code":"003","admin3_code":"","admin4_code":"","population":"2080","elevation":"","dem":"96","timezone":"America/Mexico_City","modification_date":"2013-08-01"},{"geonameid":"3483646","name":"Tampate","asciiname":"Tampate","alternatenames":"Tampate,Tampote","latitude":"21.63639","longitude":"-99.02552","feature_class":"P","feature_code":"PPL","country_code":"MX","cc2":"","admin1_code":"24","admin2_code":"003","admin3_code":"","admin4_code":"","population":"3359","elevation":"","dem":"77","timezone":"America/Mexico_City","modification_date":"2014-06-04"},{"geonameid":"3513966","name":"Zumpango","asciiname":"Zumpango","alternatenames":"NLU,Zumpango,Zumpango de Ocampo,Zumpango-de-Okampo,Зумпанго-де-Окампо","latitude":"19.7967","longitude":"-99.09946","feature_class":"P","feature_code":"PPL","country_code":"MX","cc2":"","admin1_code":"15","admin2_code":"120","admin3_code":"","admin4_code":"","population":"50742","elevation":"","dem":"2258","timezone":"America/Mexico_City","modification_date":"2014-02-01"},{"geonameid":"3513967","name":"Zumpango del Río","asciiname":"Zumpango del Rio","alternatenames":"Xumpango,Zumpango,Zumpango del Rio,Zumpango del Río,Zumpango-del'-Rio,Зумпанго-дель-Рио","latitude":"17.65437","longitude":"-99.52725","feature_class":"P","feature_code":"PPL","country_code":"MX","cc2":"","admin1_code":"12","admin2_code":"075","admin3_code":"","admin4_code":"","population":"21143","elevation":"","dem":"1040","timezone":"America/Mexico_City","modification_date":"2016-02-08"},{"geonameid":"3513969","name":"Zumpahuacán","asciiname":"Zumpahuacan","alternatenames":"Zumpahuacan,Zumpahuacán","latitude":"18.91642","longitude":"-99.56568","feature_class":"P","feature_code":"PPL","country_code":"MX","cc2":"","admin1_code":"15","admin2_code":"088","admin3_code":"","admin4_code":"","population":"4450","elevation":"","dem":"2376","timezone":"America/Mexico_City","modification_date":"2015-06-22"},{"geonameid":"3513976","name":"Zozocolco de Hidalgo","asciiname":"Zozocolco de Hidalgo","alternatenames":"Bozocalco,Zozocolco,Zozocolco de Hidalgo","latitude":"20.14048","longitude":"-97.57567","feature_class":"P","feature_code":"PPLA2","country_code":"MX","cc2":"","admin1_code":"21","admin2_code":"","admin3_code":"","admin4_code":"","population":"3370","elevation":"","dem":"298","timezone":"America/Mexico_City","modification_date":"2014-06-05"},{"geonameid":"3513984","name":"Zoquitlán","asciiname":"Zoquitlan","alternatenames":"Zoquitlan,Zoquitlán","latitude":"18.33523","longitude":"-97.01745","feature_class":"P","feature_code":"PPLA2","country_code":"MX","cc2":"","admin1_code":"21","admin2_code":"217","admin3_code":"","admin4_code":"","population":"0","elevation":"","dem":"2233","timezone":"America/Mexico_City","modification_date":"2016-03-10"},{"geonameid":"3513986","name":"Zoquiopan","asciiname":"Zoquiopan","alternatenames":"Zoquiapan,Zoquiopan","latitude":"20.00898","longitude":"-97.59606","feature_class":"P","feature_code":"PPLA2","country_code":"MX","cc2":"","admin1_code":"21","admin2_code":"216","admin3_code":"","admin4_code":"","population":"0","elevation":"","dem":"1048","timezone":"America/Mexico_City","modification_date":"2015-06-22"},{"geonameid":"3514007","name":"Zongozotla","asciiname":"Zongozotla","alternatenames":"Zongozotla","latitude":"19.9793","longitude":"-97.72751","feature_class":"P","feature_code":"PPLA2","country_code":"MX","cc2":"","admin1_code":"21","admin2_code":"215","admin3_code":"","admin4_code":"","population":"4467","elevation":"","dem":"1129","timezone":"America/Mexico_City","modification_date":"2016-01-07"},{"geonameid":"3514008","name":"Zongolica","asciiname":"Zongolica","alternatenames":"Zongolica","latitude":"18.66673","longitude":"-96.99707","feature_class":"P","feature_code":"PPL","country_code":"MX","cc2":"","admin1_code":"30","admin2_code":"201","admin3_code":"","admin4_code":"","population":"6411","elevation":"","dem":"1219","timezone":"America/Mexico_City","modification_date":"2015-06-22"},{"geonameid":"3514013","name":"Santa María Zolotepec","asciiname":"Santa Maria Zolotepec","alternatenames":"Santa Maria Zolotepec,Santa María Zolotepec,Zolotepec","latitude":"19.41728","longitude":"-99.49327","feature_class":"P","feature_code":"PPL","country_code":"MX","cc2":"","admin1_code":"15","admin2_code":"115","admin3_code":"","admin4_code":"","population":"9857","elevation":"","dem":"2636","timezone":"America/Mexico_City","modification_date":"2015-06-22"},{"geonameid":"3514021","name":"Zitlala","asciiname":"Zitlala","alternatenames":"Zitlala","latitude":"17.69049","longitude":"-99.18642","feature_class":"P","feature_code":"PPL","country_code":"MX","cc2":"","admin1_code":"12","admin2_code":"074","admin3_code":"","admin4_code":"","population":"6065","elevation":"","dem":"1369","timezone":"America/Mexico_City","modification_date":"2014-09-05"},{"geonameid":"3514026","name":"Zinacantán","asciiname":"Zinacantan","alternatenames":"Zinacantan,Zinacantán,Zinacatan,Zinacatán","latitude":"16.7607","longitude":"-92.72381","feature_class":"P","feature_code":"PPL","country_code":"MX","cc2":"","admin1_code":"05","admin2_code":"111","admin3_code":"","admin4_code":"","population":"3742","elevation":"","dem":"2154","timezone":"America/Mexico_City","modification_date":"2015-06-22"},{"geonameid":"3514027","name":"Zimatlán de Álvarez","asciiname":"Zimatlan de Alvarez","alternatenames":"Zimatlan,Zimatlan de Alvarez,Zimatlán,Zimatlán de Álvarez","latitude":"16.86939","longitude":"-96.78435","feature_class":"P","feature_code":"PPLA2","country_code":"MX","cc2":"","admin1_code":"20","admin2_code":"570","admin3_code":"","admin4_code":"","population":"10014","elevation":"","dem":"1505","timezone":"America/Mexico_City","modification_date":"2015-06-22"},{"geonameid":"3514031","name":"Zimapan","asciiname":"Zimapan","alternatenames":"Zimapan,Zimapán","latitude":"20.73814","longitude":"-99.3818","feature_class":"P","feature_code":"PPL","country_code":"MX","cc2":"","admin1_code":"13","admin2_code":"084","admin3_code":"","admin4_code":"","population":"12455","elevation":"","dem":"1779","timezone":"America/Mexico_City","modification_date":"2015-06-22"},{"geonameid":"3514043","name":"Zempoala","asciiname":"Zempoala","alternatenames":"Zempoala","latitude":"19.91587","longitude":"-98.666","feature_class":"P","feature_code":"PPLA2","country_code":"MX","cc2":"","admin1_code":"13","admin2_code":"083","admin3_code":"","admin4_code":"","population":"5814","elevation":"","dem":"2460","timezone":"America/Mexico_City","modification_date":"2015-06-22"},{"geonameid":"3514044","name":"Villa Zempoala","asciiname":"Villa Zempoala","alternatenames":"Villa Zempoala,Zempoala","latitude":"19.44422","longitude":"-96.40773","feature_class":"P","feature_code":"PPL","country_code":"MX","cc2":"","admin1_code":"30","admin2_code":"191","admin3_code":"","admin4_code":"","population":"9436","elevation":"","dem":"32","timezone":"America/Mexico_City","modification_date":"2016-03-10"},{"geonameid":"3514049","name":"Zaragoza","asciiname":"Zaragoza","alternatenames":"","latitude":"21.27975","longitude":"-97.72055","feature_class":"P","feature_code":"PPL","country_code":"MX","cc2":"","admin1_code":"30","admin2_code":"013","admin3_code":"","admin4_code":"","population":"8260","elevation":"","dem":"199","timezone":"America/Mexico_City","modification_date":"2015-06-22"},{"geonameid":"3514051","name":"Zaragoza","asciiname":"Zaragoza","alternatenames":"Zaragosa,Zaragoza","latitude":"19.77097","longitude":"-97.55506","feature_class":"P","feature_code":"PPL","country_code":"MX","cc2":"","admin1_code":"21","admin2_code":"211","admin3_code":"","admin4_code":"","population":"10575","elevation":"","dem":"2311","timezone":"America/Mexico_City","modification_date":"2015-06-22"},{"geonameid":"3514052","name":"Zaragoza de Guadalupe","asciiname":"Zaragoza de Guadalupe","alternatenames":"Zaragoza,Zaragoza de Guadalupe","latitude":"19.1483","longitude":"-99.64405","feature_class":"P","feature_code":"PPL","country_code":"MX","cc2":"","admin1_code":"17","admin2_code":"","admin3_code":"","admin4_code":"","population":"6896","elevation":"","dem":"2861","timezone":"America/Mexico_City","modification_date":"2014-09-05"},{"geonameid":"3514060","name":"Zapotlán de Juárez","asciiname":"Zapotlan de Juarez","alternatenames":"Zapotlan,Zapotlan de Juarez,Zapotlán,Zapotlán de Juárez","latitude":"19.97709","longitude":"-98.8642","feature_class":"P","feature_code":"PPLA2","country_code":"MX","cc2":"","admin1_code":"13","admin2_code":"082","admin3_code":"","admin4_code":"","population":"8344","elevation":"","dem":"2380","timezone":"America/Mexico_City","modification_date":"2015-06-22"},{"geonameid":"3514064","name":"Zapotitlán Palmas","asciiname":"Zapotitlan Palmas","alternatenames":"Palmas,Zapotitlan,Zapotitlan Palmas,Zapotitlán Palmas","latitude":"17.88965","longitude":"-97.81849","feature_class":"P","feature_code":"PPLA2","country_code":"MX","cc2":"","admin1_code":"20","admin2_code":"568","admin3_code":"","admin4_code":"","population":"0","elevation":"","dem":"1918","timezone":"America/Mexico_City","modification_date":"2015-06-22"},{"geonameid":"3514134","name":"Zacualtipán","asciiname":"Zacualtipan","alternatenames":"Zacualtipan,Zacualtipán","latitude":"20.65002","longitude":"-98.65628","feature_class":"P","feature_code":"PPL","country_code":"MX","cc2":"","admin1_code":"13","admin2_code":"081","admin3_code":"","admin4_code":"","population":"17090","elevation":"","dem":"1990","timezone":"America/Mexico_City","modification_date":"2015-06-22"},{"geonameid":"3514138","name":"Zacualpan","asciiname":"Zacualpan","alternatenames":"Zacoalpan,Zacualpan","latitude":"18.71895","longitude":"-99.77605","feature_class":"P","feature_code":"PPLA2","country_code":"MX","cc2":"","admin1_code":"15","admin2_code":"117","admin3_code":"","admin4_code":"","population":"3360","elevation":"","dem":"1988","timezone":"America/Mexico_City","modification_date":"2016-03-10"},{"geonameid":"3514148","name":"Zacatlán","asciiname":"Zacatlan","alternatenames":"Sakatlan,Zacatlan,Zacatlan de las Manzanas,Zacatlán,Zacatlān,Сакатлан","latitude":"19.9355","longitude":"-97.96125","feature_class":"P","feature_code":"PPLA2","country_code":"MX","cc2":"","admin1_code":"21","admin2_code":"208","admin3_code":"","admin4_code":"","population":"31707","elevation":"","dem":"2048","timezone":"America/Mexico_City","modification_date":"2016-01-07"},{"geonameid":"3514162","name":"Zacatepec","asciiname":"Zacatepec","alternatenames":"Zacatepec","latitude":"19.26631","longitude":"-97.5328","feature_class":"P","feature_code":"PPL","country_code":"MX","cc2":"","admin1_code":"21","admin2_code":"108","admin3_code":"","admin4_code":"","population":"10204","elevation":"","dem":"2368","timezone":"America/Mexico_City","modification_date":"2015-06-22"},{"geonameid":"3514163","name":"Zacatepec","asciiname":"Zacatepec","alternatenames":"Zacatepec","latitude":"18.65388","longitude":"-99.19054","feature_class":"P","feature_code":"PPL","country_code":"MX","cc2":"","admin1_code":"17","admin2_code":"031","admin3_code":"","admin4_code":"","population":"21533","elevation":"","dem":"921","timezone":"America/Mexico_City","modification_date":"2015-06-22"},{"geonameid":"3514179","name":"Zacapoaxtla","asciiname":"Zacapoaxtla","alternatenames":"Sakapoastla,Zacapoaxtla,Сакапоастла","latitude":"19.87271","longitude":"-97.58899","feature_class":"P","feature_code":"PPL","country_code":"MX","cc2":"","admin1_code":"21","admin2_code":"207","admin3_code":"","admin4_code":"","population":"8771","elevation":"","dem":"1826","timezone":"America/Mexico_City","modification_date":"2015-06-22"},{"geonameid":"3514181","name":"Zacapala","asciiname":"Zacapala","alternatenames":"San Juan Evangelista Zacapala,Zacalapa,Zacapala","latitude":"18.59415","longitude":"-98.06583","feature_class":"P","feature_code":"PPLA2","country_code":"MX","cc2":"","admin1_code":"21","admin2_code":"206","admin3_code":"","admin4_code":"","population":"0","elevation":"","dem":"1326","timezone":"America/Mexico_City","modification_date":"2015-06-22"},{"geonameid":"3514185","name":"Zacamixtle","asciiname":"Zacamixtle","alternatenames":"Zacamixtle,Zacamuixtle","latitude":"21.24762","longitude":"-97.72155","feature_class":"P","feature_code":"PPL","country_code":"MX","cc2":"","admin1_code":"30","admin2_code":"153","admin3_code":"","admin4_code":"","population":"1248","elevation":"","dem":"142","timezone":"America/Mexico_City","modification_date":"2013-07-31"},{"geonameid":"3514189","name":"Villa de Zaachila","asciiname":"Villa de Zaachila","alternatenames":"Opstina Villa de Zaachila,Opština Villa de Zaachila,Villa de Zaachila,Zaachila","latitude":"16.95098","longitude":"-96.74938","feature_class":"P","feature_code":"PPLA2","country_code":"MX","cc2":"","admin1_code":"20","admin2_code":"565","admin3_code":"","admin4_code":"","population":"13959","elevation":"","dem":"1518","timezone":"America/Mexico_City","modification_date":"2014-10-01"},{"geonameid":"3514200","name":"San Pedro Mártir Yucuxaco","asciiname":"San Pedro Martir Yucuxaco","alternatenames":"San Pedro Martir Yucuxaco,San Pedro Mártir Yucuxaco,Yucuxaca,Yucuxaco","latitude":"17.43245","longitude":"-97.611","feature_class":"P","feature_code":"PPLA2","country_code":"MX","cc2":"","admin1_code":"20","admin2_code":"317","admin3_code":"","admin4_code":"","population":"0","elevation":"","dem":"2249","timezone":"America/Mexico_City","modification_date":"2015-06-22"},{"geonameid":"3514234","name":"Santiago Yogana","asciiname":"Santiago Yogana","alternatenames":"Santiago Yogana,Yogana","latitude":"16.4613","longitude":"-96.78786","feature_class":"P","feature_code":"PPLA2","country_code":"MX","cc2":"","admin1_code":"20","admin2_code":"563","admin3_code":"","admin4_code":"","population":"0","elevation":"","dem":"1361","timezone":"America/Mexico_City","modification_date":"2015-06-22"},{"geonameid":"3514238","name":"Magdalena Yodocono de Porfirio Díaz","asciiname":"Magdalena Yodocono de Porfirio Diaz","alternatenames":"Magdalena Yodocono de Porfirio Diaz,Magdalena Yodocono de Porfirio Díaz,Yadocono de Porfirio Diaz,Yodocono,Yodocono de Porfirio Diaz,Yodocono de Porfirio Díaz","latitude":"17.3847","longitude":"-97.3553","feature_class":"P","feature_code":"PPLA2","country_code":"MX","cc2":"","admin1_code":"20","admin2_code":"562","admin3_code":"","admin4_code":"","population":"0","elevation":"","dem":"2304","timezone":"America/Mexico_City","modification_date":"2015-06-22"},{"geonameid":"3514270","name":"San Agustín Yatareni","asciiname":"San Agustin Yatareni","alternatenames":"San Agustin Yatareni,San Agustín Yatareni,Yelateni","latitude":"17.08198","longitude":"-96.66578","feature_class":"P","feature_code":"PPLA2","country_code":"MX","cc2":"","admin1_code":"20","admin2_code":"087","admin3_code":"","admin4_code":"","population":"0","elevation":"","dem":"1608","timezone":"America/Mexico_City","modification_date":"2015-06-22"},{"geonameid":"3514272","name":"Yehualtepec","asciiname":"Yehualtepec","alternatenames":"Yehualtepec","latitude":"18.79504","longitude":"-97.66248","feature_class":"P","feature_code":"PPL","country_code":"MX","cc2":"","admin1_code":"21","admin2_code":"205","admin3_code":"","admin4_code":"","population":"6329","elevation":"","dem":"2126","timezone":"America/Mexico_City","modification_date":"2015-06-22"},{"geonameid":"3514277","name":"Yecuatla","asciiname":"Yecuatla","alternatenames":"Yecuatla","latitude":"19.86614","longitude":"-96.77836","feature_class":"P","feature_code":"PPLA2","country_code":"MX","cc2":"","admin1_code":"30","admin2_code":"197","admin3_code":"","admin4_code":"","population":"3198","elevation":"","dem":"468","timezone":"America/Mexico_City","modification_date":"2015-06-22"},{"geonameid":"3514278","name":"Yecapixtla","asciiname":"Yecapixtla","alternatenames":"Yacapitztla,Yecapixilac,Yecapixtla","latitude":"18.88333","longitude":"-98.865","feature_class":"P","feature_code":"PPL","country_code":"MX","cc2":"","admin1_code":"17","admin2_code":"030","admin3_code":"","admin4_code":"","population":"16811","elevation":"","dem":"1590","timezone":"America/Mexico_City","modification_date":"2013-07-31"},{"geonameid":"3514286","name":"Yaxkukul","asciiname":"Yaxkukul","alternatenames":"Yaxkukul","latitude":"21.06139","longitude":"-89.41932","feature_class":"P","feature_code":"PPLA2","country_code":"MX","cc2":"","admin1_code":"31","admin2_code":"105","admin3_code":"","admin4_code":"","population":"0","elevation":"","dem":"16","timezone":"America/Merida","modification_date":"2015-06-22"},{"geonameid":"3514292","name":"Yaxe","asciiname":"Yaxe","alternatenames":"Yaxe","latitude":"16.72595","longitude":"-96.47191","feature_class":"P","feature_code":"PPLA2","country_code":"MX","cc2":"","admin1_code":"20","admin2_code":"561","admin3_code":"","admin4_code":"","population":"0","elevation":"","dem":"1505","timezone":"America/Mexico_City","modification_date":"2015-06-22"},{"geonameid":"3514316","name":"Yaxcabá","asciiname":"Yaxcaba","alternatenames":"San Pedro Yaxcaba,Yaxcaba,Yaxcabá","latitude":"20.54846","longitude":"-88.82714","feature_class":"P","feature_code":"PPLA2","country_code":"MX","cc2":"","admin1_code":"31","admin2_code":"104","admin3_code":"","admin4_code":"","population":"0","elevation":"","dem":"27","timezone":"America/Merida","modification_date":"2015-06-22"},{"geonameid":"3514321","name":"Yautepec","asciiname":"Yautepec","alternatenames":"","latitude":"18.88188","longitude":"-99.06715","feature_class":"P","feature_code":"PPL","country_code":"MX","cc2":"","admin1_code":"17","admin2_code":"029","admin3_code":"","admin4_code":"","population":"41386","elevation":"","dem":"1225","timezone":"America/Mexico_City","modification_date":"2015-06-22"},{"geonameid":"3514326","name":"Yaonahuac","asciiname":"Yaonahuac","alternatenames":"Yaonahuac,Yaonáhuac","latitude":"19.87076","longitude":"-97.46587","feature_class":"P","feature_code":"PPL","country_code":"MX","cc2":"","admin1_code":"21","admin2_code":"204","admin3_code":"","admin4_code":"","population":"4191","elevation":"","dem":"1792","timezone":"America/Mexico_City","modification_date":"2015-06-22"},{"geonameid":"3514329","name":"Yanga","asciiname":"Yanga","alternatenames":"San Lorenzo,San Lorenzo Yanga,San Lorenzo de Cerralvo,Yanga","latitude":"18.83321","longitude":"-96.79823","feature_class":"P","feature_code":"PPL","country_code":"MX","cc2":"","admin1_code":"30","admin2_code":"196","admin3_code":"","admin4_code":"","population":"5300","elevation":"","dem":"519","timezone":"America/Mexico_City","modification_date":"2015-06-22"},{"geonameid":"3514349","name":"Yajalón","asciiname":"Yajalon","alternatenames":"Yajalon,Yajalón","latitude":"17.17276","longitude":"-92.33315","feature_class":"P","feature_code":"PPL","country_code":"MX","cc2":"","admin1_code":"05","admin2_code":"109","admin3_code":"","admin4_code":"","population":"14763","elevation":"","dem":"797","timezone":"America/Mexico_City","modification_date":"2015-06-22"},{"geonameid":"3514395","name":"Xoxolpa","asciiname":"Xoxolpa","alternatenames":"Xoxolpa","latitude":"20.87574","longitude":"-98.42386","feature_class":"P","feature_code":"PPL","country_code":"MX","cc2":"","admin1_code":"13","admin2_code":"080","admin3_code":"","admin4_code":"","population":"1197","elevation":"","dem":"629","timezone":"America/Mexico_City","modification_date":"2014-06-05"},{"geonameid":"3514398","name":"Xoxocotla","asciiname":"Xoxocotla","alternatenames":"","latitude":"18.68502","longitude":"-99.24608","feature_class":"P","feature_code":"PPL","country_code":"MX","cc2":"","admin1_code":"17","admin2_code":"017","admin3_code":"","admin4_code":"","population":"19790","elevation":"","dem":"1032","timezone":"America/Mexico_City","modification_date":"2015-06-22"},{"geonameid":"3514404","name":"Xopilapa","asciiname":"Xopilapa","alternatenames":"","latitude":"18.50472","longitude":"-97.07944","feature_class":"P","feature_code":"PPL","country_code":"MX","cc2":"","admin1_code":"30","admin2_code":"159","admin3_code":"","admin4_code":"","population":"1833","elevation":"","dem":"2483","timezone":"America/Mexico_City","modification_date":"2013-08-01"},{"geonameid":"3514409","name":"Xonacatlán","asciiname":"Xonacatlan","alternatenames":"San Francisco,San Francisco Xonacatlan,San Francisco Xonacatlán,Xonacatlan,Xonacatlan de Vicencio,Xonacatlán,Xonacatlán de Vicencio,Xonacaxtlan,Xonacaxtlán","latitude":"19.40513","longitude":"-99.52807","feature_class":"P","feature_code":"PPLA2","country_code":"MX","cc2":"","admin1_code":"17","admin2_code":"","admin3_code":"","admin4_code":"","population":"19687","elevation":"","dem":"2585","timezone":"America/Mexico_City","modification_date":"2014-09-05"},{"geonameid":"3514414","name":"Xometla","asciiname":"Xometla","alternatenames":"Xametla,Xometla","latitude":"19.64245","longitude":"-98.88257","feature_class":"P","feature_code":"PPL","country_code":"MX","cc2":"","admin1_code":"17","admin2_code":"","admin3_code":"","admin4_code":"","population":"4454","elevation":"","dem":"2267","timezone":"America/Mexico_City","modification_date":"2014-04-30"},{"geonameid":"3514424","name":"Xocotla","asciiname":"Xocotla","alternatenames":"Xocotla","latitude":"19.01511","longitude":"-97.10092","feature_class":"P","feature_code":"PPL","country_code":"MX","cc2":"","admin1_code":"30","admin2_code":"047","admin3_code":"","admin4_code":"","population":"4736","elevation":"","dem":"2013","timezone":"America/Mexico_City","modification_date":"2015-06-22"},{"geonameid":"3514433","name":"Xochitlan Todos Santos","asciiname":"Xochitlan Todos Santos","alternatenames":"Xochitlan,Xochitlan Todos Santos,Xochitlán","latitude":"18.70395","longitude":"-97.77609","feature_class":"P","feature_code":"PPL","country_code":"MX","cc2":"","admin1_code":"21","admin2_code":"203","admin3_code":"","admin4_code":"","population":"4659","elevation":"","dem":"1908","timezone":"America/Mexico_City","modification_date":"2015-06-22"},{"geonameid":"3514437","name":"Xochitepec","asciiname":"Xochitepec","alternatenames":"Xochiltepec,Xochitepec","latitude":"18.78121","longitude":"-99.23055","feature_class":"P","feature_code":"PPL","country_code":"MX","cc2":"","admin1_code":"17","admin2_code":"028","admin3_code":"","admin4_code":"","population":"16768","elevation":"","dem":"1123","timezone":"America/Mexico_City","modification_date":"2015-06-22"},{"geonameid":"3514440","name":"Xochistlahuaca","asciiname":"Xochistlahuaca","alternatenames":"Xochistlahuaca","latitude":"16.78915","longitude":"-98.24172","feature_class":"P","feature_code":"PPL","country_code":"MX","cc2":"","admin1_code":"12","admin2_code":"071","admin3_code":"","admin4_code":"","population":"3566","elevation":"","dem":"375","timezone":"America/Mexico_City","modification_date":"2015-06-22"},{"geonameid":"3514450","name":"Xochimilco","asciiname":"Xochimilco","alternatenames":"Xochimilco","latitude":"19.25785","longitude":"-99.10513","feature_class":"P","feature_code":"PPL","country_code":"MX","cc2":"","admin1_code":"09","admin2_code":"013","admin3_code":"","admin4_code":"","population":"404458","elevation":"","dem":"2245","timezone":"America/Mexico_City","modification_date":"2015-06-22"},{"geonameid":"3514452","name":"Xochiltepec","asciiname":"Xochiltepec","alternatenames":"San Felipe Xochiltepec,Xochiltepec","latitude":"18.65095","longitude":"-98.3445","feature_class":"P","feature_code":"PPLA2","country_code":"MX","cc2":"","admin1_code":"21","admin2_code":"201","admin3_code":"","admin4_code":"","population":"0","elevation":"","dem":"1346","timezone":"America/Mexico_City","modification_date":"2016-03-10"},{"geonameid":"3514454","name":"Xochihuehuetlán","asciiname":"Xochihuehuetlan","alternatenames":"Xochihuehuetlan,Xochihuehuetlán","latitude":"17.90619","longitude":"-98.48818","feature_class":"P","feature_code":"PPL","country_code":"MX","cc2":"","admin1_code":"12","admin2_code":"070","admin3_code":"","admin4_code":"","population":"5158","elevation":"","dem":"1041","timezone":"America/Mexico_City","modification_date":"2015-06-22"},{"geonameid":"3514502","name":"Xilitla","asciiname":"Xilitla","alternatenames":"Xililla,Xilitla","latitude":"21.38681","longitude":"-98.99009","feature_class":"P","feature_code":"PPL","country_code":"MX","cc2":"","admin1_code":"24","admin2_code":"054","admin3_code":"","admin4_code":"","population":"5906","elevation":"","dem":"654","timezone":"America/Mexico_City","modification_date":"2015-06-22"},{"geonameid":"3514510","name":"Xicotepec de Juárez","asciiname":"Xicotepec de Juarez","alternatenames":"Juarez Xicotepec,Juárez Xicotepec,Villa Juarez,Villa Juárez,Xicotepec de Juarez,Xicotepec de Juárez","latitude":"20.27605","longitude":"-97.96111","feature_class":"P","feature_code":"PPL","country_code":"MX","cc2":"","admin1_code":"21","admin2_code":"197","admin3_code":"","admin4_code":"","population":"37424","elevation":"","dem":"1167","timezone":"America/Mexico_City","modification_date":"2015-06-22"},{"geonameid":"3514518","name":"Xico","asciiname":"Xico","alternatenames":"Jico,Xico","latitude":"19.42178","longitude":"-97.00819","feature_class":"P","feature_code":"PPLA2","country_code":"MX","cc2":"","admin1_code":"30","admin2_code":"092","admin3_code":"","admin4_code":"","population":"15292","elevation":"","dem":"1318","timezone":"America/Mexico_City","modification_date":"2015-06-22"},{"geonameid":"3514519","name":"San Miguel Xico Viejo","asciiname":"San Miguel Xico Viejo","alternatenames":"San Miguel Xico,San Miguel Xico Viejo,Xico","latitude":"19.27022","longitude":"-98.93588","feature_class":"P","feature_code":"PPL","country_code":"MX","cc2":"","admin1_code":"15","admin2_code":"122","admin3_code":"","admin4_code":"","population":"365777","elevation":"","dem":"2286","timezone":"America/Mexico_City","modification_date":"2015-06-22"},{"geonameid":"3514566","name":"Xayacatlán de Bravo","asciiname":"Xayacatlan de Bravo","alternatenames":"Xayacatlan,Xayacatlan de Bravo,Xayacatlán,Xayacatlán de Bravo,Zayacatlan de Bravo,Zayacatlán de Bravo","latitude":"18.23712","longitude":"-97.97524","feature_class":"P","feature_code":"PPLA2","country_code":"MX","cc2":"","admin1_code":"21","admin2_code":"196","admin3_code":"","admin4_code":"","population":"1156","elevation":"","dem":"1251","timezone":"America/Mexico_City","modification_date":"2014-09-05"},{"geonameid":"3514576","name":"Santa María Xadani","asciiname":"Santa Maria Xadani","alternatenames":"Santa Maria Xadani,Santa Maria Xandani,Santa María Xadani,Santa María Xandani,Xadani,Xandani","latitude":"16.36198","longitude":"-95.01826","feature_class":"P","feature_code":"PPLA2","country_code":"MX","cc2":"","admin1_code":"20","admin2_code":"441","admin3_code":"","admin4_code":"","population":"0","elevation":"","dem":"10","timezone":"America/Mexico_City","modification_date":"2015-06-22"},{"geonameid":"3514583","name":"Xaltianguis","asciiname":"Xaltianguis","alternatenames":"Jaltianguis,Xaltianguis","latitude":"17.09869","longitude":"-99.71532","feature_class":"P","feature_code":"PPL","country_code":"MX","cc2":"","admin1_code":"12","admin2_code":"001","admin3_code":"","admin4_code":"","population":"6933","elevation":"","dem":"543","timezone":"America/Mexico_City","modification_date":"2015-06-22"},{"geonameid":"3514584","name":"Xaltepuxtla","asciiname":"Xaltepuxtla","alternatenames":"Xaltepaxtla,Xaltepuxtla","latitude":"20.17546","longitude":"-97.97208","feature_class":"P","feature_code":"PPL","country_code":"MX","cc2":"","admin1_code":"21","admin2_code":"183","admin3_code":"","admin4_code":"","population":"3761","elevation":"","dem":"1331","timezone":"America/Mexico_City","modification_date":"2014-06-05"},{"geonameid":"3514589","name":"Xaltepec","asciiname":"Xaltepec","alternatenames":"Xaltepec,Xultepec","latitude":"18.87584","longitude":"-97.61203","feature_class":"P","feature_code":"PPL","country_code":"MX","cc2":"","admin1_code":"21","admin2_code":"110","admin3_code":"","admin4_code":"","population":"7353","elevation":"","dem":"2172","timezone":"America/Mexico_City","modification_date":"2015-06-22"},{"geonameid":"3514592","name":"Xalpatlahuac","asciiname":"Xalpatlahuac","alternatenames":"Xalpatlahuac","latitude":"17.47066","longitude":"-98.60675","feature_class":"P","feature_code":"PPL","country_code":"MX","cc2":"","admin1_code":"12","admin2_code":"069","admin3_code":"","admin4_code":"","population":"4054","elevation":"","dem":"1547","timezone":"America/Mexico_City","modification_date":"2015-06-22"},{"geonameid":"3514595","name":"Xaloztoc","asciiname":"Xaloztoc","alternatenames":"San Cosme,San Cosme Xalostoc,Xalostoc,Xaloxtoc,Xaloztoc","latitude":"19.40775","longitude":"-98.04602","feature_class":"P","feature_code":"PPLA2","country_code":"MX","cc2":"","admin1_code":"29","admin2_code":"039","admin3_code":"","admin4_code":"","population":"0","elevation":"","dem":"2517","timezone":"America/Mexico_City","modification_date":"2015-06-22"},{"geonameid":"3514597","name":"Santa Ana Xalmimilulco","asciiname":"Santa Ana Xalmimilulco","alternatenames":"Santa Ana Xalmimilulco,Xalmimilulco,Xalminilulco","latitude":"19.21214","longitude":"-98.37946","feature_class":"P","feature_code":"PPL","country_code":"MX","cc2":"","admin1_code":"21","admin2_code":"074","admin3_code":"","admin4_code":"","population":"14144","elevation":"","dem":"2224","timezone":"America/Mexico_City","modification_date":"2015-06-22"},{"geonameid":"3514633","name":"Vista Hermosa","asciiname":"Vista Hermosa","alternatenames":"Colonia Vista Hermosa,Vista Hermosa","latitude":"19.51667","longitude":"-99.21667","feature_class":"P","feature_code":"PPL","country_code":"MX","cc2":"","admin1_code":"15","admin2_code":"104","admin3_code":"","admin4_code":"","population":"6344","elevation":"","dem":"2289","timezone":"America/Mexico_City","modification_date":"2015-06-22"},{"geonameid":"3514643","name":"San Antonio Virreyes","asciiname":"San Antonio Virreyes","alternatenames":"San Antonio Virreyes,Virreyes","latitude":"19.40989","longitude":"-97.63697","feature_class":"P","feature_code":"PPL","country_code":"MX","cc2":"","admin1_code":"21","admin2_code":"108","admin3_code":"","admin4_code":"","population":"1600","elevation":"","dem":"2365","timezone":"America/Mexico_City","modification_date":"2014-06-05"},{"geonameid":"3514658","name":"Villa Victoria","asciiname":"Villa Victoria","alternatenames":"Villa Victoria","latitude":"19.43693","longitude":"-99.99589","feature_class":"P","feature_code":"PPLA2","country_code":"MX","cc2":"","admin1_code":"15","admin2_code":"114","admin3_code":"","admin4_code":"","population":"3661","elevation":"","dem":"2600","timezone":"America/Mexico_City","modification_date":"2015-06-22"},{"geonameid":"3514660","name":"Camarón de Tejeda","asciiname":"Camaron de Tejeda","alternatenames":"Camaron,Camaron de Tejeda,Camarón,Camarón de Tejeda,Villa Teieda,Villa Tejeda","latitude":"19.02166","longitude":"-96.61513","feature_class":"P","feature_code":"PPLA2","country_code":"MX","cc2":"","admin1_code":"30","admin2_code":"007","admin3_code":"","admin4_code":"","population":"0","elevation":"","dem":"352","timezone":"America/Mexico_City","modification_date":"2015-06-22"},{"geonameid":"3514663","name":"Álvaro Obregón","asciiname":"Alvaro Obregon","alternatenames":"Alvaro Obregon,Obergen Villa,Obrogen Villa,San Angel,Villa Obregon,Villa Obregón,Álvaro Obregón","latitude":"19.35867","longitude":"-99.20329","feature_class":"P","feature_code":"PPLX","country_code":"MX","cc2":"","admin1_code":"09","admin2_code":"010","admin3_code":"","admin4_code":"","population":"727034","elevation":"","dem":"2338","timezone":"America/Mexico_City","modification_date":"2015-06-22"},{"geonameid":"3514670","name":"Villahermosa","asciiname":"Villahermosa","alternatenames":"Cualnezcaltepec,VSA,Vil'jaehrmosa,Vilaermosa,Viljaermosa,Viljahermosa,Villa Hermosa,Villahermosa,bi ya ai er mo sa,biya-eleumosa,biyaerumosa,byayrmwsa,fylahyrmwsa,viliaermosa,wylahrmsa  tabaskw,Вильяэрмоса,Виляермоса,Виљаермоса,וייארמוסה,بیائرموسا,فيلاهيرموسا,ویلاهرمسا، تاباسکو,ვილიაერმოსა,ビヤエルモサ,比亚埃尔莫萨,비야에르모사","latitude":"17.98689","longitude":"-92.93028","feature_class":"P","feature_code":"PPLA","country_code":"MX","cc2":"","admin1_code":"27","admin2_code":"004","admin3_code":"","admin4_code":"","population":"362401","elevation":"","dem":"23","timezone":"America/Mexico_City","modification_date":"2015-06-22"},{"geonameid":"3514674","name":"Gustavo A. Madero","asciiname":"Gustavo A. Madero","alternatenames":"Guadalupe,Guadalupe Hidalgo,Gustavo A. Madero,Villa Gustavo A. Madero,Villa Madero,Villa de Guadalupe,Villa de Guadalupe Hidalgo","latitude":"19.49016","longitude":"-99.10978","feature_class":"P","feature_code":"PPLX","country_code":"MX","cc2":"","admin1_code":"09","admin2_code":"005","admin3_code":"","admin4_code":"","population":"1193161","elevation":"","dem":"2248","timezone":"America/Mexico_City","modification_date":"2015-06-22"},{"geonameid":"3514675","name":"Villa Guerrero","asciiname":"Villa Guerrero","alternatenames":"Tecualaya,Villa Guerrero","latitude":"18.96211","longitude":"-99.64061","feature_class":"P","feature_code":"PPLA2","country_code":"MX","cc2":"","admin1_code":"15","admin2_code":"113","admin3_code":"","admin4_code":"","population":"9267","elevation":"","dem":"2170","timezone":"America/Mexico_City","modification_date":"2016-03-10"},{"geonameid":"3514678","name":"El Triunfo","asciiname":"El Triunfo","alternatenames":"El Triunfo,Villa el Triunfo","latitude":"17.92323","longitude":"-91.17049","feature_class":"P","feature_code":"PPL","country_code":"MX","cc2":"","admin1_code":"27","admin2_code":"001","admin3_code":"","admin4_code":"","population":"5965","elevation":"","dem":"51","timezone":"America/Mexico_City","modification_date":"2015-06-22"},{"geonameid":"3514682","name":"Villa Cuauhtemoc","asciiname":"Villa Cuauhtemoc","alternatenames":"Cuauhtemoc,Cuauhtémoc,Pueblo Viejo,Villa Cuauhtemoc,Villa Cuauhtémoc","latitude":"22.18439","longitude":"-97.83472","feature_class":"P","feature_code":"PPL","country_code":"MX","cc2":"","admin1_code":"30","admin2_code":"133","admin3_code":"","admin4_code":"","population":"9426","elevation":"","dem":"9","timezone":"America/Mexico_City","modification_date":"2015-06-22"},{"geonameid":"3514683","name":"Villa Cuauhtémoc Otzolotepec","asciiname":"Villa Cuauhtemoc Otzolotepec","alternatenames":"Cuauhtemoc,Cuauhtémoc,Villa Cuauhtemoc,Villa Cuauhtemoc Otzolotepec,Villa Cuauhtémoc,Villa Cuauhtémoc Otzolotepec,Villa Cuautemoc","latitude":"19.41676","longitude":"-99.55872","feature_class":"P","feature_code":"PPLA2","country_code":"MX","cc2":"","admin1_code":"15","admin2_code":"067","admin3_code":"","admin4_code":"","population":"18303","elevation":"","dem":"2586","timezone":"America/Mexico_City","modification_date":"2015-06-22"},{"geonameid":"3514684","name":"Villa Corzo","asciiname":"Villa Corzo","alternatenames":"Angel Albino Corzo,Villa Corzo","latitude":"16.1851","longitude":"-93.26881","feature_class":"P","feature_code":"PPL","country_code":"MX","cc2":"","admin1_code":"05","admin2_code":"107","admin3_code":"","admin4_code":"","population":"9123","elevation":"","dem":"592","timezone":"America/Mexico_City","modification_date":"2015-06-22"},{"geonameid":"3514685","name":"Villa Comaltitlán","asciiname":"Villa Comaltitlan","alternatenames":"Pubelo Nuevo,Pueblo Nuevo,Pueblo Nuevo Comaltitlan,Pueblo Nuevo Comaltitlán,Villa Comaltitlan,Villa Comaltitlán","latitude":"15.21451","longitude":"-92.57725","feature_class":"P","feature_code":"PPL","country_code":"MX","cc2":"","admin1_code":"05","admin2_code":"071","admin3_code":"","admin4_code":"","population":"7944","elevation":"","dem":"34","timezone":"America/Mexico_City","modification_date":"2015-06-22"},{"geonameid":"3514686","name":"Tesechoacan","asciiname":"Tesechoacan","alternatenames":"Tesechoacan,Villa Azueta","latitude":"18.13749","longitude":"-95.65835","feature_class":"P","feature_code":"PPL","country_code":"MX","cc2":"","admin1_code":"30","admin2_code":"169","admin3_code":"","admin4_code":"","population":"6783","elevation":"","dem":"18","timezone":"America/Mexico_City","modification_date":"2014-07-21"},{"geonameid":"3514688","name":"Villa Aldama","asciiname":"Villa Aldama","alternatenames":"Villa Aldama","latitude":"19.64861","longitude":"-97.22333","feature_class":"P","feature_code":"PPL","country_code":"MX","cc2":"","admin1_code":"30","admin2_code":"194","admin3_code":"","admin4_code":"","population":"3291","elevation":"","dem":"2409","timezone":"America/Mexico_City","modification_date":"2013-08-01"},{"geonameid":"3514783","name":"Veracruz","asciiname":"Veracruz","alternatenames":"Chalchiuhcuehcan,Chalchiuhcuehcān,Heroica Veracruz,VER,Veracruz,Veracruz Llave,Veracruz i Veracruz,Verakrus,Verakrusas,Verakruz,belakeuluseu,berakrutha,berakurusu,verakurucu,wei la ke lu si,wer a kru s,wrakrws,Веракруз,Веракрус,وراکروس,बेराक्रुथ,வேராகுரூசு,เวรากรุซ,ვერაკრუსი,ベラクルス,韦拉克鲁斯,베라크루스","latitude":"19.18095","longitude":"-96.1429","feature_class":"P","feature_code":"PPL","country_code":"MX","cc2":"","admin1_code":"30","admin2_code":"193","admin3_code":"","admin4_code":"","population":"568313","elevation":"","dem":"15","timezone":"America/Mexico_City","modification_date":"2015-06-22"},{"geonameid":"3514785","name":"Venustiano Carranza","asciiname":"Venustiano Carranza","alternatenames":"San Bartolo,San Bartolome,San Bartolomé,Venustiano Carranza","latitude":"16.33945","longitude":"-92.56293","feature_class":"P","feature_code":"PPL","country_code":"MX","cc2":"","admin1_code":"05","admin2_code":"106","admin3_code":"","admin4_code":"","population":"15074","elevation":"","dem":"782","timezone":"America/Mexico_City","modification_date":"2015-06-22"},{"geonameid":"3514833","name":"Veinte de Noviembre","asciiname":"Veinte de Noviembre","alternatenames":"Veinte de Noviembre","latitude":"14.9773","longitude":"-92.26509","feature_class":"P","feature_code":"PPL","country_code":"MX","cc2":"","admin1_code":"05","admin2_code":"089","admin3_code":"","admin4_code":"","population":"4309","elevation":"","dem":"397","timezone":"America/Mexico_City","modification_date":"2016-01-07"},{"geonameid":"3514843","name":"Vega de Alatorre","asciiname":"Vega de Alatorre","alternatenames":"Vega de Alatorre","latitude":"20.02823","longitude":"-96.64751","feature_class":"P","feature_code":"PPL","country_code":"MX","cc2":"","admin1_code":"30","admin2_code":"192","admin3_code":"","admin4_code":"","population":"6710","elevation":"","dem":"27","timezone":"America/Mexico_City","modification_date":"2015-06-22"},{"geonameid":"3514868","name":"Valle Hermoso","asciiname":"Valle Hermoso","alternatenames":"Valle Hermoso","latitude":"25.67207","longitude":"-97.81313","feature_class":"P","feature_code":"PPL","country_code":"MX","cc2":"","admin1_code":"28","admin2_code":"040","admin3_code":"","admin4_code":"","population":"47831","elevation":"","dem":"20","timezone":"America/Monterrey","modification_date":"2015-06-22"},{"geonameid":"3514876","name":"Valladolid","asciiname":"Valladolid","alternatenames":"Val'jadolid,Valadoli,Valadolid,Vaładołì,ba li ya duo li de,Вальядолид,Вальядолід,Ваљадолид,巴利亚多利德","latitude":"20.68812","longitude":"-88.19936","feature_class":"P","feature_code":"PPL","country_code":"MX","cc2":"","admin1_code":"31","admin2_code":"102","admin3_code":"","admin4_code":"","population":"39663","elevation":"","dem":"24","timezone":"America/Merida","modification_date":"2015-06-22"},{"geonameid":"3514906","name":"Úrsulo Galván","asciiname":"Ursulo Galvan","alternatenames":"San Carlos,Ursulo Galvan,Úrsulo Galván","latitude":"19.40531","longitude":"-96.3609","feature_class":"P","feature_code":"PPL","country_code":"MX","cc2":"","admin1_code":"30","admin2_code":"191","admin3_code":"","admin4_code":"","population":"5200","elevation":"","dem":"6","timezone":"America/Mexico_City","modification_date":"2016-03-10"},{"geonameid":"3514916","name":"Unión Hidalgo","asciiname":"Union Hidalgo","alternatenames":"","latitude":"16.4723","longitude":"-94.82952","feature_class":"P","feature_code":"PPL","country_code":"MX","cc2":"","admin1_code":"20","admin2_code":"557","admin3_code":"","admin4_code":"","population":"12736","elevation":"","dem":"15","timezone":"America/Mexico_City","modification_date":"2015-06-22"},{"geonameid":"3514929","name":"Uman","asciiname":"Uman","alternatenames":"San Antonio Tedzidz,Uman,Uman',Умань","latitude":"20.88213","longitude":"-89.74649","feature_class":"P","feature_code":"PPL","country_code":"MX","cc2":"","admin1_code":"31","admin2_code":"101","admin3_code":"","admin4_code":"","population":"28472","elevation":"","dem":"10","timezone":"America/Merida","modification_date":"2015-06-22"},{"geonameid":"3514948","name":"Ucú","asciiname":"Ucu","alternatenames":"Ucu,Ucú","latitude":"21.03135","longitude":"-89.74466","feature_class":"P","feature_code":"PPLA2","country_code":"MX","cc2":"","admin1_code":"31","admin2_code":"100","admin3_code":"","admin4_code":"","population":"0","elevation":"","dem":"9","timezone":"America/Merida","modification_date":"2015-06-22"},{"geonameid":"3514952","name":"Uayma","asciiname":"Uayma","alternatenames":"Uayma,Uaymá","latitude":"20.71781","longitude":"-88.31693","feature_class":"P","feature_code":"PPL","country_code":"MX","cc2":"","admin1_code":"31","admin2_code":"099","admin3_code":"","admin4_code":"","population":"3126","elevation":"","dem":"26","timezone":"America/Merida","modification_date":"2014-06-05"},{"geonameid":"3514961","name":"Tzucacab","asciiname":"Tzucacab","alternatenames":"Tzucacab,Tzucaceb","latitude":"20.07237","longitude":"-89.05022","feature_class":"P","feature_code":"PPL","country_code":"MX","cc2":"","admin1_code":"31","admin2_code":"098","admin3_code":"","admin4_code":"","population":"9819","elevation":"","dem":"37","timezone":"America/Merida","modification_date":"2015-06-22"},{"geonameid":"3514963","name":"San Salvador Tzompantepec","asciiname":"San Salvador Tzompantepec","alternatenames":"San Salvador Tzompantepec,San Salvador Tzompatepec,Tezonpantepec,Tzompantepec","latitude":"19.3722","longitude":"-98.08701","feature_class":"P","feature_code":"PPLA2","country_code":"MX","cc2":"","admin1_code":"29","admin2_code":"038","admin3_code":"","admin4_code":"","population":"0","elevation":"","dem":"2512","timezone":"America/Mexico_City","modification_date":"2015-06-22"},{"geonameid":"3514970","name":"Tzinacapan","asciiname":"Tzinacapan","alternatenames":"Tzinacapan","latitude":"20.02944","longitude":"-97.54047","feature_class":"P","feature_code":"PPL","country_code":"MX","cc2":"","admin1_code":"21","admin2_code":"043","admin3_code":"","admin4_code":"","population":"2939","elevation":"","dem":"871","timezone":"America/Mexico_City","modification_date":"2014-06-05"},{"geonameid":"3514972","name":"Tzimol","asciiname":"Tzimol","alternatenames":"","latitude":"16.26667","longitude":"-92.26667","feature_class":"P","feature_code":"PPL","country_code":"MX","cc2":"","admin1_code":"05","admin2_code":"019","admin3_code":"","admin4_code":"","population":"4178","elevation":"","dem":"1628","timezone":"America/Mexico_City","modification_date":"2015-06-22"},{"geonameid":"3514997","name":"Tuzamapan de Galeana","asciiname":"Tuzamapan de Galeana","alternatenames":"Tuzamapan,Tuzamapan de Galeana","latitude":"20.06572","longitude":"-97.5752","feature_class":"P","feature_code":"PPLA2","country_code":"MX","cc2":"","admin1_code":"21","admin2_code":"192","admin3_code":"","admin4_code":"","population":"0","elevation":"","dem":"540","timezone":"America/Mexico_City","modification_date":"2015-06-22"},{"geonameid":"3514998","name":"Tuzamapan","asciiname":"Tuzamapan","alternatenames":"Tuzamapan,Tuzanapan","latitude":"19.40253","longitude":"-96.8636","feature_class":"P","feature_code":"PPL","country_code":"MX","cc2":"","admin1_code":"30","admin2_code":"038","admin3_code":"","admin4_code":"","population":"7522","elevation":"","dem":"874","timezone":"America/Mexico_City","modification_date":"2013-07-31"},{"geonameid":"3515001","name":"Tuxtla Gutiérrez","asciiname":"Tuxtla Gutierrez","alternatenames":"Gutierrez,TGZ,Tochtlan Gutierrez,Tochtlan Gutiérrez,Touxtla Nkoutierres,Tukstla Gutijerez,Tustla Gutieres,Tustla Gutjeresas,Tustla-Gut'erres,Tuxtla,Tuxtla Gtz,Tuxtla Gtz.,Tuxtla Gutierres,Tuxtla Gutierrez,Tuxtla Gutiérrez,tu si te la gu tie lei si,tugseuteullagutieleseu,tus tla ku ti xerres,twksla gwtyrs. chyapas,twkstla ghwtyryz,twstla gywtyrs,twstlh gwtyyrs,Τούξτλα Γκουτιέρρες,Тукстла Гутијерез,Тустла Гутиерес,Тустла-Гутьеррес,Тустла-Ґутьєррес,טוסטלה גוטיירס,توستلا گیوتیرس,توكستلا غوتيريز,توکسلا گوتیرس٬ چیاپاس,ตุซตลากูตีเอร์เรซ,ტუსტლა-გუტიერესი,トゥストラ・グティエレス,图斯特拉古铁雷斯,툭스틀라구티에레스","latitude":"16.75973","longitude":"-93.11308","feature_class":"P","feature_code":"PPLA","country_code":"MX","cc2":"","admin1_code":"05","admin2_code":"101","admin3_code":"","admin4_code":"","population":"481128","elevation":"","dem":"526","timezone":"America/Mexico_City","modification_date":"2015-06-22"},{"geonameid":"3515002","name":"Tuxtla Chico","asciiname":"Tuxtla Chico","alternatenames":"Tuxtla Chico","latitude":"14.93945","longitude":"-92.1673","feature_class":"P","feature_code":"PPLA2","country_code":"MX","cc2":"","admin1_code":"05","admin2_code":"102","admin3_code":"","admin4_code":"","population":"7287","elevation":"","dem":"321","timezone":"America/Mexico_City","modification_date":"2016-01-07"},{"geonameid":"3515004","name":"Tuxtla","asciiname":"Tuxtla","alternatenames":"Tuxtla","latitude":"20.00037","longitude":"-97.65526","feature_class":"P","feature_code":"PPL","country_code":"MX","cc2":"","admin1_code":"21","admin2_code":"210","admin3_code":"","admin4_code":"","population":"2466","elevation":"","dem":"908","timezone":"America/Mexico_City","modification_date":"2014-06-05"},{"geonameid":"3515011","name":"Tuxpan de Rodríguez Cano","asciiname":"Tuxpan de Rodriguez Cano","alternatenames":"Tuxpam,Tuxpan,Tuxpan de Rodriguez Cano,Tuxpan de Rodríguez Cano,Túxpam","latitude":"20.95773","longitude":"-97.40798","feature_class":"P","feature_code":"PPL","country_code":"MX","cc2":"","admin1_code":"30","admin2_code":"189","admin3_code":"","admin4_code":"","population":"134394","elevation":"","dem":"11","timezone":"America/Mexico_City","modification_date":"2015-06-22"},{"geonameid":"3515026","name":"Tunkas","asciiname":"Tunkas","alternatenames":"Tunkas,Tunkás","latitude":"20.90294","longitude":"-88.75171","feature_class":"P","feature_code":"PPL","country_code":"MX","cc2":"","admin1_code":"31","admin2_code":"097","admin3_code":"","admin4_code":"","population":"3070","elevation":"","dem":"18","timezone":"America/Merida","modification_date":"2015-06-22"},{"geonameid":"3515040","name":"Tulum","asciiname":"Tulum","alternatenames":"TUY,Tulum,Tulun,Tulún","latitude":"20.21173","longitude":"-87.46325","feature_class":"P","feature_code":"PPL","country_code":"MX","cc2":"","admin1_code":"23","admin2_code":"009","admin3_code":"","admin4_code":"","population":"8390","elevation":"","dem":"5","timezone":"America/Cancun","modification_date":"2015-06-22"},{"geonameid":"3515042","name":"Tultitlán","asciiname":"Tultitlan","alternatenames":"Tul'titlan,Tultitla de Mariano Escobedo,Tultitlan,Tultitlá de Mariano Escobedo,Tultitlán,Тультитлан","latitude":"19.64756","longitude":"-99.16796","feature_class":"P","feature_code":"PPL","country_code":"MX","cc2":"","admin1_code":"15","admin2_code":"109","admin3_code":"","admin4_code":"","population":"24387","elevation":"","dem":"2256","timezone":"America/Mexico_City","modification_date":"2015-06-22"},{"geonameid":"3515044","name":"Tultepec","asciiname":"Tultepec","alternatenames":"San Pedro de Tultepec,Tultepec","latitude":"19.685","longitude":"-99.12806","feature_class":"P","feature_code":"PPL","country_code":"MX","cc2":"","admin1_code":"15","admin2_code":"108","admin3_code":"","admin4_code":"","population":"65338","elevation":"","dem":"2257","timezone":"America/Mexico_City","modification_date":"2013-07-31"},{"geonameid":"3515056","name":"Tulcingo de Valle","asciiname":"Tulcingo de Valle","alternatenames":"Tulcingo,Tulcingo de Valle,Tulcingo del Valle","latitude":"18.0437","longitude":"-98.44074","feature_class":"P","feature_code":"PPLA2","country_code":"MX","cc2":"","admin1_code":"21","admin2_code":"191","admin3_code":"","admin4_code":"","population":"5249","elevation":"","dem":"1102","timezone":"America/Mexico_City","modification_date":"2014-09-05"},{"geonameid":"3515062","name":"Tulancingo","asciiname":"Tulancingo","alternatenames":"Tulancingo,Tulancingo de Bravo","latitude":"20.08363","longitude":"-98.36332","feature_class":"P","feature_code":"PPL","country_code":"MX","cc2":"","admin1_code":"13","admin2_code":"077","admin3_code":"","admin4_code":"","population":"102383","elevation":"","dem":"2180","timezone":"America/Mexico_City","modification_date":"2015-06-22"},{"geonameid":"3515064","name":"Tula de Allende","asciiname":"Tula de Allende","alternatenames":"El Tule,Tula,Tula de Allende,Tula-de-Al'ende,Тула-де-Альенде","latitude":"20.05161","longitude":"-99.34397","feature_class":"P","feature_code":"PPL","country_code":"MX","cc2":"","admin1_code":"13","admin2_code":"076","admin3_code":"","admin4_code":"","population":"27677","elevation":"","dem":"2066","timezone":"America/Mexico_City","modification_date":"2015-06-22"},{"geonameid":"3515068","name":"Tula","asciiname":"Tula","alternatenames":"","latitude":"22.99645","longitude":"-99.71171","feature_class":"P","feature_code":"PPL","country_code":"MX","cc2":"","admin1_code":"28","admin2_code":"039","admin3_code":"","admin4_code":"","population":"9054","elevation":"","dem":"1177","timezone":"America/Monterrey","modification_date":"2015-06-22"},{"geonameid":"3515086","name":"Trinidad Zaachila","asciiname":"Trinidad Zaachila","alternatenames":"Trinidad,Trinidad Zaachila,Trinidad de Zaachila,Zaachila,Zoochila","latitude":"16.92135","longitude":"-96.76384","feature_class":"P","feature_code":"PPLA2","country_code":"MX","cc2":"","admin1_code":"20","admin2_code":"555","admin3_code":"","admin4_code":"","population":"12240","elevation":"","dem":"1510","timezone":"America/Mexico_City","modification_date":"2015-06-22"},{"geonameid":"3515120","name":"Tres Picos","asciiname":"Tres Picos","alternatenames":"La Tigrera,Tres Picos","latitude":"15.88209","longitude":"-93.52867","feature_class":"P","feature_code":"PPL","country_code":"MX","cc2":"","admin1_code":"05","admin2_code":"097","admin3_code":"","admin4_code":"","population":"4881","elevation":"","dem":"28","timezone":"America/Mexico_City","modification_date":"2014-07-30"},{"geonameid":"3515165","name":"Trapiche del Rosario","asciiname":"Trapiche del Rosario","alternatenames":"","latitude":"19.54306","longitude":"-96.74111","feature_class":"P","feature_code":"PPL","country_code":"MX","cc2":"","admin1_code":"30","admin2_code":"004","admin3_code":"","admin4_code":"","population":"1379","elevation":"","dem":"481","timezone":"America/Mexico_City","modification_date":"2013-07-31"},{"geonameid":"3515184","name":"Totutla","asciiname":"Totutla","alternatenames":"Tolutla,Totutla","latitude":"19.21169","longitude":"-96.96118","feature_class":"P","feature_code":"PPLA2","country_code":"MX","cc2":"","admin1_code":"30","admin2_code":"188","admin3_code":"","admin4_code":"","population":"3464","elevation":"","dem":"1449","timezone":"America/Mexico_City","modification_date":"2015-06-22"},{"geonameid":"3515188","name":"Totontepec Villa de Morelos","asciiname":"Totontepec Villa de Morelos","alternatenames":"Santa Maria Totontepec Villa de Zertuche,Santa María Totontepec Villa de Zertuche,Totontepec,Totontepec Villa de Morelos","latitude":"17.25679","longitude":"-96.02786","feature_class":"P","feature_code":"PPLA2","country_code":"MX","cc2":"","admin1_code":"20","admin2_code":"554","admin3_code":"","admin4_code":"","population":"0","elevation":"","dem":"1843","timezone":"America/Mexico_City","modification_date":"2015-06-22"},{"geonameid":"3515192","name":"Totoltepec de Guerrero","asciiname":"Totoltepec de Guerrero","alternatenames":"Totoltepec,Totoltepec de Guerrero","latitude":"18.2256","longitude":"-97.85511","feature_class":"P","feature_code":"PPLA2","country_code":"MX","cc2":"","admin1_code":"21","admin2_code":"190","admin3_code":"","admin4_code":"","population":"0","elevation":"","dem":"1379","timezone":"America/Mexico_City","modification_date":"2015-06-22"},{"geonameid":"3515195","name":"Totolapan","asciiname":"Totolapan","alternatenames":"Totolapan","latitude":"18.98487","longitude":"-98.92073","feature_class":"P","feature_code":"PPL","country_code":"MX","cc2":"","admin1_code":"17","admin2_code":"027","admin3_code":"","admin4_code":"","population":"5584","elevation":"","dem":"1902","timezone":"America/Mexico_City","modification_date":"2015-06-22"},{"geonameid":"3515202","name":"Totolapa","asciiname":"Totolapa","alternatenames":"Totolapa","latitude":"16.54357","longitude":"-92.68019","feature_class":"P","feature_code":"PPLA2","country_code":"MX","cc2":"","admin1_code":"05","admin2_code":"098","admin3_code":"","admin4_code":"","population":"4267","elevation":"","dem":"655","timezone":"America/Mexico_City","modification_date":"2015-06-22"},{"geonameid":"3515205","name":"San Miguel Totocuitlapilco","asciiname":"San Miguel Totocuitlapilco","alternatenames":"San Miguel Totocuitlapilco,Totocuitlapilco","latitude":"19.23107","longitude":"-99.59116","feature_class":"P","feature_code":"PPL","country_code":"MX","cc2":"","admin1_code":"17","admin2_code":"","admin3_code":"","admin4_code":"","population":"7966","elevation":"","dem":"2610","timezone":"America/Mexico_City","modification_date":"2014-09-05"},{"geonameid":"3515270","name":"Santo Domingo Tomaltepec","asciiname":"Santo Domingo Tomaltepec","alternatenames":"Santo Domingo Tomaltepec,Tonaltepec","latitude":"17.06117","longitude":"-96.6228","feature_class":"P","feature_code":"PPLA2","country_code":"MX","cc2":"","admin1_code":"20","admin2_code":"519","admin3_code":"","admin4_code":"","population":"0","elevation":"","dem":"1587","timezone":"America/Mexico_City","modification_date":"2015-06-22"},{"geonameid":"3515272","name":"Tonalixco","asciiname":"Tonalixco","alternatenames":"","latitude":"18.78194","longitude":"-97.05972","feature_class":"P","feature_code":"PPL","country_code":"MX","cc2":"","admin1_code":"30","admin2_code":"185","admin3_code":"","admin4_code":"","population":"1095","elevation":"","dem":"1425","timezone":"America/Mexico_City","modification_date":"2013-07-31"},{"geonameid":"3515290","name":"Tomatlán","asciiname":"Tomatlan","alternatenames":"Tomatlan,Tomatlán","latitude":"19.03102","longitude":"-97.00986","feature_class":"P","feature_code":"PPL","country_code":"MX","cc2":"","admin1_code":"30","admin2_code":"186","admin3_code":"","admin4_code":"","population":"4348","elevation":"","dem":"1364","timezone":"America/Mexico_City","modification_date":"2014-06-05"},{"geonameid":"3515302","name":"Toluca","asciiname":"Toluca","alternatenames":"TLC,Tollohcan,Tolouka,Toluca,Toluca Lerdoensis,Toluca de Lerdo,Toluka,Toluka-de-Lerdo,Tōllohcān,to luk a,tolluka,toluka,toruka,tuo lu ka,twlwka,Τολούκα,Толука,Толука-де-Лердо,تولوکا,तोलुका,โตลูกา,ტოლუკა,トルーカ,托卢卡,톨루카","latitude":"19.28786","longitude":"-99.65324","feature_class":"P","feature_code":"PPLA","country_code":"MX","cc2":"","admin1_code":"15","admin2_code":"106","admin3_code":"","admin4_code":"","population":"505881","elevation":"","dem":"2671","timezone":"America/Mexico_City","modification_date":"2015-06-22"},{"geonameid":"3515310","name":"Tolome","asciiname":"Tolome","alternatenames":"","latitude":"19.26667","longitude":"-96.39472","feature_class":"P","feature_code":"PPL","country_code":"MX","cc2":"","admin1_code":"30","admin2_code":"126","admin3_code":"","admin4_code":"","population":"2715","elevation":"","dem":"28","timezone":"America/Mexico_City","modification_date":"2013-08-01"},{"geonameid":"3515321","name":"Tolcayuca","asciiname":"Tolcayuca","alternatenames":"Tolcayuca","latitude":"19.95814","longitude":"-98.91941","feature_class":"P","feature_code":"PPLA2","country_code":"MX","cc2":"","admin1_code":"17","admin2_code":"","admin3_code":"","admin4_code":"","population":"5964","elevation":"","dem":"2388","timezone":"America/Mexico_City","modification_date":"2014-04-30"},{"geonameid":"3515326","name":"Tocuila","asciiname":"Tocuila","alternatenames":"Tocuila,Toquila","latitude":"18.95","longitude":"-97.01667","feature_class":"P","feature_code":"PPL","country_code":"MX","cc2":"","admin1_code":"30","admin2_code":"068","admin3_code":"","admin4_code":"","population":"4248","elevation":"","dem":"1221","timezone":"America/Mexico_City","modification_date":"2015-06-22"},{"geonameid":"3515330","name":"Tochtepec","asciiname":"Tochtepec","alternatenames":"Tochtepec","latitude":"18.83928","longitude":"-97.82282","feature_class":"P","feature_code":"PPLA2","country_code":"MX","cc2":"","admin1_code":"21","admin2_code":"189","admin3_code":"","admin4_code":"","population":"6050","elevation":"","dem":"1986","timezone":"America/Mexico_City","modification_date":"2016-03-10"},{"geonameid":"3515332","name":"Tochimilco","asciiname":"Tochimilco","alternatenames":"Tochimilco","latitude":"18.89062","longitude":"-98.57154","feature_class":"P","feature_code":"PPLA2","country_code":"MX","cc2":"","admin1_code":"21","admin2_code":"188","admin3_code":"","admin4_code":"","population":"3688","elevation":"","dem":"2038","timezone":"America/Mexico_City","modification_date":"2016-03-10"},{"geonameid":"3515333","name":"Tocatlán","asciiname":"Tocatlan","alternatenames":"Santa Maria,Santa Maria Tocatlan,Santa María,Santa María Tocatlán,Tocatlan,Tocatlán","latitude":"19.38865","longitude":"-98.0274","feature_class":"P","feature_code":"PPLA2","country_code":"MX","cc2":"","admin1_code":"29","admin2_code":"035","admin3_code":"","admin4_code":"","population":"5123","elevation":"","dem":"2634","timezone":"America/Mexico_City","modification_date":"2015-06-22"},{"geonameid":"3515343","name":"Tlayacapan","asciiname":"Tlayacapan","alternatenames":"Tlayacapan","latitude":"18.95556","longitude":"-98.98111","feature_class":"P","feature_code":"PPL","country_code":"MX","cc2":"","admin1_code":"17","admin2_code":"026","admin3_code":"","admin4_code":"","population":"7989","elevation":"","dem":"1637","timezone":"America/Mexico_City","modification_date":"2013-07-31"},{"geonameid":"3515349","name":"Tlaxco","asciiname":"Tlaxco","alternatenames":"San Agustin Tlaxco,San Agustín Tlaxco,Tlaxco,Tlaxco de Morelos","latitude":"19.61442","longitude":"-98.11997","feature_class":"P","feature_code":"PPLA2","country_code":"MX","cc2":"","admin1_code":"29","admin2_code":"034","admin3_code":"","admin4_code":"","population":"12553","elevation":"","dem":"2550","timezone":"America/Mexico_City","modification_date":"2015-06-22"},