{"nextFile":"cities.95.json","rows":[{"geonameid":"3826931","name":"Las Peñas","asciiname":"Las Penas","alternatenames":"","latitude":"19.44972","longitude":"-99.99944","feature_class":"P","feature_code":"PPL","country_code":"MX","cc2":"","admin1_code":"15","admin2_code":"114","admin3_code":"","admin4_code":"","population":"1469","elevation":"","dem":"2594","timezone":"America/Mexico_City","modification_date":"2013-07-31"},{"geonameid":"3826963","name":"El Rincón de los Perales","asciiname":"El Rincon de los Perales","alternatenames":"","latitude":"19.54222","longitude":"-99.82806","feature_class":"P","feature_code":"PPL","country_code":"MX","cc2":"","admin1_code":"15","admin2_code":"042","admin3_code":"","admin4_code":"","population":"1147","elevation":"","dem":"2604","timezone":"America/Mexico_City","modification_date":"2013-08-01"},{"geonameid":"3826965","name":"Guadalupe Cachi","asciiname":"Guadalupe Cachi","alternatenames":"","latitude":"19.60111","longitude":"-99.825","feature_class":"P","feature_code":"PPL","country_code":"MX","cc2":"","admin1_code":"15","admin2_code":"042","admin3_code":"","admin4_code":"","population":"3812","elevation":"","dem":"2540","timezone":"America/Mexico_City","modification_date":"2013-07-31"},{"geonameid":"3826966","name":"Emiliano Zapata (Santo Domingo)","asciiname":"Emiliano Zapata (Santo Domingo)","alternatenames":"","latitude":"19.57972","longitude":"-99.78806","feature_class":"P","feature_code":"PPL","country_code":"MX","cc2":"","admin1_code":"15","admin2_code":"042","admin3_code":"","admin4_code":"","population":"7331","elevation":"","dem":"2539","timezone":"America/Mexico_City","modification_date":"2013-08-01"},{"geonameid":"3826967","name":"San Francisco de Guzmán","asciiname":"San Francisco de Guzman","alternatenames":"San Francisco,San Francisco Ixtlahuaca","latitude":"19.62028","longitude":"-99.77472","feature_class":"P","feature_code":"PPL","country_code":"MX","cc2":"MX","admin1_code":"15","admin2_code":"042","admin3_code":"","admin4_code":"","population":"1562","elevation":"","dem":"2537","timezone":"America/Mexico_City","modification_date":"2013-08-01"},{"geonameid":"3826972","name":"Fresno Nichi","asciiname":"Fresno Nichi","alternatenames":"","latitude":"19.56694","longitude":"-99.94889","feature_class":"P","feature_code":"PPL","country_code":"MX","cc2":"","admin1_code":"15","admin2_code":"074","admin3_code":"","admin4_code":"","population":"2434","elevation":"","dem":"2901","timezone":"America/Mexico_City","modification_date":"2013-08-01"},{"geonameid":"3826973","name":"Mina Vieja","asciiname":"Mina Vieja","alternatenames":"","latitude":"19.5525","longitude":"-99.94389","feature_class":"P","feature_code":"PPL","country_code":"MX","cc2":"","admin1_code":"15","admin2_code":"114","admin3_code":"","admin4_code":"","population":"1771","elevation":"","dem":"2902","timezone":"America/Mexico_City","modification_date":"2013-07-31"},{"geonameid":"3826975","name":"Palos Amarillos (Palos Amarillos Yebuciví)","asciiname":"Palos Amarillos (Palos Amarillos Yebucivi)","alternatenames":"","latitude":"19.53944","longitude":"-99.91667","feature_class":"P","feature_code":"PPL","country_code":"MX","cc2":"","admin1_code":"15","admin2_code":"005","admin3_code":"","admin4_code":"","population":"2017","elevation":"","dem":"2977","timezone":"America/Mexico_City","modification_date":"2013-08-01"},{"geonameid":"3826977","name":"Cuadrilla Vieja","asciiname":"Cuadrilla Vieja","alternatenames":"","latitude":"19.51205","longitude":"-99.98692","feature_class":"P","feature_code":"PPL","country_code":"MX","cc2":"","admin1_code":"15","admin2_code":"114","admin3_code":"","admin4_code":"","population":"1015","elevation":"","dem":"2621","timezone":"America/Mexico_City","modification_date":"2013-07-31"},{"geonameid":"3826978","name":"Barrio de San Isidro","asciiname":"Barrio de San Isidro","alternatenames":"","latitude":"19.52139","longitude":"-99.95861","feature_class":"P","feature_code":"PPL","country_code":"MX","cc2":"","admin1_code":"15","admin2_code":"114","admin3_code":"","admin4_code":"","population":"1176","elevation":"","dem":"2762","timezone":"America/Mexico_City","modification_date":"2013-08-01"},{"geonameid":"3826980","name":"San Antonio de las Huertas","asciiname":"San Antonio de las Huertas","alternatenames":"","latitude":"19.56222","longitude":"-99.97111","feature_class":"P","feature_code":"PPL","country_code":"MX","cc2":"","admin1_code":"15","admin2_code":"074","admin3_code":"","admin4_code":"","population":"3549","elevation":"","dem":"2900","timezone":"America/Mexico_City","modification_date":"2013-07-31"},{"geonameid":"3826983","name":"San Juan Cote Ejido","asciiname":"San Juan Cote Ejido","alternatenames":"","latitude":"19.60516","longitude":"-99.95913","feature_class":"P","feature_code":"PPL","country_code":"MX","cc2":"","admin1_code":"15","admin2_code":"074","admin3_code":"","admin4_code":"","population":"1224","elevation":"","dem":"2765","timezone":"America/Mexico_City","modification_date":"2013-08-01"},{"geonameid":"3826984","name":"San Jerónimo Bonchete","asciiname":"San Jeronimo Bonchete","alternatenames":"","latitude":"19.63106","longitude":"-99.94949","feature_class":"P","feature_code":"PPL","country_code":"MX","cc2":"","admin1_code":"15","admin2_code":"074","admin3_code":"","admin4_code":"","population":"2564","elevation":"","dem":"2769","timezone":"America/Mexico_City","modification_date":"2013-08-01"},{"geonameid":"3826987","name":"Santa Cruz Mextepec","asciiname":"Santa Cruz Mextepec","alternatenames":"","latitude":"19.65972","longitude":"-99.95306","feature_class":"P","feature_code":"PPL","country_code":"MX","cc2":"","admin1_code":"15","admin2_code":"074","admin3_code":"","admin4_code":"","population":"1836","elevation":"","dem":"2577","timezone":"America/Mexico_City","modification_date":"2013-07-31"},{"geonameid":"3826989","name":"Dolores Hidalgo","asciiname":"Dolores Hidalgo","alternatenames":"","latitude":"19.65528","longitude":"-99.92639","feature_class":"P","feature_code":"PPL","country_code":"MX","cc2":"","admin1_code":"15","admin2_code":"074","admin3_code":"","admin4_code":"","population":"3374","elevation":"","dem":"2556","timezone":"America/Mexico_City","modification_date":"2013-07-31"},{"geonameid":"3826991","name":"Ejido del Tunal Nenaxi","asciiname":"Ejido del Tunal Nenaxi","alternatenames":"El Tunal Nenaxi,Nenaxi","latitude":"19.74389","longitude":"-99.90889","feature_class":"P","feature_code":"PPL","country_code":"MX","cc2":"MX","admin1_code":"15","admin2_code":"074","admin3_code":"","admin4_code":"","population":"1941","elevation":"","dem":"2545","timezone":"America/Mexico_City","modification_date":"2013-08-01"},{"geonameid":"3826993","name":"San Lucas Ocotepec","asciiname":"San Lucas Ocotepec","alternatenames":"","latitude":"19.67833","longitude":"-99.97194","feature_class":"P","feature_code":"PPL","country_code":"MX","cc2":"","admin1_code":"15","admin2_code":"074","admin3_code":"","admin4_code":"","population":"3043","elevation":"","dem":"2722","timezone":"America/Mexico_City","modification_date":"2013-08-01"},{"geonameid":"3826994","name":"El Carmen Ocotepec","asciiname":"El Carmen Ocotepec","alternatenames":"","latitude":"19.68722","longitude":"-99.97417","feature_class":"P","feature_code":"PPL","country_code":"MX","cc2":"","admin1_code":"15","admin2_code":"074","admin3_code":"","admin4_code":"","population":"1190","elevation":"","dem":"2727","timezone":"America/Mexico_City","modification_date":"2013-07-31"},{"geonameid":"3826998","name":"San Juan Jalpa Centro","asciiname":"San Juan Jalpa Centro","alternatenames":"","latitude":"19.69806","longitude":"-99.93","feature_class":"P","feature_code":"PPL","country_code":"MX","cc2":"","admin1_code":"15","admin2_code":"074","admin3_code":"","admin4_code":"","population":"2667","elevation":"","dem":"2582","timezone":"America/Mexico_City","modification_date":"2013-08-01"},{"geonameid":"3827000","name":"San Agustín Mextepec","asciiname":"San Agustin Mextepec","alternatenames":"","latitude":"19.64248","longitude":"-99.93051","feature_class":"P","feature_code":"PPL","country_code":"MX","cc2":"","admin1_code":"15","admin2_code":"074","admin3_code":"","admin4_code":"","population":"5142","elevation":"","dem":"2541","timezone":"America/Mexico_City","modification_date":"2015-06-22"},{"geonameid":"3827002","name":"Santa Ana la Ladera","asciiname":"Santa Ana la Ladera","alternatenames":"","latitude":"19.59583","longitude":"-99.87","feature_class":"P","feature_code":"PPL","country_code":"MX","cc2":"","admin1_code":"15","admin2_code":"042","admin3_code":"","admin4_code":"","population":"3208","elevation":"","dem":"2542","timezone":"America/Mexico_City","modification_date":"2013-07-31"},{"geonameid":"3827003","name":"San Isidro Boxipe","asciiname":"San Isidro Boxipe","alternatenames":"Boxipe,San Isidro Boxipe","latitude":"19.60111","longitude":"-99.89083","feature_class":"P","feature_code":"PPL","country_code":"MX","cc2":"MX","admin1_code":"15","admin2_code":"042","admin3_code":"","admin4_code":"","population":"2563","elevation":"","dem":"2579","timezone":"America/Mexico_City","modification_date":"2013-08-01"},{"geonameid":"3827009","name":"Santa María Endare","asciiname":"Santa Maria Endare","alternatenames":"Endare,Endaré,Santa Maria Endare,Santa María Endaré","latitude":"19.72556","longitude":"-99.81583","feature_class":"P","feature_code":"PPL","country_code":"MX","cc2":"MX","admin1_code":"15","admin2_code":"048","admin3_code":"","admin4_code":"","population":"1700","elevation":"","dem":"2700","timezone":"America/Mexico_City","modification_date":"2013-08-01"},{"geonameid":"3827011","name":"Mavoro","asciiname":"Mavoro","alternatenames":"Maboro,Mavoro","latitude":"19.70417","longitude":"-99.82222","feature_class":"P","feature_code":"PPL","country_code":"MX","cc2":"MX","admin1_code":"15","admin2_code":"048","admin3_code":"","admin4_code":"","population":"1574","elevation":"","dem":"2574","timezone":"America/Mexico_City","modification_date":"2013-08-01"},{"geonameid":"3827012","name":"Emilio Portes Gil","asciiname":"Emilio Portes Gil","alternatenames":"","latitude":"19.64444","longitude":"-99.91667","feature_class":"P","feature_code":"PPL","country_code":"MX","cc2":"","admin1_code":"15","admin2_code":"074","admin3_code":"","admin4_code":"","population":"3737","elevation":"","dem":"2560","timezone":"America/Mexico_City","modification_date":"2013-07-31"},{"geonameid":"3827015","name":"San Juan de las Manzanas","asciiname":"San Juan de las Manzanas","alternatenames":"","latitude":"19.55111","longitude":"-99.83833","feature_class":"P","feature_code":"PPL","country_code":"MX","cc2":"","admin1_code":"15","admin2_code":"042","admin3_code":"","admin4_code":"","population":"3887","elevation":"","dem":"2569","timezone":"America/Mexico_City","modification_date":"2013-07-31"},{"geonameid":"3827017","name":"La Concepción Enyege","asciiname":"La Concepcion Enyege","alternatenames":"","latitude":"19.56472","longitude":"-99.84139","feature_class":"P","feature_code":"PPL","country_code":"MX","cc2":"","admin1_code":"15","admin2_code":"042","admin3_code":"","admin4_code":"","population":"2180","elevation":"","dem":"2552","timezone":"America/Mexico_City","modification_date":"2013-08-01"},{"geonameid":"3827018","name":"San Andrés del Pedregal","asciiname":"San Andres del Pedregal","alternatenames":"","latitude":"19.58139","longitude":"-99.86889","feature_class":"P","feature_code":"PPL","country_code":"MX","cc2":"","admin1_code":"15","admin2_code":"042","admin3_code":"","admin4_code":"","population":"2073","elevation":"","dem":"2564","timezone":"America/Mexico_City","modification_date":"2014-04-11"},{"geonameid":"3827022","name":"Santiago Citendejé","asciiname":"Santiago Citendeje","alternatenames":"","latitude":"19.78139","longitude":"-99.92917","feature_class":"P","feature_code":"PPL","country_code":"MX","cc2":"","admin1_code":"15","admin2_code":"048","admin3_code":"","admin4_code":"","population":"5414","elevation":"","dem":"2572","timezone":"America/Mexico_City","modification_date":"2015-06-22"},{"geonameid":"3827024","name":"Cuendo","asciiname":"Cuendo","alternatenames":"","latitude":"19.80028","longitude":"-99.94778","feature_class":"P","feature_code":"PPL","country_code":"MX","cc2":"","admin1_code":"15","admin2_code":"014","admin3_code":"","admin4_code":"","population":"1473","elevation":"","dem":"2547","timezone":"America/Mexico_City","modification_date":"2013-07-31"},{"geonameid":"3827030","name":"San Lorenzo Tlacotepec","asciiname":"San Lorenzo Tlacotepec","alternatenames":"","latitude":"19.8125","longitude":"-99.91222","feature_class":"P","feature_code":"PPL","country_code":"MX","cc2":"","admin1_code":"15","admin2_code":"014","admin3_code":"","admin4_code":"","population":"7566","elevation":"","dem":"2544","timezone":"America/Mexico_City","modification_date":"2013-07-31"},{"geonameid":"3827031","name":"San Juan de los Jarros","asciiname":"San Juan de los Jarros","alternatenames":"","latitude":"19.86194","longitude":"-99.91611","feature_class":"P","feature_code":"PPL","country_code":"MX","cc2":"","admin1_code":"15","admin2_code":"014","admin3_code":"","admin4_code":"","population":"2411","elevation":"","dem":"2475","timezone":"America/Mexico_City","modification_date":"2013-07-31"},{"geonameid":"3827032","name":"San Luis Boro","asciiname":"San Luis Boro","alternatenames":"","latitude":"19.81316","longitude":"-99.8558","feature_class":"P","feature_code":"PPL","country_code":"MX","cc2":"","admin1_code":"15","admin2_code":"014","admin3_code":"","admin4_code":"","population":"1415","elevation":"","dem":"2610","timezone":"America/Mexico_City","modification_date":"2013-07-31"},{"geonameid":"3827033","name":"Tecoac (Santa María Nativitas)","asciiname":"Tecoac (Santa Maria Nativitas)","alternatenames":"","latitude":"19.78917","longitude":"-99.85306","feature_class":"P","feature_code":"PPL","country_code":"MX","cc2":"","admin1_code":"15","admin2_code":"014","admin3_code":"","admin4_code":"","population":"3175","elevation":"","dem":"2563","timezone":"America/Mexico_City","modification_date":"2013-08-01"},{"geonameid":"3827034","name":"San Bartolo Lanzados","asciiname":"San Bartolo Lanzados","alternatenames":"","latitude":"19.86639","longitude":"-99.89389","feature_class":"P","feature_code":"PPL","country_code":"MX","cc2":"","admin1_code":"15","admin2_code":"014","admin3_code":"","admin4_code":"","population":"1424","elevation":"","dem":"2551","timezone":"America/Mexico_City","modification_date":"2013-08-01"},{"geonameid":"3827035","name":"San José del Tunal","asciiname":"San Jose del Tunal","alternatenames":"","latitude":"19.79056","longitude":"-99.84","feature_class":"P","feature_code":"PPL","country_code":"MX","cc2":"","admin1_code":"15","admin2_code":"014","admin3_code":"","admin4_code":"","population":"1567","elevation":"","dem":"2593","timezone":"America/Mexico_City","modification_date":"2013-07-31"},{"geonameid":"3827036","name":"El Rincón de la Candelaria","asciiname":"El Rincon de la Candelaria","alternatenames":"","latitude":"19.79","longitude":"-99.84306","feature_class":"P","feature_code":"PPL","country_code":"MX","cc2":"","admin1_code":"15","admin2_code":"014","admin3_code":"","admin4_code":"","population":"1600","elevation":"","dem":"2618","timezone":"America/Mexico_City","modification_date":"2013-08-01"},{"geonameid":"3827037","name":"San Francisco Chalchihuapan","asciiname":"San Francisco Chalchihuapan","alternatenames":"","latitude":"19.77","longitude":"-99.82167","feature_class":"P","feature_code":"PPL","country_code":"MX","cc2":"","admin1_code":"15","admin2_code":"014","admin3_code":"","admin4_code":"","population":"2201","elevation":"","dem":"2555","timezone":"America/Mexico_City","modification_date":"2013-07-31"},{"geonameid":"3827038","name":"San Antonio Enchisi","asciiname":"San Antonio Enchisi","alternatenames":"","latitude":"19.75472","longitude":"-99.81667","feature_class":"P","feature_code":"PPL","country_code":"MX","cc2":"","admin1_code":"15","admin2_code":"014","admin3_code":"","admin4_code":"","population":"4870","elevation":"","dem":"2601","timezone":"America/Mexico_City","modification_date":"2013-07-31"},{"geonameid":"3827039","name":"San Pedro del Rosal","asciiname":"San Pedro del Rosal","alternatenames":"","latitude":"19.77806","longitude":"-99.8125","feature_class":"P","feature_code":"PPL","country_code":"MX","cc2":"","admin1_code":"15","admin2_code":"014","admin3_code":"","admin4_code":"","population":"4277","elevation":"","dem":"2570","timezone":"America/Mexico_City","modification_date":"2013-07-31"},{"geonameid":"3827040","name":"San Felipe Pueblo Nuevo","asciiname":"San Felipe Pueblo Nuevo","alternatenames":"","latitude":"19.76778","longitude":"-99.75833","feature_class":"P","feature_code":"PPL","country_code":"MX","cc2":"","admin1_code":"15","admin2_code":"014","admin3_code":"","admin4_code":"","population":"1816","elevation":"","dem":"2944","timezone":"America/Mexico_City","modification_date":"2013-08-01"},{"geonameid":"3827041","name":"Santiago Acutzilapan","asciiname":"Santiago Acutzilapan","alternatenames":"Santiago Acutzilapan,Santiaguito Acultzilapan","latitude":"19.78222","longitude":"-99.76417","feature_class":"P","feature_code":"PPL","country_code":"MX","cc2":"MX","admin1_code":"15","admin2_code":"014","admin3_code":"","admin4_code":"","population":"5866","elevation":"","dem":"2786","timezone":"America/Mexico_City","modification_date":"2013-07-31"},{"geonameid":"3827050","name":"Tixmadeje Chiquito","asciiname":"Tixmadeje Chiquito","alternatenames":"","latitude":"19.96556","longitude":"-99.91444","feature_class":"P","feature_code":"PPL","country_code":"MX","cc2":"","admin1_code":"15","admin2_code":"001","admin3_code":"","admin4_code":"","population":"1377","elevation":"","dem":"2601","timezone":"America/Mexico_City","modification_date":"2013-08-01"},{"geonameid":"3827051","name":"Detiña (San Antonio Detiña)","asciiname":"Detina (San Antonio Detina)","alternatenames":"","latitude":"19.97028","longitude":"-99.88389","feature_class":"P","feature_code":"PPL","country_code":"MX","cc2":"","admin1_code":"15","admin2_code":"001","admin3_code":"","admin4_code":"","population":"2453","elevation":"","dem":"2541","timezone":"America/Mexico_City","modification_date":"2013-08-01"},{"geonameid":"3827061","name":"La Caridad","asciiname":"La Caridad","alternatenames":"","latitude":"19.94778","longitude":"-99.83694","feature_class":"P","feature_code":"PPL","country_code":"MX","cc2":"","admin1_code":"15","admin2_code":"001","admin3_code":"","admin4_code":"","population":"1340","elevation":"","dem":"2574","timezone":"America/Mexico_City","modification_date":"2013-07-31"},{"geonameid":"3827067","name":"San Mateo el Viejo","asciiname":"San Mateo el Viejo","alternatenames":"","latitude":"19.91444","longitude":"-99.91083","feature_class":"P","feature_code":"PPL","country_code":"MX","cc2":"","admin1_code":"15","admin2_code":"085","admin3_code":"","admin4_code":"","population":"1387","elevation":"","dem":"2586","timezone":"America/Mexico_City","modification_date":"2013-07-31"},{"geonameid":"3827075","name":"San Jerónimo de los Jarros","asciiname":"San Jeronimo de los Jarros","alternatenames":"","latitude":"19.87861","longitude":"-99.92333","feature_class":"P","feature_code":"PPL","country_code":"MX","cc2":"","admin1_code":"15","admin2_code":"014","admin3_code":"","admin4_code":"","population":"2555","elevation":"","dem":"2508","timezone":"America/Mexico_City","modification_date":"2013-08-01"},{"geonameid":"3827077","name":"Chosto de los Jarros","asciiname":"Chosto de los Jarros","alternatenames":"","latitude":"19.86333","longitude":"-99.91","feature_class":"P","feature_code":"PPL","country_code":"MX","cc2":"","admin1_code":"15","admin2_code":"014","admin3_code":"","admin4_code":"","population":"1761","elevation":"","dem":"2485","timezone":"America/Mexico_City","modification_date":"2013-07-31"},{"geonameid":"3827078","name":"San José Toxi","asciiname":"San Jose Toxi","alternatenames":"","latitude":"19.86639","longitude":"-99.93861","feature_class":"P","feature_code":"PPL","country_code":"MX","cc2":"","admin1_code":"15","admin2_code":"014","admin3_code":"","admin4_code":"","population":"1735","elevation":"","dem":"2476","timezone":"America/Mexico_City","modification_date":"2013-07-31"},{"geonameid":"3827081","name":"Santa Cruz Bombatevi","asciiname":"Santa Cruz Bombatevi","alternatenames":"","latitude":"19.805","longitude":"-99.88667","feature_class":"P","feature_code":"PPL","country_code":"MX","cc2":"","admin1_code":"15","admin2_code":"014","admin3_code":"","admin4_code":"","population":"2843","elevation":"","dem":"2572","timezone":"America/Mexico_City","modification_date":"2013-07-31"},{"geonameid":"3827083","name":"Tercera Manzana de Zaragoza","asciiname":"Tercera Manzana de Zaragoza","alternatenames":"","latitude":"19.89556","longitude":"-99.75278","feature_class":"P","feature_code":"PPL","country_code":"MX","cc2":"","admin1_code":"15","admin2_code":"102","admin3_code":"","admin4_code":"","population":"1519","elevation":"","dem":"2633","timezone":"America/Mexico_City","modification_date":"2013-08-01"},{"geonameid":"3827097","name":"Las Huertas","asciiname":"Las Huertas","alternatenames":"","latitude":"19.97222","longitude":"-99.55611","feature_class":"P","feature_code":"PPL","country_code":"MX","cc2":"","admin1_code":"15","admin2_code":"045","admin3_code":"","admin4_code":"","population":"3931","elevation":"","dem":"2529","timezone":"America/Mexico_City","modification_date":"2013-07-31"},{"geonameid":"3827140","name":"Jalpa de los Baños","asciiname":"Jalpa de los Banos","alternatenames":"","latitude":"19.67833","longitude":"-99.87389","feature_class":"P","feature_code":"PPL","country_code":"MX","cc2":"","admin1_code":"15","admin2_code":"042","admin3_code":"","admin4_code":"","population":"2786","elevation":"","dem":"2549","timezone":"America/Mexico_City","modification_date":"2013-08-01"},{"geonameid":"3827145","name":"San Marcos Tlazalpan","asciiname":"San Marcos Tlazalpan","alternatenames":"San Marcos Tlazalpa,San Marcos Tlazalpan","latitude":"19.80611","longitude":"-99.7175","feature_class":"P","feature_code":"PPL","country_code":"MX","cc2":"MX","admin1_code":"15","admin2_code":"056","admin3_code":"","admin4_code":"","population":"2441","elevation":"","dem":"2731","timezone":"America/Mexico_City","modification_date":"2013-07-31"},{"geonameid":"3827150","name":"San José Boqui","asciiname":"San Jose Boqui","alternatenames":"","latitude":"19.70167","longitude":"-99.72861","feature_class":"P","feature_code":"PPL","country_code":"MX","cc2":"","admin1_code":"15","admin2_code":"048","admin3_code":"","admin4_code":"","population":"1219","elevation":"","dem":"2751","timezone":"America/Mexico_City","modification_date":"2013-08-01"},{"geonameid":"3827151","name":"Huemetla","asciiname":"Huemetla","alternatenames":"","latitude":"19.715","longitude":"-99.73583","feature_class":"P","feature_code":"PPL","country_code":"MX","cc2":"","admin1_code":"15","admin2_code":"048","admin3_code":"","admin4_code":"","population":"1205","elevation":"","dem":"2829","timezone":"America/Mexico_City","modification_date":"2013-07-31"},{"geonameid":"3827155","name":"Barrio de Boyecha","asciiname":"Barrio de Boyecha","alternatenames":"","latitude":"19.70778","longitude":"-99.68444","feature_class":"P","feature_code":"PPL","country_code":"MX","cc2":"","admin1_code":"15","admin2_code":"048","admin3_code":"","admin4_code":"","population":"1130","elevation":"","dem":"2597","timezone":"America/Mexico_City","modification_date":"2013-08-01"},{"geonameid":"3827162","name":"Los Arana","asciiname":"Los Arana","alternatenames":"","latitude":"19.70944","longitude":"-99.50139","feature_class":"P","feature_code":"PPL","country_code":"MX","cc2":"","admin1_code":"15","admin2_code":"112","admin3_code":"","admin4_code":"","population":"1590","elevation":"","dem":"2709","timezone":"America/Mexico_City","modification_date":"2014-04-11"},{"geonameid":"3827172","name":"San Antonio Nixini","asciiname":"San Antonio Nixini","alternatenames":"Nigini,Niginí,San Antonio Nigini,San Antonio Niginí","latitude":"19.67472","longitude":"-99.68472","feature_class":"P","feature_code":"PPL","country_code":"MX","cc2":"MX","admin1_code":"15","admin2_code":"047","admin3_code":"","admin4_code":"","population":"1182","elevation":"","dem":"2579","timezone":"America/Mexico_City","modification_date":"2013-08-01"},{"geonameid":"3827176","name":"San Lorenzo Malacota","asciiname":"San Lorenzo Malacota","alternatenames":"Malacota,San Lorenzo Malacota","latitude":"19.64972","longitude":"-99.61333","feature_class":"P","feature_code":"PPL","country_code":"MX","cc2":"MX","admin1_code":"15","admin2_code":"056","admin3_code":"","admin4_code":"","population":"3255","elevation":"","dem":"2655","timezone":"America/Mexico_City","modification_date":"2013-07-31"},{"geonameid":"3827182","name":"Rancho Alegre","asciiname":"Rancho Alegre","alternatenames":"","latitude":"19.62528","longitude":"-99.68361","feature_class":"P","feature_code":"PPL","country_code":"MX","cc2":"","admin1_code":"15","admin2_code":"047","admin3_code":"","admin4_code":"","population":"1232","elevation":"","dem":"2545","timezone":"America/Mexico_City","modification_date":"2013-07-31"},{"geonameid":"3827186","name":"Santa María del Llano","asciiname":"Santa Maria del Llano","alternatenames":"","latitude":"19.63444","longitude":"-99.725","feature_class":"P","feature_code":"PPL","country_code":"MX","cc2":"","admin1_code":"15","admin2_code":"042","admin3_code":"","admin4_code":"","population":"4078","elevation":"","dem":"2541","timezone":"America/Mexico_City","modification_date":"2013-07-31"},{"geonameid":"3827203","name":"Barrio de San Pedro la Cabecera","asciiname":"Barrio de San Pedro la Cabecera","alternatenames":"","latitude":"19.56528","longitude":"-99.75","feature_class":"P","feature_code":"PPL","country_code":"MX","cc2":"","admin1_code":"15","admin2_code":"042","admin3_code":"","admin4_code":"","population":"2874","elevation":"","dem":"2549","timezone":"America/Mexico_City","modification_date":"2013-08-01"},{"geonameid":"3827204","name":"San Miguel Yuxtepec","asciiname":"San Miguel Yuxtepec","alternatenames":"San Miguel Yustepec,Yustepec","latitude":"19.54056","longitude":"-99.7125","feature_class":"P","feature_code":"PPL","country_code":"MX","cc2":"MX","admin1_code":"15","admin2_code":"047","admin3_code":"","admin4_code":"","population":"1473","elevation":"","dem":"2723","timezone":"America/Mexico_City","modification_date":"2013-08-01"},{"geonameid":"3827219","name":"Enthavi","asciiname":"Enthavi","alternatenames":"Enthavi","latitude":"19.49842","longitude":"-99.57502","feature_class":"P","feature_code":"PPL","country_code":"MX","cc2":"","admin1_code":"17","admin2_code":"","admin3_code":"","admin4_code":"","population":"4810","elevation":"","dem":"2803","timezone":"America/Mexico_City","modification_date":"2014-09-06"},{"geonameid":"3827221","name":"Pothé","asciiname":"Pothe","alternatenames":"","latitude":"19.47417","longitude":"-99.60306","feature_class":"P","feature_code":"PPL","country_code":"MX","cc2":"","admin1_code":"15","admin2_code":"087","admin3_code":"","admin4_code":"","population":"1656","elevation":"","dem":"2649","timezone":"America/Mexico_City","modification_date":"2013-08-01"},{"geonameid":"3827229","name":"San Pedro Abajo","asciiname":"San Pedro Abajo","alternatenames":"San Pedro Abajo,San Pedro de Abajo","latitude":"19.48093","longitude":"-99.567","feature_class":"P","feature_code":"PPL","country_code":"MX","cc2":"","admin1_code":"15","admin2_code":"087","admin3_code":"","admin4_code":"","population":"5581","elevation":"","dem":"2807","timezone":"America/Mexico_City","modification_date":"2015-06-22"},{"geonameid":"3827231","name":"San Mateo Capulhuac","asciiname":"San Mateo Capulhuac","alternatenames":"","latitude":"19.47028","longitude":"-99.52611","feature_class":"P","feature_code":"PPL","country_code":"MX","cc2":"","admin1_code":"15","admin2_code":"067","admin3_code":"","admin4_code":"","population":"2786","elevation":"","dem":"2777","timezone":"America/Mexico_City","modification_date":"2013-08-01"},{"geonameid":"3827238","name":"Ejido de Dolores","asciiname":"Ejido de Dolores","alternatenames":"","latitude":"19.43083","longitude":"-99.61278","feature_class":"P","feature_code":"PPL","country_code":"MX","cc2":"","admin1_code":"15","admin2_code":"087","admin3_code":"","admin4_code":"","population":"2419","elevation":"","dem":"2591","timezone":"America/Mexico_City","modification_date":"2013-08-01"},{"geonameid":"3827239","name":"San José Pathé","asciiname":"San Jose Pathe","alternatenames":"","latitude":"19.43528","longitude":"-99.63111","feature_class":"P","feature_code":"PPL","country_code":"MX","cc2":"","admin1_code":"15","admin2_code":"087","admin3_code":"","admin4_code":"","population":"1455","elevation":"","dem":"2582","timezone":"America/Mexico_City","modification_date":"2013-07-31"},{"geonameid":"3827250","name":"La Cabecera","asciiname":"La Cabecera","alternatenames":"","latitude":"19.35611","longitude":"-99.74806","feature_class":"P","feature_code":"PPL","country_code":"MX","cc2":"","admin1_code":"15","admin2_code":"005","admin3_code":"","admin4_code":"","population":"6559","elevation":"","dem":"2632","timezone":"America/Mexico_City","modification_date":"2013-07-31"},{"geonameid":"3827251","name":"San Martín Toltepec","asciiname":"San Martin Toltepec","alternatenames":"","latitude":"19.35194","longitude":"-99.70583","feature_class":"P","feature_code":"PPL","country_code":"MX","cc2":"","admin1_code":"15","admin2_code":"106","admin3_code":"","admin4_code":"","population":"2753","elevation":"","dem":"2685","timezone":"America/Mexico_City","modification_date":"2013-07-31"},{"geonameid":"3827252","name":"San Marcos Yachihuacaltepec","asciiname":"San Marcos Yachihuacaltepec","alternatenames":"San Marcos Yachihuacaltepec,Yachihuacaltepec","latitude":"19.32319","longitude":"-99.6791","feature_class":"P","feature_code":"PPL","country_code":"MX","cc2":"","admin1_code":"15","admin2_code":"106","admin3_code":"","admin4_code":"","population":"4597","elevation":"","dem":"2639","timezone":"America/Mexico_City","modification_date":"2015-06-22"},{"geonameid":"3827254","name":"San Mateo Otzacatipan","asciiname":"San Mateo Otzacatipan","alternatenames":"San Mateo Otzacatipan","latitude":"19.33273","longitude":"-99.60345","feature_class":"P","feature_code":"PPL","country_code":"MX","cc2":"","admin1_code":"17","admin2_code":"","admin3_code":"","admin4_code":"","population":"18823","elevation":"","dem":"2603","timezone":"America/Mexico_City","modification_date":"2014-09-06"},{"geonameid":"3827256","name":"Santa María Totoltepec","asciiname":"Santa Maria Totoltepec","alternatenames":"San Maria Totoltepec,San María Totoltepec,Santa Maria Totoltepec,Santa María Totoltepec","latitude":"19.30653","longitude":"-99.59279","feature_class":"P","feature_code":"PPLX","country_code":"MX","cc2":"","admin1_code":"15","admin2_code":"106","admin3_code":"","admin4_code":"","population":"18779","elevation":"","dem":"2601","timezone":"America/Mexico_City","modification_date":"2015-06-22"},{"geonameid":"3827257","name":"El Cerrillo Vista Hermosa","asciiname":"El Cerrillo Vista Hermosa","alternatenames":"","latitude":"19.32337","longitude":"-99.5425","feature_class":"P","feature_code":"PPL","country_code":"MX","cc2":"","admin1_code":"15","admin2_code":"106","admin3_code":"","admin4_code":"","population":"8699","elevation":"","dem":"2603","timezone":"America/Mexico_City","modification_date":"2013-08-01"},{"geonameid":"3827260","name":"San Antonio Buenavista","asciiname":"San Antonio Buenavista","alternatenames":"","latitude":"19.26083","longitude":"-99.71194","feature_class":"P","feature_code":"PPL","country_code":"MX","cc2":"","admin1_code":"15","admin2_code":"106","admin3_code":"","admin4_code":"","population":"5937","elevation":"","dem":"2771","timezone":"America/Mexico_City","modification_date":"2014-04-11"},{"geonameid":"3827267","name":"San Pedro Tultepec","asciiname":"San Pedro Tultepec","alternatenames":"San Pedro Tultepec","latitude":"19.26514","longitude":"-99.50934","feature_class":"P","feature_code":"PPL","country_code":"MX","cc2":"","admin1_code":"17","admin2_code":"","admin3_code":"","admin4_code":"","population":"12795","elevation":"","dem":"2592","timezone":"America/Mexico_City","modification_date":"2014-09-06"},{"geonameid":"3827273","name":"San Bartolomé Tlaltelulco","asciiname":"San Bartolome Tlaltelulco","alternatenames":"San Bartolome Tlaltelulco,San Bartolomé Tlaltelulco","latitude":"19.22738","longitude":"-99.62964","feature_class":"P","feature_code":"PPL","country_code":"MX","cc2":"","admin1_code":"17","admin2_code":"","admin3_code":"","admin4_code":"","population":"7354","elevation":"","dem":"2688","timezone":"America/Mexico_City","modification_date":"2014-09-06"},{"geonameid":"3827274","name":"San Juan Tilapa","asciiname":"San Juan Tilapa","alternatenames":"San Juan Tilapa","latitude":"19.22021","longitude":"-99.66012","feature_class":"P","feature_code":"PPL","country_code":"MX","cc2":"","admin1_code":"17","admin2_code":"","admin3_code":"","admin4_code":"","population":"8019","elevation":"","dem":"2785","timezone":"America/Mexico_City","modification_date":"2014-09-06"},{"geonameid":"3827276","name":"Santa María Nativitas","asciiname":"Santa Maria Nativitas","alternatenames":"","latitude":"19.21139","longitude":"-99.62944","feature_class":"P","feature_code":"PPL","country_code":"MX","cc2":"","admin1_code":"15","admin2_code":"018","admin3_code":"","admin4_code":"","population":"6258","elevation":"","dem":"2703","timezone":"America/Mexico_City","modification_date":"2013-07-31"},{"geonameid":"3827278","name":"San Pedro Tlaltizapan","asciiname":"San Pedro Tlaltizapan","alternatenames":"San Pedro Tlaltizapan","latitude":"19.19973","longitude":"-99.49956","feature_class":"P","feature_code":"PPL","country_code":"MX","cc2":"","admin1_code":"17","admin2_code":"","admin3_code":"","admin4_code":"","population":"9620","elevation":"","dem":"2580","timezone":"America/Mexico_City","modification_date":"2014-09-06"},{"geonameid":"3827283","name":"San Andrés Ocotlán","asciiname":"San Andres Ocotlan","alternatenames":"San Andres Ocotlan,San Andrés Ocotlán","latitude":"19.19297","longitude":"-99.58612","feature_class":"P","feature_code":"PPL","country_code":"MX","cc2":"","admin1_code":"17","admin2_code":"","admin3_code":"","admin4_code":"","population":"5226","elevation":"","dem":"2612","timezone":"America/Mexico_City","modification_date":"2014-09-06"},{"geonameid":"3827285","name":"San Francisco Putla","asciiname":"San Francisco Putla","alternatenames":"","latitude":"19.12778","longitude":"-99.63556","feature_class":"P","feature_code":"PPL","country_code":"MX","cc2":"","admin1_code":"15","admin2_code":"090","admin3_code":"","admin4_code":"","population":"3433","elevation":"","dem":"2749","timezone":"America/Mexico_City","modification_date":"2013-07-31"},{"geonameid":"3827298","name":"San Gabriel Zepayautla","asciiname":"San Gabriel Zepayautla","alternatenames":"","latitude":"19.01306","longitude":"-99.55194","feature_class":"P","feature_code":"PPL","country_code":"MX","cc2":"","admin1_code":"15","admin2_code":"088","admin3_code":"","admin4_code":"","population":"2263","elevation":"","dem":"2465","timezone":"America/Mexico_City","modification_date":"2013-08-01"},{"geonameid":"3827299","name":"San Pedro Zictepec","asciiname":"San Pedro Zictepec","alternatenames":"San Pedro Zictepec","latitude":"19.03659","longitude":"-99.57771","feature_class":"P","feature_code":"PPL","country_code":"MX","cc2":"","admin1_code":"17","admin2_code":"","admin3_code":"","admin4_code":"","population":"5559","elevation":"","dem":"2572","timezone":"America/Mexico_City","modification_date":"2014-09-06"},{"geonameid":"3827302","name":"Maxtleca de Galeana","asciiname":"Maxtleca de Galeana","alternatenames":"","latitude":"19.02889","longitude":"-99.55722","feature_class":"P","feature_code":"PPL","country_code":"MX","cc2":"","admin1_code":"15","admin2_code":"049","admin3_code":"","admin4_code":"","population":"1124","elevation":"","dem":"2486","timezone":"America/Mexico_City","modification_date":"2013-07-31"},{"geonameid":"3827304","name":"Santa María Jajalpa","asciiname":"Santa Maria Jajalpa","alternatenames":"","latitude":"19.11167","longitude":"-99.53583","feature_class":"P","feature_code":"PPL","country_code":"MX","cc2":"","admin1_code":"15","admin2_code":"090","admin3_code":"","admin4_code":"","population":"6755","elevation":"","dem":"2583","timezone":"America/Mexico_City","modification_date":"2014-04-11"},{"geonameid":"3827306","name":"San Antonio la Isla","asciiname":"San Antonio la Isla","alternatenames":"La Isla,San Antonio La Isla","latitude":"19.16306","longitude":"-99.56722","feature_class":"P","feature_code":"PPL","country_code":"MX","cc2":"","admin1_code":"15","admin2_code":"073","admin3_code":"","admin4_code":"","population":"12525","elevation":"","dem":"2591","timezone":"America/Mexico_City","modification_date":"2013-07-31"},{"geonameid":"3827326","name":"Tlacomulco","asciiname":"Tlacomulco","alternatenames":"","latitude":"19.12111","longitude":"-99.4475","feature_class":"P","feature_code":"PPL","country_code":"MX","cc2":"","admin1_code":"15","admin2_code":"101","admin3_code":"","admin4_code":"","population":"1814","elevation":"","dem":"2720","timezone":"America/Mexico_City","modification_date":"2013-07-31"},{"geonameid":"3827327","name":"San Lorenzo Huehuetitlán","asciiname":"San Lorenzo Huehuetitlan","alternatenames":"","latitude":"19.13417","longitude":"-99.48222","feature_class":"P","feature_code":"PPL","country_code":"MX","cc2":"","admin1_code":"15","admin2_code":"101","admin3_code":"","admin4_code":"","population":"2100","elevation":"","dem":"2599","timezone":"America/Mexico_City","modification_date":"2013-07-31"},{"geonameid":"3827335","name":"Santiago Tílapa","asciiname":"Santiago Tilapa","alternatenames":"Santiago Tilapa,Santiago Tílapa","latitude":"19.18953","longitude":"-99.42089","feature_class":"P","feature_code":"PPL","country_code":"MX","cc2":"","admin1_code":"17","admin2_code":"","admin3_code":"","admin4_code":"","population":"9676","elevation":"","dem":"2777","timezone":"America/Mexico_City","modification_date":"2014-09-06"},{"geonameid":"3827337","name":"San Miguel Almaya","asciiname":"San Miguel Almaya","alternatenames":"","latitude":"19.20944","longitude":"-99.4425","feature_class":"P","feature_code":"PPL","country_code":"MX","cc2":"","admin1_code":"15","admin2_code":"019","admin3_code":"","admin4_code":"","population":"4941","elevation":"","dem":"2722","timezone":"America/Mexico_City","modification_date":"2014-04-11"},{"geonameid":"3827341","name":"Tres Marías","asciiname":"Tres Marias","alternatenames":"Tres Cumbres,Tres Marias,Tres Marías","latitude":"19.0549","longitude":"-99.24301","feature_class":"P","feature_code":"PPL","country_code":"MX","cc2":"","admin1_code":"17","admin2_code":"009","admin3_code":"","admin4_code":"","population":"5713","elevation":"","dem":"2812","timezone":"America/Mexico_City","modification_date":"2015-06-22"},{"geonameid":"3827358","name":"San Pedro Cholula","asciiname":"San Pedro Cholula","alternatenames":"","latitude":"19.26444","longitude":"-99.48639","feature_class":"P","feature_code":"PPL","country_code":"MX","cc2":"","admin1_code":"15","admin2_code":"062","admin3_code":"","admin4_code":"","population":"8941","elevation":"","dem":"2577","timezone":"America/Mexico_City","modification_date":"2013-07-31"},{"geonameid":"3827359","name":"San Jerónimo Acazulco","asciiname":"San Jeronimo Acazulco","alternatenames":"","latitude":"19.265","longitude":"-99.41583","feature_class":"P","feature_code":"PPL","country_code":"MX","cc2":"","admin1_code":"15","admin2_code":"062","admin3_code":"","admin4_code":"","population":"4827","elevation":"","dem":"2761","timezone":"America/Mexico_City","modification_date":"2013-07-31"},{"geonameid":"3827367","name":"San Miguel Ameyalco","asciiname":"San Miguel Ameyalco","alternatenames":"","latitude":"19.30639","longitude":"-99.45806","feature_class":"P","feature_code":"PPL","country_code":"MX","cc2":"","admin1_code":"15","admin2_code":"051","admin3_code":"","admin4_code":"","population":"5387","elevation":"","dem":"2589","timezone":"America/Mexico_City","modification_date":"2013-07-31"},{"geonameid":"3827368","name":"San Mateo Atarasquíllo","asciiname":"San Mateo Atarasquillo","alternatenames":"San Mateo Atarasquillo,San Mateo Atarasquíllo","latitude":"19.32304","longitude":"-99.46156","feature_class":"P","feature_code":"PPL","country_code":"MX","cc2":"","admin1_code":"17","admin2_code":"","admin3_code":"","admin4_code":"","population":"13556","elevation":"","dem":"2621","timezone":"America/Mexico_City","modification_date":"2014-09-06"},{"geonameid":"3827403","name":"San Lorenzo Acopilco","asciiname":"San Lorenzo Acopilco","alternatenames":"","latitude":"19.32889","longitude":"-99.32556","feature_class":"P","feature_code":"PPL","country_code":"MX","cc2":"","admin1_code":"09","admin2_code":"004","admin3_code":"","admin4_code":"","population":"23037","elevation":"","dem":"2935","timezone":"America/Mexico_City","modification_date":"2014-04-11"},{"geonameid":"3827406","name":"Benito Juarez","asciiname":"Benito Juarez","alternatenames":"","latitude":"19.3984","longitude":"-99.15766","feature_class":"P","feature_code":"PPL","country_code":"MX","cc2":"","admin1_code":"09","admin2_code":"014","admin3_code":"","admin4_code":"","population":"355017","elevation":"","dem":"2243","timezone":"America/Mexico_City","modification_date":"2015-06-22"},{"geonameid":"3827407","name":"Venustiano Carranza","asciiname":"Venustiano Carranza","alternatenames":"Venustiano Carranza","latitude":"19.44286","longitude":"-99.09724","feature_class":"P","feature_code":"PPL","country_code":"MX","cc2":"","admin1_code":"09","admin2_code":"017","admin3_code":"","admin4_code":"","population":"447459","elevation":"","dem":"2236","timezone":"America/Mexico_City","modification_date":"2015-06-22"},{"geonameid":"3827408","name":"Miguel Hidalgo","asciiname":"Miguel Hidalgo","alternatenames":"Miguel Hidalgo","latitude":"19.43471","longitude":"-99.20091","feature_class":"P","feature_code":"PPL","country_code":"MX","cc2":"","admin1_code":"09","admin2_code":"016","admin3_code":"","admin4_code":"","population":"353534","elevation":"","dem":"2269","timezone":"America/Mexico_City","modification_date":"2015-06-22"},{"geonameid":"3827409","name":"Cuauhtémoc","asciiname":"Cuauhtemoc","alternatenames":"Cuauhtemoc,Cuauhtémoc","latitude":"19.44506","longitude":"-99.14612","feature_class":"P","feature_code":"PPL","country_code":"MX","cc2":"","admin1_code":"09","admin2_code":"015","admin3_code":"","admin4_code":"","population":"521348","elevation":"","dem":"2237","timezone":"America/Mexico_City","modification_date":"2015-06-22"},{"geonameid":"3827414","name":"Huixquilucan","asciiname":"Huixquilucan","alternatenames":"Huixquilucan","latitude":"19.35985","longitude":"-99.35016","feature_class":"P","feature_code":"PPL","country_code":"MX","cc2":"","admin1_code":"15","admin2_code":"037","admin3_code":"","admin4_code":"","population":"124846","elevation":"","dem":"2712","timezone":"America/Mexico_City","modification_date":"2015-06-22"},{"geonameid":"3827416","name":"Zacamulpa","asciiname":"Zacamulpa","alternatenames":"San Jacinto,Zacamulpa","latitude":"19.35551","longitude":"-99.333","feature_class":"P","feature_code":"PPL","country_code":"MX","cc2":"","admin1_code":"15","admin2_code":"037","admin3_code":"","admin4_code":"","population":"5985","elevation":"","dem":"2776","timezone":"America/Mexico_City","modification_date":"2015-06-22"},{"geonameid":"3827418","name":"San Bartolomé Coatepec","asciiname":"San Bartolome Coatepec","alternatenames":"San Bartolito,San Bartolome Coatepec,San Bartolomé Coatepec","latitude":"19.40376","longitude":"-99.28736","feature_class":"P","feature_code":"PPL","country_code":"MX","cc2":"","admin1_code":"15","admin2_code":"037","admin3_code":"","admin4_code":"","population":"4761","elevation":"","dem":"2488","timezone":"America/Mexico_City","modification_date":"2015-06-22"},{"geonameid":"3827438","name":"Santa Cruz Huitzizilapan","asciiname":"Santa Cruz Huitzizilapan","alternatenames":"Sacamulpa Huitzitzilapa,Sacamulpa Huitzitzilapan","latitude":"19.39694","longitude":"-99.44806","feature_class":"P","feature_code":"PPL","country_code":"MX","cc2":"MX","admin1_code":"15","admin2_code":"051","admin3_code":"","admin4_code":"","population":"1592","elevation":"","dem":"2842","timezone":"America/Mexico_City","modification_date":"2013-08-01"},{"geonameid":"3827448","name":"San Francisco Chimalpa","asciiname":"San Francisco Chimalpa","alternatenames":"","latitude":"19.44194","longitude":"-99.34194","feature_class":"P","feature_code":"PPL","country_code":"MX","cc2":"","admin1_code":"15","admin2_code":"057","admin3_code":"","admin4_code":"","population":"8953","elevation":"","dem":"2844","timezone":"America/Mexico_City","modification_date":"2014-04-11"},{"geonameid":"3827468","name":"Loma del Río","asciiname":"Loma del Rio","alternatenames":"","latitude":"19.60056","longitude":"-99.35056","feature_class":"P","feature_code":"PPL","country_code":"MX","cc2":"","admin1_code":"15","admin2_code":"060","admin3_code":"","admin4_code":"","population":"1316","elevation":"","dem":"2469","timezone":"America/Mexico_City","modification_date":"2013-07-31"},{"geonameid":"3827472","name":"San Miguel Hila","asciiname":"San Miguel Hila","alternatenames":"","latitude":"19.59361","longitude":"-99.32528","feature_class":"P","feature_code":"PPL","country_code":"MX","cc2":"","admin1_code":"15","admin2_code":"060","admin3_code":"","admin4_code":"","population":"4373","elevation":"","dem":"2418","timezone":"America/Mexico_City","modification_date":"2013-07-31"},{"geonameid":"3827476","name":"San José el Vidrio","asciiname":"San Jose el Vidrio","alternatenames":"","latitude":"19.65333","longitude":"-99.38417","feature_class":"P","feature_code":"PPL","country_code":"MX","cc2":"","admin1_code":"15","admin2_code":"060","admin3_code":"","admin4_code":"","population":"5204","elevation":"","dem":"2623","timezone":"America/Mexico_City","modification_date":"2013-07-31"},{"geonameid":"3827506","name":"San Luis Taxhimay","asciiname":"San Luis Taxhimay","alternatenames":"","latitude":"19.83972","longitude":"-99.39861","feature_class":"P","feature_code":"PPL","country_code":"MX","cc2":"","admin1_code":"15","admin2_code":"112","admin3_code":"","admin4_code":"","population":"2145","elevation":"","dem":"2248","timezone":"America/Mexico_City","modification_date":"2013-07-31"},{"geonameid":"3827521","name":"San Ignacio Nopala","asciiname":"San Ignacio Nopala","alternatenames":"","latitude":"19.83528","longitude":"-99.34556","feature_class":"P","feature_code":"PPL","country_code":"MX","cc2":"","admin1_code":"13","admin2_code":"063","admin3_code":"","admin4_code":"","population":"1534","elevation":"","dem":"2168","timezone":"America/Mexico_City","modification_date":"2014-04-11"},{"geonameid":"3827522","name":"Santiago Tlapanaloya","asciiname":"Santiago Tlapanaloya","alternatenames":"Santiago Tlapanaloya,Santiago Tlapanoloya","latitude":"19.87056","longitude":"-99.35083","feature_class":"P","feature_code":"PPL","country_code":"MX","cc2":"MX","admin1_code":"13","admin2_code":"063","admin3_code":"","admin4_code":"","population":"1785","elevation":"","dem":"2160","timezone":"America/Mexico_City","modification_date":"2013-07-31"},{"geonameid":"3827525","name":"Cantera de Villagrán","asciiname":"Cantera de Villagran","alternatenames":"","latitude":"19.84083","longitude":"-99.30917","feature_class":"P","feature_code":"PPL","country_code":"MX","cc2":"","admin1_code":"13","admin2_code":"063","admin3_code":"","admin4_code":"","population":"1588","elevation":"","dem":"2231","timezone":"America/Mexico_City","modification_date":"2013-08-01"},{"geonameid":"3827529","name":"Santiago Tlautla","asciiname":"Santiago Tlautla","alternatenames":"","latitude":"19.96444","longitude":"-99.37222","feature_class":"P","feature_code":"PPL","country_code":"MX","cc2":"","admin1_code":"13","admin2_code":"063","admin3_code":"","admin4_code":"","population":"2336","elevation":"","dem":"2113","timezone":"America/Mexico_City","modification_date":"2013-07-31"},{"geonameid":"3827533","name":"Santa María Ilucan","asciiname":"Santa Maria Ilucan","alternatenames":"","latitude":"19.98889","longitude":"-99.33889","feature_class":"P","feature_code":"PPL","country_code":"MX","cc2":"","admin1_code":"13","admin2_code":"076","admin3_code":"","admin4_code":"","population":"3475","elevation":"","dem":"2083","timezone":"America/Mexico_City","modification_date":"2013-07-31"},{"geonameid":"3827537","name":"San Miguel Vindho","asciiname":"San Miguel Vindho","alternatenames":"San Miguel Vindho","latitude":"19.99447","longitude":"-99.31782","feature_class":"P","feature_code":"PPL","country_code":"MX","cc2":"","admin1_code":"13","admin2_code":"076","admin3_code":"","admin4_code":"","population":"11054","elevation":"","dem":"2134","timezone":"America/Mexico_City","modification_date":"2015-06-22"},{"geonameid":"3827554","name":"Unidad San Miguel Jagüeyes","asciiname":"Unidad San Miguel Jagueeyes","alternatenames":"","latitude":"19.82361","longitude":"-99.28889","feature_class":"P","feature_code":"PPL","country_code":"MX","cc2":"","admin1_code":"15","admin2_code":"035","admin3_code":"","admin4_code":"","population":"2919","elevation":"","dem":"2389","timezone":"America/Mexico_City","modification_date":"2013-08-01"},{"geonameid":"3827561","name":"Emiliano Zapata (San José Bata)","asciiname":"Emiliano Zapata (San Jose Bata)","alternatenames":"","latitude":"19.91111","longitude":"-99.00667","feature_class":"P","feature_code":"PPL","country_code":"MX","cc2":"","admin1_code":"15","admin2_code":"036","admin3_code":"","admin4_code":"","population":"2207","elevation":"","dem":"2305","timezone":"America/Mexico_City","modification_date":"2013-08-01"},{"geonameid":"3827566","name":"San Pedro Xalpa","asciiname":"San Pedro Xalpa","alternatenames":"San Pedro Xalpa","latitude":"19.82666","longitude":"-99.18466","feature_class":"P","feature_code":"PPL","country_code":"MX","cc2":"","admin1_code":"17","admin2_code":"","admin3_code":"","admin4_code":"","population":"10444","elevation":"","dem":"2292","timezone":"America/Mexico_City","modification_date":"2014-06-05"},{"geonameid":"3827586","name":"Melchor Ocampo","asciiname":"Melchor Ocampo","alternatenames":"","latitude":"19.70246","longitude":"-99.1438","feature_class":"P","feature_code":"PPL","country_code":"MX","cc2":"","admin1_code":"15","admin2_code":"053","admin3_code":"","admin4_code":"","population":"34489","elevation":"","dem":"2263","timezone":"America/Mexico_City","modification_date":"2015-06-22"},{"geonameid":"3827588","name":"Huilango","asciiname":"Huilango","alternatenames":"","latitude":"19.68056","longitude":"-99.25639","feature_class":"P","feature_code":"PPL","country_code":"MX","cc2":"","admin1_code":"15","admin2_code":"121","admin3_code":"","admin4_code":"","population":"17399","elevation":"","dem":"2312","timezone":"America/Mexico_City","modification_date":"2013-07-31"},{"geonameid":"3827596","name":"Santiago Teyahualco","asciiname":"Santiago Teyahualco","alternatenames":"Santiago Atocan,Santiago Teyahualco","latitude":"19.65791","longitude":"-99.1234","feature_class":"P","feature_code":"PPL","country_code":"MX","cc2":"","admin1_code":"15","admin2_code":"108","admin3_code":"","admin4_code":"","population":"41757","elevation":"","dem":"2247","timezone":"America/Mexico_City","modification_date":"2015-06-22"},{"geonameid":"3827597","name":"Santa María Tonatitla","asciiname":"Santa Maria Tonatitla","alternatenames":"Santa Maria Tonanitla,Santa Maria Tonatitla,Santa María Tonanitla,Santa María Tonatitla","latitude":"19.68921","longitude":"-99.05384","feature_class":"P","feature_code":"PPL","country_code":"MX","cc2":"","admin1_code":"15","admin2_code":"125","admin3_code":"","admin4_code":"","population":"5859","elevation":"","dem":"2248","timezone":"America/Mexico_City","modification_date":"2015-06-22"},{"geonameid":"3827598","name":"Ojo de Agua","asciiname":"Ojo de Agua","alternatenames":"","latitude":"19.68028","longitude":"-99.01","feature_class":"P","feature_code":"PPL","country_code":"MX","cc2":"","admin1_code":"15","admin2_code":"081","admin3_code":"","admin4_code":"","population":"242272","elevation":"","dem":"2250","timezone":"America/Mexico_City","modification_date":"2013-08-01"},{"geonameid":"3827600","name":"Santo Tomas Chiconautla","asciiname":"Santo Tomas Chiconautla","alternatenames":"","latitude":"19.64056","longitude":"-99.00833","feature_class":"P","feature_code":"PPL","country_code":"MX","cc2":"","admin1_code":"15","admin2_code":"033","admin3_code":"","admin4_code":"","population":"7844","elevation":"","dem":"2252","timezone":"America/Mexico_City","modification_date":"2015-06-22"},{"geonameid":"3827606","name":"Buenavista","asciiname":"Buenavista","alternatenames":"Buenavista","latitude":"19.60833","longitude":"-99.16944","feature_class":"P","feature_code":"PPL","country_code":"MX","cc2":"","admin1_code":"15","admin2_code":"109","admin3_code":"","admin4_code":"","population":"206081","elevation":"","dem":"2333","timezone":"America/Mexico_City","modification_date":"2013-07-31"},{"geonameid":"3970558","name":"San Ignacio Río Muerto","asciiname":"San Ignacio Rio Muerto","alternatenames":"Rio Muerto,Río Muerto,San Ignacio Rio Muerto,San Ignacio Río Muerto","latitude":"27.41656","longitude":"-110.24584","feature_class":"P","feature_code":"PPL","country_code":"MX","cc2":"","admin1_code":"26","admin2_code":"072","admin3_code":"","admin4_code":"","population":"7358","elevation":"","dem":"11","timezone":"America/Hermosillo","modification_date":"2015-06-22"},{"geonameid":"3970591","name":"Rosario","asciiname":"Rosario","alternatenames":"Rosario","latitude":"27.84111","longitude":"-109.36806","feature_class":"P","feature_code":"PPL","country_code":"MX","cc2":"","admin1_code":"26","admin2_code":"051","admin3_code":"","admin4_code":"","population":"2815","elevation":"","dem":"423","timezone":"America/Hermosillo","modification_date":"2013-07-31"},{"geonameid":"3970634","name":"Vicam","asciiname":"Vicam","alternatenames":"Vicam","latitude":"27.64354","longitude":"-110.29351","feature_class":"P","feature_code":"PPL","country_code":"MX","cc2":"","admin1_code":"26","admin2_code":"029","admin3_code":"","admin4_code":"","population":"8837","elevation":"","dem":"13","timezone":"America/Hermosillo","modification_date":"2015-06-22"},{"geonameid":"3970972","name":"Miguel Alemán (La Doce)","asciiname":"Miguel Aleman (La Doce)","alternatenames":"La Doce,Miguel Aleman,Miguel Alemán","latitude":"28.84028","longitude":"-111.4775","feature_class":"P","feature_code":"PPL","country_code":"MX","cc2":"","admin1_code":"26","admin2_code":"030","admin3_code":"","admin4_code":"","population":"30869","elevation":"","dem":"65","timezone":"America/Hermosillo","modification_date":"2013-08-01"},{"geonameid":"3971610","name":"El Diamante (La Retranca)","asciiname":"El Diamante (La Retranca)","alternatenames":"","latitude":"30.84556","longitude":"-112.63972","feature_class":"P","feature_code":"PPL","country_code":"MX","cc2":"","admin1_code":"26","admin2_code":"017","admin3_code":"","admin4_code":"","population":"1374","elevation":"","dem":"125","timezone":"America/Hermosillo","modification_date":"2013-08-01"},{"geonameid":"3972149","name":"El Nigromante","asciiname":"El Nigromante","alternatenames":"","latitude":"22.15373","longitude":"-101.71056","feature_class":"P","feature_code":"PPL","country_code":"MX","cc2":"","admin1_code":"32","admin2_code":"038","admin3_code":"","admin4_code":"","population":"2200","elevation":"","dem":"2212","timezone":"America/Mexico_City","modification_date":"2013-08-01"},{"geonameid":"3972204","name":"Colonia José María Morelos","asciiname":"Colonia Jose Maria Morelos","alternatenames":"","latitude":"22.36794","longitude":"-101.79449","feature_class":"P","feature_code":"PPL","country_code":"MX","cc2":"","admin1_code":"32","admin2_code":"054","admin3_code":"","admin4_code":"","population":"1215","elevation":"","dem":"2128","timezone":"America/Mexico_City","modification_date":"2013-08-01"},{"geonameid":"3972265","name":"Piedra Gorda","asciiname":"Piedra Gorda","alternatenames":"Piedra Gorda","latitude":"22.50759","longitude":"-102.33187","feature_class":"P","feature_code":"PPL","country_code":"MX","cc2":"","admin1_code":"32","admin2_code":"008","admin3_code":"","admin4_code":"","population":"1007","elevation":"","dem":"2069","timezone":"America/Mexico_City","modification_date":"2014-08-05"},{"geonameid":"3972429","name":"General Pánfilo Natera","asciiname":"General Panfilo Natera","alternatenames":"General Panfilo Natera,General Pánfilo Natera","latitude":"22.66461","longitude":"-102.11007","feature_class":"P","feature_code":"PPL","country_code":"MX","cc2":"","admin1_code":"32","admin2_code":"016","admin3_code":"","admin4_code":"","population":"4176","elevation":"","dem":"2105","timezone":"America/Mexico_City","modification_date":"2015-06-22"},{"geonameid":"3972430","name":"Pozo de Jarillas","asciiname":"Pozo de Jarillas","alternatenames":"","latitude":"22.65279","longitude":"-102.19782","feature_class":"P","feature_code":"PPL","country_code":"MX","cc2":"","admin1_code":"32","admin2_code":"036","admin3_code":"","admin4_code":"","population":"1221","elevation":"","dem":"2160","timezone":"America/Mexico_City","modification_date":"2013-08-01"},{"geonameid":"3972650","name":"La Luz","asciiname":"La Luz","alternatenames":"","latitude":"22.88","longitude":"-102.31028","feature_class":"P","feature_code":"PPL","country_code":"MX","cc2":"","admin1_code":"32","admin2_code":"017","admin3_code":"","admin4_code":"","population":"1244","elevation":"","dem":"2049","timezone":"America/Mexico_City","modification_date":"2013-07-31"},{"geonameid":"3972655","name":"El Lampotal","asciiname":"El Lampotal","alternatenames":"","latitude":"22.89583","longitude":"-102.41944","feature_class":"P","feature_code":"PPL","country_code":"MX","cc2":"","admin1_code":"32","admin2_code":"050","admin3_code":"","admin4_code":"","population":"1368","elevation":"","dem":"2089","timezone":"America/Mexico_City","modification_date":"2013-08-01"},{"geonameid":"3972702","name":"General Enrique Estrada","asciiname":"General Enrique Estrada","alternatenames":"General Enrique Estrada","latitude":"22.99747","longitude":"-102.74255","feature_class":"P","feature_code":"PPL","country_code":"MX","cc2":"","admin1_code":"32","admin2_code":"013","admin3_code":"","admin4_code":"","population":"3461","elevation":"","dem":"2151","timezone":"America/Mexico_City","modification_date":"2015-06-22"},{"geonameid":"3972706","name":"Las Catarinas","asciiname":"Las Catarinas","alternatenames":"Las Catarinas","latitude":"23.09115","longitude":"-102.61597","feature_class":"P","feature_code":"PPL","country_code":"MX","cc2":"","admin1_code":"32","admin2_code":"010","admin3_code":"","admin4_code":"","population":"1535","elevation":"","dem":"2093","timezone":"America/Mexico_City","modification_date":"2014-08-05"},{"geonameid":"3973239","name":"Cañas","asciiname":"Canas","alternatenames":"Canas,Cañas","latitude":"23.74366","longitude":"-103.244","feature_class":"P","feature_code":"PPL","country_code":"MX","cc2":"","admin1_code":"32","admin2_code":"040","admin3_code":"","admin4_code":"","population":"1393","elevation":"","dem":"2043","timezone":"America/Mexico_City","modification_date":"2014-07-08"},{"geonameid":"3973687","name":"Cerro Gordo","asciiname":"Cerro Gordo","alternatenames":"Cerro Gordo","latitude":"21.97448","longitude":"-100.80661","feature_class":"P","feature_code":"PPL","country_code":"MX","cc2":"","admin1_code":"24","admin2_code":"055","admin3_code":"","admin4_code":"","population":"2123","elevation":"","dem":"1862","timezone":"America/Mexico_City","modification_date":"2014-09-04"},{"geonameid":"3973756","name":"Villa Juarez","asciiname":"Villa Juarez","alternatenames":"Villa Juarez","latitude":"22.32617","longitude":"-100.26689","feature_class":"P","feature_code":"PPL","country_code":"MX","cc2":"","admin1_code":"24","admin2_code":"052","admin3_code":"","admin4_code":"","population":"3850","elevation":"","dem":"1108","timezone":"America/Mexico_City","modification_date":"2015-06-22"},{"geonameid":"3973778","name":"La Esperanza","asciiname":"La Esperanza","alternatenames":"","latitude":"22.00798","longitude":"-100.76477","feature_class":"P","feature_code":"PPL","country_code":"MX","cc2":"","admin1_code":"24","admin2_code":"055","admin3_code":"","admin4_code":"","population":"2054","elevation":"","dem":"1923","timezone":"America/Mexico_City","modification_date":"2013-07-31"},{"geonameid":"3974149","name":"Los Zacatones","asciiname":"Los Zacatones","alternatenames":"","latitude":"22.96139","longitude":"-102.05556","feature_class":"P","feature_code":"PPL","country_code":"MX","cc2":"","admin1_code":"24","admin2_code":"049","admin3_code":"","admin4_code":"","population":"5913","elevation":"","dem":"2051","timezone":"America/Mexico_City","modification_date":"2014-04-11"},{"geonameid":"3974329","name":"Dulce Grande","asciiname":"Dulce Grande","alternatenames":"Dulce Grande","latitude":"23.00175","longitude":"-102.17405","feature_class":"P","feature_code":"PPL","country_code":"MX","cc2":"","admin1_code":"24","admin2_code":"049","admin3_code":"","admin4_code":"","population":"5426","elevation":"","dem":"1988","timezone":"America/Mexico_City","modification_date":"2015-06-22"},{"geonameid":"3974771","name":"Praxédis Guerrero","asciiname":"Praxedis Guerrero","alternatenames":"Praxedis Guerrero,Praxédis Guerrero","latitude":"31.36667","longitude":"-106.01667","feature_class":"P","feature_code":"PPL","country_code":"MX","cc2":"","admin1_code":"06","admin2_code":"053","admin3_code":"","admin4_code":"","population":"3787","elevation":"","dem":"1082","timezone":"America/Chihuahua","modification_date":"2015-06-22"},{"geonameid":"3975328","name":"Julimes","asciiname":"Julimes","alternatenames":"Julimes","latitude":"28.43333","longitude":"-105.4","feature_class":"P","feature_code":"PPL","country_code":"MX","cc2":"","admin1_code":"06","admin2_code":"038","admin3_code":"","admin4_code":"","population":"1756","elevation":"","dem":"1134","timezone":"America/Chihuahua","modification_date":"2015-06-22"},{"geonameid":"3975903","name":"José Esteban Coronado","asciiname":"Jose Esteban Coronado","alternatenames":"Coronado","latitude":"26.73722","longitude":"-105.15833","feature_class":"P","feature_code":"PPL","country_code":"MX","cc2":"","admin1_code":"06","admin2_code":"014","admin3_code":"","admin4_code":"","population":"1121","elevation":"","dem":"1514","timezone":"America/Chihuahua","modification_date":"2013-08-01"},{"geonameid":"3976059","name":"Ejido Benito Juárez","asciiname":"Ejido Benito Juarez","alternatenames":"","latitude":"30.14937","longitude":"-106.88362","feature_class":"P","feature_code":"PPL","country_code":"MX","cc2":"","admin1_code":"06","admin2_code":"010","admin3_code":"","admin4_code":"","population":"5778","elevation":"","dem":"1334","timezone":"America/Chihuahua","modification_date":"2013-08-01"},{"geonameid":"3976161","name":"Adolfo López Mateos","asciiname":"Adolfo Lopez Mateos","alternatenames":"","latitude":"28.46667","longitude":"-107.3","feature_class":"P","feature_code":"PPL","country_code":"MX","cc2":"","admin1_code":"06","admin2_code":"031","admin3_code":"","admin4_code":"","population":"8770","elevation":"","dem":"2097","timezone":"America/Chihuahua","modification_date":"2015-06-22"},{"geonameid":"3976175","name":"Ojo de Agua de Palmillas","asciiname":"Ojo de Agua de Palmillas","alternatenames":"","latitude":"22.61972","longitude":"-105.60389","feature_class":"P","feature_code":"PPL","country_code":"MX","cc2":"","admin1_code":"25","admin2_code":"009","admin3_code":"","admin4_code":"","population":"2833","elevation":"","dem":"11","timezone":"America/Mazatlan","modification_date":"2013-07-31"},{"geonameid":"3976187","name":"Cristo Rey","asciiname":"Cristo Rey","alternatenames":"","latitude":"22.58167","longitude":"-105.72444","feature_class":"P","feature_code":"PPL","country_code":"MX","cc2":"","admin1_code":"25","admin2_code":"009","admin3_code":"","admin4_code":"","population":"1934","elevation":"","dem":"6","timezone":"America/Mazatlan","modification_date":"2013-07-31"},{"geonameid":"3976229","name":"Tecualilla","asciiname":"Tecualilla","alternatenames":"","latitude":"22.76667","longitude":"-105.67167","feature_class":"P","feature_code":"PPL","country_code":"MX","cc2":"","admin1_code":"25","admin2_code":"009","admin3_code":"","admin4_code":"","population":"1252","elevation":"","dem":"14","timezone":"America/Mazatlan","modification_date":"2013-07-31"},{"geonameid":"3976232","name":"Isla del Bosque","asciiname":"Isla del Bosque","alternatenames":"","latitude":"22.73306","longitude":"-105.84556","feature_class":"P","feature_code":"PPL","country_code":"MX","cc2":"","admin1_code":"25","admin2_code":"009","admin3_code":"","admin4_code":"","population":"5820","elevation":"","dem":"6","timezone":"America/Mazatlan","modification_date":"2013-07-31"},{"geonameid":"3976306","name":"El Huajote","asciiname":"El Huajote","alternatenames":"","latitude":"23.12889","longitude":"-106.05889","feature_class":"P","feature_code":"PPL","country_code":"MX","cc2":"","admin1_code":"25","admin2_code":"004","admin3_code":"","admin4_code":"","population":"1147","elevation":"","dem":"55","timezone":"America/Mazatlan","modification_date":"2013-08-01"},{"geonameid":"3976324","name":"Concordia","asciiname":"Concordia","alternatenames":"Concordia","latitude":"23.28694","longitude":"-106.06389","feature_class":"P","feature_code":"PPL","country_code":"MX","cc2":"","admin1_code":"25","admin2_code":"004","admin3_code":"","admin4_code":"","population":"8328","elevation":"","dem":"115","timezone":"America/Mazatlan","modification_date":"2013-07-31"},{"geonameid":"3976535","name":"Eldorado","asciiname":"Eldorado","alternatenames":"","latitude":"24.32444","longitude":"-107.36722","feature_class":"P","feature_code":"PPL","country_code":"MX","cc2":"","admin1_code":"25","admin2_code":"006","admin3_code":"","admin4_code":"","population":"13197","elevation":"","dem":"11","timezone":"America/Mazatlan","modification_date":"2013-08-01"},{"geonameid":"3976570","name":"Las Aguamitas","asciiname":"Las Aguamitas","alternatenames":"","latitude":"24.57556","longitude":"-107.80056","feature_class":"P","feature_code":"PPL","country_code":"MX","cc2":"","admin1_code":"25","admin2_code":"018","admin3_code":"","admin4_code":"","population":"1629","elevation":"","dem":"6","timezone":"America/Mazatlan","modification_date":"2013-08-01"},{"geonameid":"3976583","name":"Lo de Jesús (Campo Romero)","asciiname":"Lo de Jesus (Campo Romero)","alternatenames":"","latitude":"24.68","longitude":"-107.54556","feature_class":"P","feature_code":"PPL","country_code":"MX","cc2":"","admin1_code":"25","admin2_code":"018","admin3_code":"","admin4_code":"","population":"1108","elevation":"","dem":"17","timezone":"America/Mazatlan","modification_date":"2013-08-01"},{"geonameid":"3976594","name":"El Limón de los Ramos","asciiname":"El Limon de los Ramos","alternatenames":"","latitude":"24.91361","longitude":"-107.52333","feature_class":"P","feature_code":"PPL","country_code":"MX","cc2":"","admin1_code":"25","admin2_code":"006","admin3_code":"","admin4_code":"","population":"3191","elevation":"","dem":"63","timezone":"America/Mazatlan","modification_date":"2013-08-01"},{"geonameid":"3976595","name":"Dautillos","asciiname":"Dautillos","alternatenames":"Dautillos","latitude":"24.72167","longitude":"-107.97528","feature_class":"P","feature_code":"PPL","country_code":"MX","cc2":"","admin1_code":"25","admin2_code":"018","admin3_code":"","admin4_code":"","population":"2109","elevation":"","dem":"4","timezone":"America/Mazatlan","modification_date":"2013-07-31"},{"geonameid":"3976775","name":"Leyva Solano","asciiname":"Leyva Solano","alternatenames":"Gabriel Leyva Solano,Leyva Solano","latitude":"25.66163","longitude":"-108.637","feature_class":"P","feature_code":"PPL","country_code":"MX","cc2":"","admin1_code":"25","admin2_code":"011","admin3_code":"","admin4_code":"","population":"27536","elevation":"","dem":"24","timezone":"America/Mazatlan","modification_date":"2015-06-22"},{"geonameid":"3976792","name":"El Huitusi","asciiname":"El Huitusi","alternatenames":"","latitude":"25.50974","longitude":"-108.77875","feature_class":"P","feature_code":"PPL","country_code":"MX","cc2":"","admin1_code":"25","admin2_code":"011","admin3_code":"","admin4_code":"","population":"2286","elevation":"","dem":"7","timezone":"America/Mazatlan","modification_date":"2013-08-01"},{"geonameid":"3976893","name":"Benito Juárez (Vinatería)","asciiname":"Benito Juarez (Vinateria)","alternatenames":"","latitude":"25.97376","longitude":"-108.87315","feature_class":"P","feature_code":"PPL","country_code":"MX","cc2":"","admin1_code":"25","admin2_code":"010","admin3_code":"","admin4_code":"","population":"2093","elevation":"","dem":"30","timezone":"America/Mazatlan","modification_date":"2013-08-01"},{"geonameid":"3976907","name":"El Refugio","asciiname":"El Refugio","alternatenames":"El Refugio","latitude":"25.99619","longitude":"-109.2999","feature_class":"P","feature_code":"PPL","country_code":"MX","cc2":"","admin1_code":"25","admin2_code":"001","admin3_code":"","admin4_code":"","population":"1064","elevation":"","dem":"11","timezone":"America/Mazatlan","modification_date":"2014-06-04"},{"geonameid":"3976999","name":"Cihuatlán","asciiname":"Cihuatlan","alternatenames":"","latitude":"19.2366","longitude":"-104.56512","feature_class":"P","feature_code":"PPL","country_code":"MX","cc2":"","admin1_code":"14","admin2_code":"022","admin3_code":"","admin4_code":"","population":"16520","elevation":"","dem":"29","timezone":"America/Mexico_City","modification_date":"2015-06-22"},{"geonameid":"3977509","name":"Jaboncillo","asciiname":"Jaboncillo","alternatenames":"Jaboncillo","latitude":"25.74809","longitude":"-103.2655","feature_class":"P","feature_code":"PPL","country_code":"MX","cc2":"","admin1_code":"07","admin2_code":"009","admin3_code":"","admin4_code":"","population":"1152","elevation":"","dem":"1114","timezone":"America/Monterrey","modification_date":"2014-04-29"},{"geonameid":"3977811","name":"Minas de Barroterán","asciiname":"Minas de Barroteran","alternatenames":"Congregacion Minera,Congregación Minera,Minas de Barroteran,Minas de Barroterán","latitude":"27.65144","longitude":"-101.28212","feature_class":"P","feature_code":"PPL","country_code":"MX","cc2":"","admin1_code":"07","admin2_code":"020","admin3_code":"","admin4_code":"","population":"8482","elevation":"","dem":"427","timezone":"America/Monterrey","modification_date":"2015-06-22"},{"geonameid":"3978737","name":"Seis de Octubre","asciiname":"Seis de Octubre","alternatenames":"Seis de Octubre","latitude":"25.81361","longitude":"-103.57333","feature_class":"P","feature_code":"PPL","country_code":"MX","cc2":"","admin1_code":"10","admin2_code":"007","admin3_code":"","admin4_code":"","population":"1528","elevation":"","dem":"1109","timezone":"America/Monterrey","modification_date":"2014-04-29"},{"geonameid":"3979216","name":"Camalú","asciiname":"Camalu","alternatenames":"Camalu,Camalú","latitude":"30.84222","longitude":"-116.06328","feature_class":"P","feature_code":"PPL","country_code":"MX","cc2":"","admin1_code":"02","admin2_code":"001","admin3_code":"","admin4_code":"","population":"7425","elevation":"","dem":"32","timezone":"America/Santa_Isabel","modification_date":"2015-06-22"},{"geonameid":"3979430","name":"Primo Tapia","asciiname":"Primo Tapia","alternatenames":"","latitude":"32.22226","longitude":"-116.9139","feature_class":"P","feature_code":"PPL","country_code":"MX","cc2":"","admin1_code":"02","admin2_code":"005","admin3_code":"","admin4_code":"","population":"5039","elevation":"","dem":"62","timezone":"America/Tijuana","modification_date":"2015-06-22"},{"geonameid":"3979439","name":"Progreso","asciiname":"Progreso","alternatenames":"","latitude":"32.58039","longitude":"-115.58479","feature_class":"P","feature_code":"PPL","country_code":"MX","cc2":"","admin1_code":"02","admin2_code":"002","admin3_code":"","admin4_code":"","population":"5231","elevation":"","dem":"2","timezone":"America/Tijuana","modification_date":"2015-06-22"},{"geonameid":"3979494","name":"Estación Coahuila","asciiname":"Estacion Coahuila","alternatenames":"","latitude":"32.19304","longitude":"-114.99933","feature_class":"P","feature_code":"PPL","country_code":"MX","cc2":"","admin1_code":"02","admin2_code":"002","admin3_code":"","admin4_code":"","population":"7596","elevation":"","dem":"12","timezone":"America/Tijuana","modification_date":"2015-06-22"},{"geonameid":"3979497","name":"Doctor Alberto Oviedo Mota","asciiname":"Doctor Alberto Oviedo Mota","alternatenames":"Alberto Oviedo Mota,Doctor Alberto Oviedo Mota,Ejido Doctor Alberto Oviedo Mota","latitude":"32.22756","longitude":"-115.16792","feature_class":"P","feature_code":"PPL","country_code":"MX","cc2":"","admin1_code":"02","admin2_code":"002","admin3_code":"","admin4_code":"","population":"8064","elevation":"","dem":"9","timezone":"America/Tijuana","modification_date":"2015-06-22"},{"geonameid":"3979505","name":"Guadalupe Victoria","asciiname":"Guadalupe Victoria","alternatenames":"Guadalupe Victoria","latitude":"32.28924","longitude":"-115.10534","feature_class":"P","feature_code":"PPL","country_code":"MX","cc2":"","admin1_code":"02","admin2_code":"002","admin3_code":"","admin4_code":"","population":"18244","elevation":"","dem":"13","timezone":"America/Tijuana","modification_date":"2015-06-22"},{"geonameid":"3979510","name":"Delta","asciiname":"Delta","alternatenames":"","latitude":"32.35497","longitude":"-115.19617","feature_class":"P","feature_code":"PPL","country_code":"MX","cc2":"","admin1_code":"02","admin2_code":"002","admin3_code":"","admin4_code":"","population":"5698","elevation":"","dem":"11","timezone":"America/Tijuana","modification_date":"2015-06-22"},{"geonameid":"3979569","name":"Islas Agrarias Grupo A","asciiname":"Islas Agrarias Grupo A","alternatenames":"Islas Agrarias,Islas Agrarias Grupo A","latitude":"32.61096","longitude":"-115.33151","feature_class":"P","feature_code":"PPL","country_code":"MX","cc2":"","admin1_code":"02","admin2_code":"002","admin3_code":"","admin4_code":"","population":"1979","elevation":"","dem":"10","timezone":"America/Tijuana","modification_date":"2013-07-31"},{"geonameid":"3979647","name":"Zirándaro","asciiname":"Zirandaro","alternatenames":"Zirandara,Zirandaro,Zirándaro","latitude":"18.47763","longitude":"-100.97857","feature_class":"P","feature_code":"PPL","country_code":"MX","cc2":"","admin1_code":"12","admin2_code":"073","admin3_code":"","admin4_code":"","population":"3663","elevation":"","dem":"212","timezone":"America/Mexico_City","modification_date":"2015-06-22"},{"geonameid":"3979665","name":"Zinapécuaro","asciiname":"Zinapecuaro","alternatenames":"Zinapecuaro,Zinapecuaro de Figueroa,Zinapécuaro,Zinapécuaro de Figueroa","latitude":"19.86006","longitude":"-100.82857","feature_class":"P","feature_code":"PPLA2","country_code":"MX","cc2":"","admin1_code":"16","admin2_code":"110","admin3_code":"","admin4_code":"","population":"14931","elevation":"","dem":"1886","timezone":"America/Mexico_City","modification_date":"2016-01-07"},{"geonameid":"3979673","name":"Ixtapa-Zihuatanejo","asciiname":"Ixtapa-Zihuatanejo","alternatenames":"Ixtapa Zihuatanejo,Ixtapa-Zihuatanejo,Jose Azueta,José Azueta,Siuatanekho,ZIH,Zihuatanejo,khwzh azwta  gwyrrw,xi wa ta nei huo,Сиуатанехо,خوزه ازوتا، گوئررو,锡瓦塔内霍","latitude":"17.64344","longitude":"-101.55212","feature_class":"P","feature_code":"PPL","country_code":"MX","cc2":"","admin1_code":"12","admin2_code":"038","admin3_code":"","admin4_code":"","population":"61308","elevation":"","dem":"13","timezone":"America/Mexico_City","modification_date":"2013-12-07"},{"geonameid":"3979706","name":"Zaragoza","asciiname":"Zaragoza","alternatenames":"Zaragoza","latitude":"28.4932","longitude":"-100.9223","feature_class":"P","feature_code":"PPLA2","country_code":"MX","cc2":"","admin1_code":"07","admin2_code":"038","admin3_code":"","admin4_code":"","population":"10577","elevation":"","dem":"362","timezone":"America/Monterrey","modification_date":"2015-06-22"},{"geonameid":"3979714","name":"Zaragoza","asciiname":"Zaragoza","alternatenames":"","latitude":"22.03542","longitude":"-100.731","feature_class":"P","feature_code":"PPL","country_code":"MX","cc2":"","admin1_code":"24","admin2_code":"055","admin3_code":"","admin4_code":"","population":"8296","elevation":"","dem":"1973","timezone":"America/Mexico_City","modification_date":"2015-06-22"},{"geonameid":"3979717","name":"Zapotlanejo","asciiname":"Zapotlanejo","alternatenames":"Zapotlanejo","latitude":"20.62248","longitude":"-103.06766","feature_class":"P","feature_code":"PPL","country_code":"MX","cc2":"","admin1_code":"14","admin2_code":"124","admin3_code":"","admin4_code":"","population":"29055","elevation":"","dem":"1524","timezone":"America/Mexico_City","modification_date":"2015-06-22"},{"geonameid":"3979719","name":"Zapotlán del Rey","asciiname":"Zapotlan del Rey","alternatenames":"","latitude":"20.46639","longitude":"-102.92611","feature_class":"P","feature_code":"PPL","country_code":"MX","cc2":"","admin1_code":"14","admin2_code":"123","admin3_code":"","admin4_code":"","population":"3280","elevation":"","dem":"1553","timezone":"America/Mexico_City","modification_date":"2013-07-31"},{"geonameid":"3979727","name":"Zapotiltic","asciiname":"Zapotiltic","alternatenames":"","latitude":"19.62749","longitude":"-103.41752","feature_class":"P","feature_code":"PPL","country_code":"MX","cc2":"","admin1_code":"14","admin2_code":"121","admin3_code":"","admin4_code":"","population":"22199","elevation":"","dem":"1318","timezone":"America/Mexico_City","modification_date":"2015-06-22"},{"geonameid":"3979755","name":"El Zapote","asciiname":"El Zapote","alternatenames":"El Zapote,Zapote","latitude":"21.11257","longitude":"-102.80555","feature_class":"P","feature_code":"PPL","country_code":"MX","cc2":"","admin1_code":"14","admin2_code":"117","admin3_code":"","admin4_code":"","population":"4401","elevation":"","dem":"1713","timezone":"America/Mexico_City","modification_date":"2015-06-22"},{"geonameid":"3979770","name":"Zapopan","asciiname":"Zapopan","alternatenames":"Gorad Sapapan,Sapopan,Sapopanas,Tzapopan,Zapopan,sa bo pan,sabwban  khalyskw,sapopan,zapwpan  khalyskw,Σαπόπαν,Горад Сапапан,Запопан,Сапопан,زاپوپان، خالیسکو,سابوبان، خاليسكو,საპოპანი,サポパン,萨波潘","latitude":"20.72356","longitude":"-103.38479","feature_class":"P","feature_code":"PPLA2","country_code":"MX","cc2":"","admin1_code":"14","admin2_code":"120","admin3_code":"","admin4_code":"","population":"987516","elevation":"","dem":"1568","timezone":"America/Mexico_City","modification_date":"2013-08-11"},{"geonameid":"3979802","name":"Zamora","asciiname":"Zamora","alternatenames":"Samora-de-Idal'go,Zamora,Zamora de Hidalgo,Самора-де-Идальго","latitude":"19.9855","longitude":"-102.28387","feature_class":"P","feature_code":"PPL","country_code":"MX","cc2":"","admin1_code":"16","admin2_code":"108","admin3_code":"","admin4_code":"","population":"124916","elevation":"","dem":"1570","timezone":"America/Mexico_City","modification_date":"2015-06-22"},{"geonameid":"3979819","name":"Zacualpan","asciiname":"Zacualpan","alternatenames":"Zacoalpan,Zacoalpán,Zacualpa,Zacualpam,Zacualpan","latitude":"21.24715","longitude":"-105.1657","feature_class":"P","feature_code":"PPL","country_code":"MX","cc2":"","admin1_code":"18","admin2_code":"004","admin3_code":"","admin4_code":"","population":"5236","elevation":"","dem":"29","timezone":"America/Mazatlan","modification_date":"2015-06-22"},{"geonameid":"3979821","name":"Zacualpan","asciiname":"Zacualpan","alternatenames":"Zacualpa,Zacualpan","latitude":"17.08895","longitude":"-100.3259","feature_class":"P","feature_code":"PPL","country_code":"MX","cc2":"","admin1_code":"12","admin2_code":"011","admin3_code":"","admin4_code":"","population":"2488","elevation":"","dem":"19","timezone":"America/Mexico_City","modification_date":"2014-09-05"},{"geonameid":"3979822","name":"Zacoalco de Torres","asciiname":"Zacoalco de Torres","alternatenames":"Zacoalco,Zacoalco de Torre,Zacoalco de Torres","latitude":"20.22816","longitude":"-103.5687","feature_class":"P","feature_code":"PPL","country_code":"MX","cc2":"","admin1_code":"14","admin2_code":"119","admin3_code":"","admin4_code":"","population":"16468","elevation":"","dem":"1361","timezone":"America/Mexico_City","modification_date":"2015-06-22"},{"geonameid":"3979844","name":"Zacatecas","asciiname":"Zacatecas","alternatenames":"Altepetl Zacatecah,Sakatekas,ZCL,Zacatecas,Zacatecas City,sa ka te ka si,sakatekaseu,sakatekasu,sqtqs,zakatkas .zakatkas,Сакатекас,Սակատեկաս,סקטקס,زاکاتکاس ٬زاکاتکاس,زاکاٹیکاس,საკატეკასი,サカテカス,萨卡特卡斯,사카테카스","latitude":"22.76843","longitude":"-102.58141","feature_class":"P","feature_code":"PPLA","country_code":"MX","cc2":"","admin1_code":"32","admin2_code":"056","admin3_code":"","admin4_code":"","population":"118562","elevation":"","dem":"2480","timezone":"America/Mexico_City","modification_date":"2015-06-22"},{"geonameid":"3979846","name":"Zacapú","asciiname":"Zacapu","alternatenames":"Sakapu,Zacapu,Zacapu de Mier,Zacapú,Zacapú de Mier,Сакапу","latitude":"19.81396","longitude":"-101.79157","feature_class":"P","feature_code":"PPLA2","country_code":"MX","cc2":"","admin1_code":"16","admin2_code":"107","admin3_code":"","admin4_code":"","population":"50112","elevation":"","dem":"1993","timezone":"America/Mexico_City","modification_date":"2016-01-07"},{"geonameid":"3979855","name":"Yuriria","asciiname":"Yuriria","alternatenames":"Villa Yuriria,Yuriria","latitude":"20.21081","longitude":"-101.13212","feature_class":"P","feature_code":"PPL","country_code":"MX","cc2":"","admin1_code":"11","admin2_code":"046","admin3_code":"","admin4_code":"","population":"21775","elevation":"","dem":"1745","timezone":"America/Mexico_City","modification_date":"2015-06-22"},{"geonameid":"3979856","name":"Yurécuaro","asciiname":"Yurecuaro","alternatenames":"Yurecuaro,Yurécuaro","latitude":"20.33738","longitude":"-102.28342","feature_class":"P","feature_code":"PPL","country_code":"MX","cc2":"","admin1_code":"16","admin2_code":"106","admin3_code":"","admin4_code":"","population":"23843","elevation":"","dem":"1545","timezone":"America/Mexico_City","modification_date":"2014-04-06"},{"geonameid":"3979923","name":"Yerbabuena","asciiname":"Yerbabuena","alternatenames":"","latitude":"20.97081","longitude":"-101.27321","feature_class":"P","feature_code":"PPL","country_code":"MX","cc2":"","admin1_code":"11","admin2_code":"015","admin3_code":"","admin4_code":"","population":"4378","elevation":"","dem":"1951","timezone":"America/Mexico_City","modification_date":"2015-06-22"},{"geonameid":"3979962","name":"Yavaros","asciiname":"Yavaros","alternatenames":"Isla las Viejas,Yabaros,Yavaros","latitude":"26.70483","longitude":"-109.52103","feature_class":"P","feature_code":"PPL","country_code":"MX","cc2":"","admin1_code":"26","admin2_code":"033","admin3_code":"","admin4_code":"","population":"4058","elevation":"","dem":"5","timezone":"America/Hermosillo","modification_date":"2015-06-22"},{"geonameid":"3979982","name":"Yahualica de González Gallo","asciiname":"Yahualica de Gonzalez Gallo","alternatenames":"Yahualica,Yahualica de Gonzalez Gallo,Yahualica de González Gallo","latitude":"21.17978","longitude":"-102.88611","feature_class":"P","feature_code":"PPL","country_code":"MX","cc2":"","admin1_code":"14","admin2_code":"118","admin3_code":"","admin4_code":"","population":"14971","elevation":"","dem":"1792","timezone":"America/Mexico_City","modification_date":"2015-06-22"},{"geonameid":"3979983","name":"Yago","asciiname":"Yago","alternatenames":"","latitude":"21.83601","longitude":"-105.06451","feature_class":"P","feature_code":"PPL","country_code":"MX","cc2":"","admin1_code":"18","admin2_code":"015","admin3_code":"","admin4_code":"","population":"4063","elevation":"","dem":"32","timezone":"America/Mazatlan","modification_date":"2015-06-22"},{"geonameid":"3980037","name":"Vistahermosa de Negrete","asciiname":"Vistahermosa de Negrete","alternatenames":"Vista Hermosa,Vistahermosa de Negrete","latitude":"20.27286","longitude":"-102.475","feature_class":"P","feature_code":"PPL","country_code":"MX","cc2":"","admin1_code":"16","admin2_code":"105","admin3_code":"","admin4_code":"","population":"9581","elevation":"","dem":"1539","timezone":"America/Mexico_City","modification_date":"2015-06-22"},{"geonameid":"3980122","name":"Villa Unión","asciiname":"Villa Union","alternatenames":"Ejido Villa Union,La Union,La Unión,Rosales,Villa Union,Villa Unión","latitude":"28.22228","longitude":"-100.72624","feature_class":"P","feature_code":"PPLA2","country_code":"MX","cc2":"","admin1_code":"07","admin2_code":"037","admin3_code":"","admin4_code":"","population":"0","elevation":"","dem":"385","timezone":"America/Monterrey","modification_date":"2015-06-22"},{"geonameid":"3980123","name":"Villa Union","asciiname":"Villa Union","alternatenames":"","latitude":"28.21667","longitude":"-100.71667","feature_class":"P","feature_code":"PPL","country_code":"MX","cc2":"","admin1_code":"07","admin2_code":"037","admin3_code":"","admin4_code":"","population":"5147","elevation":"","dem":"381","timezone":"America/Monterrey","modification_date":"2015-06-22"},{"geonameid":"3980124","name":"Villa Unión","asciiname":"Villa Union","alternatenames":"Villa Union,Villa Unión","latitude":"23.9746","longitude":"-104.04705","feature_class":"P","feature_code":"PPLA2","country_code":"MX","cc2":"","admin1_code":"10","admin2_code":"022","admin3_code":"","admin4_code":"","population":"0","elevation":"","dem":"1906","timezone":"America/Monterrey","modification_date":"2015-06-22"},{"geonameid":"3980125","name":"Villa Unión","asciiname":"Villa Union","alternatenames":"Villa Union,Villa Unión","latitude":"23.18992","longitude":"-106.21947","feature_class":"P","feature_code":"PPL","country_code":"MX","cc2":"","admin1_code":"25","admin2_code":"012","admin3_code":"","admin4_code":"","population":"13683","elevation":"","dem":"21","timezone":"America/Mazatlan","modification_date":"2015-08-08"},{"geonameid":"3980135","name":"Villa Ocampo","asciiname":"Villa Ocampo","alternatenames":"Villa Ocampo","latitude":"26.44085","longitude":"-105.5064","feature_class":"P","feature_code":"PPL","country_code":"MX","cc2":"","admin1_code":"10","admin2_code":"017","admin3_code":"","admin4_code":"","population":"1280","elevation":"","dem":"1730","timezone":"America/Monterrey","modification_date":"2015-06-22"},{"geonameid":"3980140","name":"Villanueva","asciiname":"Villanueva","alternatenames":"Villanueva","latitude":"22.35653","longitude":"-102.88361","feature_class":"P","feature_code":"PPL","country_code":"MX","cc2":"","admin1_code":"32","admin2_code":"055","admin3_code":"","admin4_code":"","population":"11138","elevation":"","dem":"1900","timezone":"America/Mexico_City","modification_date":"2015-06-22"},{"geonameid":"3980149","name":"Villamar","asciiname":"Villamar","alternatenames":"Guarachita,Villamar","latitude":"20.02021","longitude":"-102.59738","feature_class":"P","feature_code":"PPL","country_code":"MX","cc2":"","admin1_code":"16","admin2_code":"104","admin3_code":"","admin4_code":"","population":"3028","elevation":"","dem":"1534","timezone":"America/Mexico_City","modification_date":"2015-06-22"},{"geonameid":"3980152","name":"Villa Madero","asciiname":"Villa Madero","alternatenames":"Villa Madero","latitude":"19.3915","longitude":"-101.27883","feature_class":"P","feature_code":"PPL","country_code":"MX","cc2":"","admin1_code":"16","admin2_code":"049","admin3_code":"","admin4_code":"","population":"5588","elevation":"","dem":"2188","timezone":"America/Mexico_City","modification_date":"2015-06-22"},{"geonameid":"3980161","name":"Villa Juarez","asciiname":"Villa Juarez","alternatenames":"Irrigacion,Irrigación,Villa Juarez,Villa Juárez","latitude":"27.12851","longitude":"-109.83921","feature_class":"P","feature_code":"PPL","country_code":"MX","cc2":"","admin1_code":"26","admin2_code":"071","admin3_code":"","admin4_code":"","population":"14680","elevation":"","dem":"18","timezone":"America/Hermosillo","modification_date":"2015-06-22"},{"geonameid":"3980163","name":"Villa Juárez","asciiname":"Villa Juarez","alternatenames":"La Trozada,Villa Juarez,Villa Juárez","latitude":"21.68917","longitude":"-105.38972","feature_class":"P","feature_code":"PPL","country_code":"MX","cc2":"","admin1_code":"18","admin2_code":"015","admin3_code":"","admin4_code":"","population":"3000","elevation":"","dem":"8","timezone":"America/Mazatlan","modification_date":"2013-07-31"},{"geonameid":"3980167","name":"Villa Hidalgo","asciiname":"Villa Hidalgo","alternatenames":"Santa Rita,Villa Hidalgo","latitude":"22.35682","longitude":"-101.71259","feature_class":"P","feature_code":"PPL","country_code":"MX","cc2":"","admin1_code":"32","admin2_code":"054","admin3_code":"","admin4_code":"","population":"3856","elevation":"","dem":"2165","timezone":"America/Mexico_City","modification_date":"2015-06-22"},{"geonameid":"3980168","name":"Villa Hidalgo","asciiname":"Villa Hidalgo","alternatenames":"Villa Hidalgo","latitude":"21.74185","longitude":"-105.23096","feature_class":"P","feature_code":"PPL","country_code":"MX","cc2":"","admin1_code":"18","admin2_code":"015","admin3_code":"","admin4_code":"","population":"11076","elevation":"","dem":"13","timezone":"America/Mazatlan","modification_date":"2015-06-22"},{"geonameid":"3980169","name":"Villa Hidalgo","asciiname":"Villa Hidalgo","alternatenames":"Paso de Sotos,Raso de Sotos,Villa Hidalgo","latitude":"21.67919","longitude":"-102.58853","feature_class":"P","feature_code":"PPL","country_code":"MX","cc2":"","admin1_code":"14","admin2_code":"116","admin3_code":"","admin4_code":"","population":"12157","elevation":"","dem":"1953","timezone":"America/Mexico_City","modification_date":"2015-06-22"},{"geonameid":"3980172","name":"Villa Guerrero","asciiname":"Villa Guerrero","alternatenames":"Villa Guerrero","latitude":"21.98341","longitude":"-103.59506","feature_class":"P","feature_code":"PPLA2","country_code":"MX","cc2":"","admin1_code":"14","admin2_code":"115","admin3_code":"","admin4_code":"","population":"3892","elevation":"","dem":"1774","timezone":"America/Mexico_City","modification_date":"2015-06-22"},{"geonameid":"3980174","name":"Villagrán","asciiname":"Villagran","alternatenames":"El Guaje,Vil'jagran,Villagran,Villagrán,Вильягран","latitude":"20.51452","longitude":"-100.99745","feature_class":"P","feature_code":"PPL","country_code":"MX","cc2":"","admin1_code":"11","admin2_code":"044","admin3_code":"","admin4_code":"","population":"24155","elevation":"","dem":"1734","timezone":"America/Mexico_City","modification_date":"2015-06-22"},{"geonameid":"3980175","name":"Villa González Ortega","asciiname":"Villa Gonzalez Ortega","alternatenames":"Carro,El Carro,Villa Gonzalez Ortega,Villa González Ortega","latitude":"22.51222","longitude":"-101.91616","feature_class":"P","feature_code":"PPL","country_code":"MX","cc2":"","admin1_code":"32","admin2_code":"053","admin3_code":"","admin4_code":"","population":"5287","elevation":"","dem":"2140","timezone":"America/Mexico_City","modification_date":"2015-06-22"},{"geonameid":"3980177","name":"Villa García","asciiname":"Villa Garcia","alternatenames":"Villa Garcia,Villa García","latitude":"22.16246","longitude":"-101.9553","feature_class":"P","feature_code":"PPL","country_code":"MX","cc2":"","admin1_code":"32","admin2_code":"052","admin3_code":"","admin4_code":"","population":"5489","elevation":"","dem":"2101","timezone":"America/Mexico_City","modification_date":"2015-06-22"},{"geonameid":"3980180","name":"Ciudad Frontera","asciiname":"Ciudad Frontera","alternatenames":"Ciudad Frontera,Frontera,Villa Frontera,Villa-Frontera,Вилла-Фронтера","latitude":"26.92814","longitude":"-101.45212","feature_class":"P","feature_code":"PPL","country_code":"MX","cc2":"","admin1_code":"07","admin2_code":"010","admin3_code":"","admin4_code":"","population":"64976","elevation":"","dem":"592","timezone":"America/Monterrey","modification_date":"2015-06-22"},{"geonameid":"3980184","name":"Santa Clara del Cobre","asciiname":"Santa Clara del Cobre","alternatenames":"Santa Clara de Portugal,Santa Clara del Cobre,Villa Escalante","latitude":"19.4058","longitude":"-101.63998","feature_class":"P","feature_code":"PPLA2","country_code":"MX","cc2":"","admin1_code":"16","admin2_code":"079","admin3_code":"","admin4_code":"","population":"12275","elevation":"","dem":"2232","timezone":"America/Mexico_City","modification_date":"2016-01-07"},{"geonameid":"3980186","name":"Villa de Reyes","asciiname":"Villa de Reyes","alternatenames":"Reyes,Villa Reyes,Villa de Reyes","latitude":"21.80309","longitude":"-100.93418","feature_class":"P","feature_code":"PPLA2","country_code":"MX","cc2":"","admin1_code":"24","admin2_code":"050","admin3_code":"","admin4_code":"","population":"8787","elevation":"1820","dem":"1815","timezone":"America/Mexico_City","modification_date":"2015-06-22"},{"geonameid":"3980190","name":"García","asciiname":"Garcia","alternatenames":"Garcia,Vil'ja-de-Garsia,Villa de Garcia,Villa de García,Вилья-де-Гарсиа","latitude":"25.81147","longitude":"-100.5941","feature_class":"P","feature_code":"PPL","country_code":"MX","cc2":"","admin1_code":"19","admin2_code":"018","admin3_code":"","admin4_code":"","population":"26950","elevation":"","dem":"716","timezone":"America/Monterrey","modification_date":"2015-06-22"},{"geonameid":"3980192","name":"Villa de Cos","asciiname":"Villa de Cos","alternatenames":"Villa de Cos","latitude":"23.29329","longitude":"-102.3502","feature_class":"P","feature_code":"PPL","country_code":"MX","cc2":"","admin1_code":"32","admin2_code":"051","admin3_code":"","admin4_code":"","population":"4297","elevation":"","dem":"1982","timezone":"America/Mexico_City","modification_date":"2015-06-22"},{"geonameid":"3980194","name":"Ciudad de Villa de Álvarez","asciiname":"Ciudad de Villa de Alvarez","alternatenames":"Vil'ja-de-Al'vares,Villa de Alvarez,Вилья-де-Альварес","latitude":"19.26722","longitude":"-103.73778","feature_class":"P","feature_code":"PPL","country_code":"MX","cc2":"","admin1_code":"08","admin2_code":"010","admin3_code":"","admin4_code":"","population":"117600","elevation":"","dem":"531","timezone":"America/Mexico_City","modification_date":"2013-08-01"},{"geonameid":"3980198","name":"Villa Corona","asciiname":"Villa Corona","alternatenames":"Tizapanito,Villa Corona","latitude":"20.41564","longitude":"-103.66416","feature_class":"P","feature_code":"PPL","country_code":"MX","cc2":"","admin1_code":"14","admin2_code":"114","admin3_code":"","admin4_code":"","population":"6803","elevation":"","dem":"1359","timezone":"America/Mexico_City","modification_date":"2015-06-22"},{"geonameid":"3980201","name":"Villachuato","asciiname":"Villachuato","alternatenames":"Villachuato","latitude":"20.14848","longitude":"-101.6346","feature_class":"P","feature_code":"PPL","country_code":"MX","cc2":"","admin1_code":"15","admin2_code":"071","admin3_code":"","admin4_code":"","population":"3986","elevation":"","dem":"1695","timezone":"America/Mexico_City","modification_date":"2014-09-05"},{"geonameid":"3980206","name":"San José Villa de Allende","asciiname":"San Jose Villa de Allende","alternatenames":"Malacatepec Allende,San Jose,San Jose Allende,San Jose Villa de Allende,San José,San José Allende,San José Villa de Allende,Villa Allende,Villa de Allende","latitude":"19.37521","longitude":"-100.1485","feature_class":"P","feature_code":"PPLA2","country_code":"MX","cc2":"","admin1_code":"15","admin2_code":"111","admin3_code":"","admin4_code":"","population":"0","elevation":"","dem":"2384","timezone":"America/Mexico_City","modification_date":"2015-06-22"},{"geonameid":"3980207","name":"Miguel Ahumada","asciiname":"Miguel Ahumada","alternatenames":"Ahumada,Gonzalez,Villa Ahumada","latitude":"30.61861","longitude":"-106.51222","feature_class":"P","feature_code":"PPL","country_code":"MX","cc2":"","admin1_code":"06","admin2_code":"001","admin3_code":"","admin4_code":"","population":"8575","elevation":"","dem":"1197","timezone":"America/Chihuahua","modification_date":"2013-08-01"},{"geonameid":"3980212","name":"El Vegil","asciiname":"El Vegil","alternatenames":"Vegil","latitude":"20.43111","longitude":"-100.35024","feature_class":"P","feature_code":"PPL","country_code":"MX","cc2":"MX","admin1_code":"22","admin2_code":"008","admin3_code":"","admin4_code":"","population":"2521","elevation":"","dem":"2052","timezone":"America/Mexico_City","modification_date":"2013-08-01"},{"geonameid":"3980230","name":"Viesca","asciiname":"Viesca","alternatenames":"Viesca","latitude":"25.33923","longitude":"-102.80493","feature_class":"P","feature_code":"PPLA2","country_code":"MX","cc2":"","admin1_code":"07","admin2_code":"036","admin3_code":"","admin4_code":"","population":"3673","elevation":"","dem":"1098","timezone":"America/Monterrey","modification_date":"2015-06-22"},{"geonameid":"3980339","name":"El Vergel","asciiname":"El Vergel","alternatenames":"El Vergel,Vergel","latitude":"25.63965","longitude":"-103.52139","feature_class":"P","feature_code":"PPL","country_code":"MX","cc2":"","admin1_code":"10","admin2_code":"007","admin3_code":"","admin4_code":"","population":"2257","elevation":"","dem":"1125","timezone":"America/Monterrey","modification_date":"2014-04-30"},{"geonameid":"3980387","name":"Ejido Venustiano Carranza","asciiname":"Ejido Venustiano Carranza","alternatenames":"Ejido Venustiano Carranza,Hacienda de Hornos,Venustiano Carranza","latitude":"25.35091","longitude":"-102.95698","feature_class":"P","feature_code":"PPL","country_code":"MX","cc2":"","admin1_code":"07","admin2_code":"036","admin3_code":"","admin4_code":"","population":"4288","elevation":"","dem":"1101","timezone":"America/Monterrey","modification_date":"2015-06-22"},{"geonameid":"3980390","name":"Venustiano Carranza","asciiname":"Venustiano Carranza","alternatenames":"San Pedro Caro,Venustiano Carranza","latitude":"20.11584","longitude":"-102.6542","feature_class":"P","feature_code":"PPL","country_code":"MX","cc2":"","admin1_code":"16","admin2_code":"103","admin3_code":"","admin4_code":"","population":"11627","elevation":"","dem":"1531","timezone":"America/Mexico_City","modification_date":"2015-06-22"},{"geonameid":"3980517","name":"Veinte de Noviembre","asciiname":"Veinte de Noviembre","alternatenames":"Veinte de Noviembre","latitude":"25.71193","longitude":"-103.3296","feature_class":"P","feature_code":"PPL","country_code":"MX","cc2":"","admin1_code":"07","admin2_code":"017","admin3_code":"","admin4_code":"","population":"1420","elevation":"","dem":"1118","timezone":"America/Monterrey","modification_date":"2014-04-30"},{"geonameid":"3980580","name":"Valtierrilla","asciiname":"Valtierrilla","alternatenames":"Andres Delgado,Andrés Delgado,Pueblo Andres Delgado,Pueblo Andrés Delgado,Valtierrilla","latitude":"20.53244","longitude":"-101.12761","feature_class":"P","feature_code":"PPL","country_code":"MX","cc2":"","admin1_code":"11","admin2_code":"027","admin3_code":"","admin4_code":"","population":"11970","elevation":"","dem":"1719","timezone":"America/Mexico_City","modification_date":"2015-06-22"},