{"nextFile":"cities.69.json","rows":[{"geonameid":"7375763","name":"Dompyong","asciiname":"Dompyong","alternatenames":"Dompyong","latitude":"-8.2165","longitude":"113.1426","feature_class":"P","feature_code":"PPLA4","country_code":"ID","cc2":"","admin1_code":"08","admin2_code":"","admin3_code":"","admin4_code":"","population":"0","elevation":"","dem":"117","timezone":"Asia/Jakarta","modification_date":"2012-01-21"},{"geonameid":"7375769","name":"Kebonsari","asciiname":"Kebonsari","alternatenames":"Kebonsari","latitude":"-8.21098","longitude":"113.1702","feature_class":"P","feature_code":"PPLA3","country_code":"ID","cc2":"","admin1_code":"08","admin2_code":"","admin3_code":"","admin4_code":"","population":"0","elevation":"","dem":"85","timezone":"Asia/Jakarta","modification_date":"2012-01-21"},{"geonameid":"7375772","name":"Krajan Tengah","asciiname":"Krajan Tengah","alternatenames":"Krajan Tengah","latitude":"-8.2142","longitude":"113.1954","feature_class":"P","feature_code":"PPLA4","country_code":"ID","cc2":"","admin1_code":"08","admin2_code":"","admin3_code":"","admin4_code":"","population":"0","elevation":"","dem":"65","timezone":"Asia/Jakarta","modification_date":"2012-01-21"},{"geonameid":"7375776","name":"Kebonan","asciiname":"Kebonan","alternatenames":"Kebonan","latitude":"-8.2162","longitude":"113.2283","feature_class":"P","feature_code":"PPLA3","country_code":"ID","cc2":"","admin1_code":"08","admin2_code":"","admin3_code":"","admin4_code":"","population":"0","elevation":"","dem":"43","timezone":"Asia/Jakarta","modification_date":"2012-01-21"},{"geonameid":"7375782","name":"Mujur Satu","asciiname":"Mujur Satu","alternatenames":"Mujur Satu","latitude":"-8.21913","longitude":"113.16299","feature_class":"P","feature_code":"PPLA4","country_code":"ID","cc2":"","admin1_code":"08","admin2_code":"","admin3_code":"","admin4_code":"","population":"0","elevation":"","dem":"80","timezone":"Asia/Jakarta","modification_date":"2012-01-21"},{"geonameid":"7375791","name":"Mentosari","asciiname":"Mentosari","alternatenames":"Mentosari","latitude":"-8.2202","longitude":"113.2121","feature_class":"P","feature_code":"PPLA4","country_code":"ID","cc2":"","admin1_code":"08","admin2_code":"","admin3_code":"","admin4_code":"","population":"0","elevation":"","dem":"48","timezone":"Asia/Jakarta","modification_date":"2012-01-21"},{"geonameid":"7375795","name":"Ketangi","asciiname":"Ketangi","alternatenames":"Ketangi","latitude":"-8.2233","longitude":"113.2211","feature_class":"P","feature_code":"PPLA4","country_code":"ID","cc2":"","admin1_code":"08","admin2_code":"","admin3_code":"","admin4_code":"","population":"0","elevation":"","dem":"41","timezone":"Asia/Jakarta","modification_date":"2012-01-21"},{"geonameid":"7375797","name":"Sukolilo","asciiname":"Sukolilo","alternatenames":"Sukolilo","latitude":"-8.2236","longitude":"113.2362","feature_class":"P","feature_code":"PPLA4","country_code":"ID","cc2":"","admin1_code":"08","admin2_code":"","admin3_code":"","admin4_code":"","population":"0","elevation":"","dem":"31","timezone":"Asia/Jakarta","modification_date":"2012-01-21"},{"geonameid":"7375801","name":"Kebonan","asciiname":"Kebonan","alternatenames":"Kebonan","latitude":"-8.2261","longitude":"113.1323","feature_class":"P","feature_code":"PPLA4","country_code":"ID","cc2":"","admin1_code":"08","admin2_code":"","admin3_code":"","admin4_code":"","population":"0","elevation":"","dem":"122","timezone":"Asia/Jakarta","modification_date":"2012-01-21"},{"geonameid":"7375809","name":"Pandean","asciiname":"Pandean","alternatenames":"Pandean","latitude":"-8.2297","longitude":"113.2158","feature_class":"P","feature_code":"PPLA4","country_code":"ID","cc2":"","admin1_code":"08","admin2_code":"","admin3_code":"","admin4_code":"","population":"0","elevation":"","dem":"38","timezone":"Asia/Jakarta","modification_date":"2012-01-21"},{"geonameid":"7375817","name":"Cengkok","asciiname":"Cengkok","alternatenames":"Cengkok","latitude":"-8.2405","longitude":"113.1968","feature_class":"P","feature_code":"PPLA4","country_code":"ID","cc2":"","admin1_code":"08","admin2_code":"","admin3_code":"","admin4_code":"","population":"0","elevation":"","dem":"39","timezone":"Asia/Jakarta","modification_date":"2012-01-21"},{"geonameid":"7375824","name":"Krajan Dua","asciiname":"Krajan Dua","alternatenames":"Krajan Dua","latitude":"-8.244","longitude":"113.1445","feature_class":"P","feature_code":"PPLA4","country_code":"ID","cc2":"","admin1_code":"08","admin2_code":"","admin3_code":"","admin4_code":"","population":"0","elevation":"","dem":"74","timezone":"Asia/Jakarta","modification_date":"2012-01-21"},{"geonameid":"7375827","name":"Karangtengah","asciiname":"Karangtengah","alternatenames":"Karangtengah","latitude":"-8.2438","longitude":"113.1789","feature_class":"P","feature_code":"PPLA4","country_code":"ID","cc2":"","admin1_code":"08","admin2_code":"","admin3_code":"","admin4_code":"","population":"0","elevation":"","dem":"49","timezone":"Asia/Jakarta","modification_date":"2012-01-21"},{"geonameid":"7375890","name":"Kramat","asciiname":"Kramat","alternatenames":"Kramat","latitude":"-8.1311","longitude":"113.4499","feature_class":"P","feature_code":"PPLA4","country_code":"ID","cc2":"","admin1_code":"08","admin2_code":"","admin3_code":"","admin4_code":"","population":"0","elevation":"","dem":"105","timezone":"Asia/Jakarta","modification_date":"2012-01-21"},{"geonameid":"7375902","name":"Rowotengah","asciiname":"Rowotengah","alternatenames":"Rowotengah","latitude":"-8.1577","longitude":"113.3884","feature_class":"P","feature_code":"PPLA4","country_code":"ID","cc2":"","admin1_code":"08","admin2_code":"","admin3_code":"","admin4_code":"","population":"0","elevation":"","dem":"28","timezone":"Asia/Jakarta","modification_date":"2012-01-21"},{"geonameid":"7375907","name":"Klatakan","asciiname":"Klatakan","alternatenames":"Klatakan","latitude":"-8.1886","longitude":"113.4889","feature_class":"P","feature_code":"PPLA4","country_code":"ID","cc2":"","admin1_code":"08","admin2_code":"","admin3_code":"","admin4_code":"","population":"0","elevation":"","dem":"45","timezone":"Asia/Jakarta","modification_date":"2012-01-21"},{"geonameid":"7375910","name":"Tanggul Wetan","asciiname":"Tanggul Wetan","alternatenames":"Tanggul Wetan","latitude":"-8.1716","longitude":"113.4709","feature_class":"P","feature_code":"PPLA4","country_code":"ID","cc2":"","admin1_code":"08","admin2_code":"","admin3_code":"","admin4_code":"","population":"0","elevation":"","dem":"49","timezone":"Asia/Jakarta","modification_date":"2012-01-21"},{"geonameid":"7375916","name":"Darungan","asciiname":"Darungan","alternatenames":"Darungan","latitude":"-8.1576","longitude":"113.4903","feature_class":"P","feature_code":"PPLA4","country_code":"ID","cc2":"","admin1_code":"08","admin2_code":"","admin3_code":"","admin4_code":"","population":"0","elevation":"","dem":"118","timezone":"Asia/Jakarta","modification_date":"2012-01-21"},{"geonameid":"7375920","name":"Tanggul Kulon","asciiname":"Tanggul Kulon","alternatenames":"Tanggul Kulon","latitude":"-8.1647","longitude":"113.4484","feature_class":"P","feature_code":"PPLA4","country_code":"ID","cc2":"","admin1_code":"08","admin2_code":"","admin3_code":"","admin4_code":"","population":"0","elevation":"","dem":"35","timezone":"Asia/Jakarta","modification_date":"2012-01-21"},{"geonameid":"7375923","name":"Rowotengu","asciiname":"Rowotengu","alternatenames":"Rowotengu","latitude":"-8.1695","longitude":"113.4259","feature_class":"P","feature_code":"PPLA4","country_code":"ID","cc2":"","admin1_code":"08","admin2_code":"","admin3_code":"","admin4_code":"","population":"0","elevation":"","dem":"31","timezone":"Asia/Jakarta","modification_date":"2012-01-21"},{"geonameid":"7375944","name":"Sukoreno","asciiname":"Sukoreno","alternatenames":"Sukoreno","latitude":"-8.2477","longitude":"113.4003","feature_class":"P","feature_code":"PPLA4","country_code":"ID","cc2":"","admin1_code":"08","admin2_code":"","admin3_code":"","admin4_code":"","population":"0","elevation":"","dem":"23","timezone":"Asia/Jakarta","modification_date":"2012-01-21"},{"geonameid":"7375952","name":"Ngampelrejo","asciiname":"Ngampelrejo","alternatenames":"Ngampelrejo","latitude":"-8.2193","longitude":"113.3766","feature_class":"P","feature_code":"PPLA4","country_code":"ID","cc2":"","admin1_code":"08","admin2_code":"","admin3_code":"","admin4_code":"","population":"0","elevation":"","dem":"19","timezone":"Asia/Jakarta","modification_date":"2012-01-21"},{"geonameid":"7375953","name":"Wringinagung","asciiname":"Wringinagung","alternatenames":"Wringinagung","latitude":"-8.2076","longitude":"113.3915","feature_class":"P","feature_code":"PPLA4","country_code":"ID","cc2":"","admin1_code":"08","admin2_code":"","admin3_code":"","admin4_code":"","population":"0","elevation":"","dem":"22","timezone":"Asia/Jakarta","modification_date":"2012-01-21"},{"geonameid":"7375954","name":"Rejoagung","asciiname":"Rejoagung","alternatenames":"Rejoagung","latitude":"-8.2017","longitude":"113.4171","feature_class":"P","feature_code":"PPLA4","country_code":"ID","cc2":"","admin1_code":"08","admin2_code":"","admin3_code":"","admin4_code":"","population":"0","elevation":"","dem":"28","timezone":"Asia/Jakarta","modification_date":"2012-01-21"},{"geonameid":"7375959","name":"Semboropasar","asciiname":"Semboropasar","alternatenames":"Semboropasar","latitude":"-8.21054","longitude":"113.44508","feature_class":"P","feature_code":"PPLA4","country_code":"ID","cc2":"","admin1_code":"08","admin2_code":"","admin3_code":"","admin4_code":"","population":"0","elevation":"","dem":"28","timezone":"Asia/Jakarta","modification_date":"2012-01-21"},{"geonameid":"7375966","name":"Gadingrejo","asciiname":"Gadingrejo","alternatenames":"Gadingrejo","latitude":"-8.2355","longitude":"113.4346","feature_class":"P","feature_code":"PPLA4","country_code":"ID","cc2":"","admin1_code":"08","admin2_code":"","admin3_code":"","admin4_code":"","population":"0","elevation":"","dem":"24","timezone":"Asia/Jakarta","modification_date":"2012-01-21"},{"geonameid":"7375980","name":"Paleran","asciiname":"Paleran","alternatenames":"Paleran","latitude":"-8.2244","longitude":"113.495","feature_class":"P","feature_code":"PPLA4","country_code":"ID","cc2":"","admin1_code":"08","admin2_code":"","admin3_code":"","admin4_code":"","population":"0","elevation":"","dem":"34","timezone":"Asia/Jakarta","modification_date":"2012-01-21"},{"geonameid":"7375983","name":"Sidomekar","asciiname":"Sidomekar","alternatenames":"Sidomekar","latitude":"-8.2111","longitude":"113.461","feature_class":"P","feature_code":"PPLA4","country_code":"ID","cc2":"","admin1_code":"08","admin2_code":"","admin3_code":"","admin4_code":"","population":"0","elevation":"","dem":"32","timezone":"Asia/Jakarta","modification_date":"2012-01-21"},{"geonameid":"7376087","name":"Banjar Ponggang","asciiname":"Banjar Ponggang","alternatenames":"Banjar Ponggang","latitude":"-8.3893","longitude":"115.2605","feature_class":"P","feature_code":"PPLA4","country_code":"ID","cc2":"","admin1_code":"02","admin2_code":"","admin3_code":"","admin4_code":"","population":"0","elevation":"","dem":"591","timezone":"Asia/Makassar","modification_date":"2012-01-21"},{"geonameid":"7376090","name":"Banjar Taro Kelod","asciiname":"Banjar Taro Kelod","alternatenames":"Banjar Taro Kelod","latitude":"-8.3849","longitude":"115.2794","feature_class":"P","feature_code":"PPLA4","country_code":"ID","cc2":"","admin1_code":"02","admin2_code":"","admin3_code":"","admin4_code":"","population":"0","elevation":"","dem":"627","timezone":"Asia/Makassar","modification_date":"2012-01-21"},{"geonameid":"7376100","name":"Banjar Tiga","asciiname":"Banjar Tiga","alternatenames":"Banjar Tiga","latitude":"-8.3825","longitude":"115.3535","feature_class":"P","feature_code":"PPLA4","country_code":"ID","cc2":"","admin1_code":"02","admin2_code":"","admin3_code":"","admin4_code":"","population":"0","elevation":"","dem":"758","timezone":"Asia/Makassar","modification_date":"2012-01-21"},{"geonameid":"7376130","name":"Banjar Dujung Kaja","asciiname":"Banjar Dujung Kaja","alternatenames":"Banjar Dujung Kaja","latitude":"-8.4008","longitude":"115.2886","feature_class":"P","feature_code":"PPLA4","country_code":"ID","cc2":"","admin1_code":"02","admin2_code":"","admin3_code":"","admin4_code":"","population":"0","elevation":"","dem":"562","timezone":"Asia/Makassar","modification_date":"2012-01-21"},{"geonameid":"7376134","name":"Banjar Bukian","asciiname":"Banjar Bukian","alternatenames":"Banjar Bukian","latitude":"-8.40687","longitude":"115.26512","feature_class":"P","feature_code":"PPLA4","country_code":"ID","cc2":"","admin1_code":"02","admin2_code":"","admin3_code":"","admin4_code":"","population":"0","elevation":"","dem":"533","timezone":"Asia/Makassar","modification_date":"2012-01-21"},{"geonameid":"7376142","name":"Banjar Manukayaanyar","asciiname":"Banjar Manukayaanyar","alternatenames":"Banjar Manukayaanyar","latitude":"-8.4083","longitude":"115.3124","feature_class":"P","feature_code":"PPLA4","country_code":"ID","cc2":"","admin1_code":"02","admin2_code":"","admin3_code":"","admin4_code":"","population":"0","elevation":"","dem":"565","timezone":"Asia/Makassar","modification_date":"2012-01-21"},{"geonameid":"7376148","name":"Sulahan","asciiname":"Sulahan","alternatenames":"Sulahan","latitude":"-8.421","longitude":"115.3479","feature_class":"P","feature_code":"PPLA3","country_code":"ID","cc2":"","admin1_code":"02","admin2_code":"","admin3_code":"","admin4_code":"","population":"0","elevation":"","dem":"580","timezone":"Asia/Makassar","modification_date":"2012-01-21"},{"geonameid":"7376182","name":"Banjar Kubu","asciiname":"Banjar Kubu","alternatenames":"Banjar Kubu","latitude":"-8.4282","longitude":"115.3629","feature_class":"P","feature_code":"PPLA4","country_code":"ID","cc2":"","admin1_code":"02","admin2_code":"","admin3_code":"","admin4_code":"","population":"0","elevation":"","dem":"563","timezone":"Asia/Makassar","modification_date":"2012-01-21"},{"geonameid":"7376188","name":"Banjar Brahmanabukit","asciiname":"Banjar Brahmanabukit","alternatenames":"Banjar Brahmanabukit","latitude":"-8.4399","longitude":"115.3561","feature_class":"P","feature_code":"PPLA4","country_code":"ID","cc2":"","admin1_code":"02","admin2_code":"","admin3_code":"","admin4_code":"","population":"0","elevation":"","dem":"482","timezone":"Asia/Makassar","modification_date":"2012-01-21"},{"geonameid":"7376200","name":"Banjar Triwangsakelusa","asciiname":"Banjar Triwangsakelusa","alternatenames":"Banjar Triwangsakelusa","latitude":"-8.4406","longitude":"115.2582","feature_class":"P","feature_code":"PPLA4","country_code":"ID","cc2":"","admin1_code":"02","admin2_code":"","admin3_code":"","admin4_code":"","population":"0","elevation":"","dem":"405","timezone":"Asia/Makassar","modification_date":"2012-01-21"},{"geonameid":"7376210","name":"Banjar Petak","asciiname":"Banjar Petak","alternatenames":"Banjar Petak","latitude":"-8.4448","longitude":"115.3195","feature_class":"P","feature_code":"PPLA4","country_code":"ID","cc2":"","admin1_code":"02","admin2_code":"","admin3_code":"","admin4_code":"","population":"0","elevation":"","dem":"458","timezone":"Asia/Makassar","modification_date":"2012-01-21"},{"geonameid":"7376236","name":"Banjar Triwangsakeliki","asciiname":"Banjar Triwangsakeliki","alternatenames":"Banjar Triwangsakeliki","latitude":"-8.452","longitude":"115.262","feature_class":"P","feature_code":"PPLA4","country_code":"ID","cc2":"","admin1_code":"02","admin2_code":"","admin3_code":"","admin4_code":"","population":"0","elevation":"","dem":"371","timezone":"Asia/Makassar","modification_date":"2012-01-21"},{"geonameid":"7376245","name":"Banjar Sandinggianyar","asciiname":"Banjar Sandinggianyar","alternatenames":"Banjar Sandinggianyar","latitude":"-8.4629","longitude":"115.2992","feature_class":"P","feature_code":"PPLA4","country_code":"ID","cc2":"","admin1_code":"02","admin2_code":"","admin3_code":"","admin4_code":"","population":"0","elevation":"","dem":"378","timezone":"Asia/Makassar","modification_date":"2012-01-21"},{"geonameid":"7376260","name":"Banjar Mulung","asciiname":"Banjar Mulung","alternatenames":"Banjar Mulung","latitude":"-8.4786","longitude":"115.3107","feature_class":"P","feature_code":"PPLA4","country_code":"ID","cc2":"","admin1_code":"02","admin2_code":"","admin3_code":"","admin4_code":"","population":"0","elevation":"","dem":"329","timezone":"Asia/Makassar","modification_date":"2012-01-21"},{"geonameid":"7376294","name":"Banjar Pesalakan","asciiname":"Banjar Pesalakan","alternatenames":"Banjar Pesalakan","latitude":"-8.4812","longitude":"115.3025","feature_class":"P","feature_code":"PPLA4","country_code":"ID","cc2":"","admin1_code":"02","admin2_code":"","admin3_code":"","admin4_code":"","population":"0","elevation":"","dem":"326","timezone":"Asia/Makassar","modification_date":"2012-01-21"},{"geonameid":"7376305","name":"Banjar Abuan","asciiname":"Banjar Abuan","alternatenames":"Banjar Abuan","latitude":"-8.4625","longitude":"115.335","feature_class":"P","feature_code":"PPLA4","country_code":"ID","cc2":"","admin1_code":"02","admin2_code":"","admin3_code":"","admin4_code":"","population":"0","elevation":"","dem":"402","timezone":"Asia/Makassar","modification_date":"2012-01-21"},{"geonameid":"7376310","name":"Banjar Bebalang","asciiname":"Banjar Bebalang","alternatenames":"Banjar Bebalang","latitude":"-8.4718","longitude":"115.353","feature_class":"P","feature_code":"PPLA4","country_code":"ID","cc2":"","admin1_code":"02","admin2_code":"","admin3_code":"","admin4_code":"","population":"0","elevation":"","dem":"373","timezone":"Asia/Makassar","modification_date":"2012-01-21"},{"geonameid":"7376314","name":"Banjar Apuan Kaja","asciiname":"Banjar Apuan Kaja","alternatenames":"Banjar Apuan Kaja","latitude":"-8.4766","longitude":"115.3296","feature_class":"P","feature_code":"PPLA4","country_code":"ID","cc2":"","admin1_code":"02","admin2_code":"","admin3_code":"","admin4_code":"","population":"0","elevation":"","dem":"347","timezone":"Asia/Makassar","modification_date":"2012-01-21"},{"geonameid":"7376315","name":"Banjar Madangan Kaja","asciiname":"Banjar Madangan Kaja","alternatenames":"Banjar Madangan Kaja","latitude":"-8.475","longitude":"115.3238","feature_class":"P","feature_code":"PPLA4","country_code":"ID","cc2":"","admin1_code":"02","admin2_code":"","admin3_code":"","admin4_code":"","population":"0","elevation":"","dem":"357","timezone":"Asia/Makassar","modification_date":"2012-01-21"},{"geonameid":"7376338","name":"Sulahan","asciiname":"Sulahan","alternatenames":"","latitude":"-8.421","longitude":"115.3479","feature_class":"P","feature_code":"PPLA4","country_code":"ID","cc2":"","admin1_code":"02","admin2_code":"","admin3_code":"","admin4_code":"","population":"0","elevation":"","dem":"580","timezone":"Asia/Makassar","modification_date":"2010-08-07"},{"geonameid":"7376376","name":"Jeding","asciiname":"Jeding","alternatenames":"Jeding","latitude":"-7.9171","longitude":"114.1447","feature_class":"P","feature_code":"PPLA4","country_code":"ID","cc2":"","admin1_code":"08","admin2_code":"","admin3_code":"","admin4_code":"","population":"0","elevation":"","dem":"833","timezone":"Asia/Jakarta","modification_date":"2012-01-21"},{"geonameid":"7376533","name":"Karangkebon Timur","asciiname":"Karangkebon Timur","alternatenames":"Karangkebon Timur","latitude":"-8.62691","longitude":"116.13752","feature_class":"P","feature_code":"PPLA4","country_code":"ID","cc2":"","admin1_code":"17","admin2_code":"","admin3_code":"","admin4_code":"","population":"0","elevation":"","dem":"35","timezone":"Asia/Makassar","modification_date":"2012-01-21"},{"geonameid":"7376585","name":"Karang Kuripan","asciiname":"Karang Kuripan","alternatenames":"Karang Kuripan","latitude":"-8.6347","longitude":"116.154","feature_class":"P","feature_code":"PPLA4","country_code":"ID","cc2":"","admin1_code":"17","admin2_code":"","admin3_code":"","admin4_code":"","population":"0","elevation":"","dem":"50","timezone":"Asia/Makassar","modification_date":"2012-01-21"},{"geonameid":"7376775","name":"Pendaleman","asciiname":"Pendaleman","alternatenames":"Pendaleman","latitude":"-8.6844","longitude":"116.2404","feature_class":"P","feature_code":"PPLA4","country_code":"ID","cc2":"","admin1_code":"17","admin2_code":"","admin3_code":"","admin4_code":"","population":"0","elevation":"","dem":"113","timezone":"Asia/Makassar","modification_date":"2012-01-21"},{"geonameid":"7376782","name":"Batutulis","asciiname":"Batutulis","alternatenames":"Batutulis","latitude":"-8.6911","longitude":"116.2139","feature_class":"P","feature_code":"PPLA4","country_code":"ID","cc2":"","admin1_code":"17","admin2_code":"","admin3_code":"","admin4_code":"","population":"0","elevation":"","dem":"99","timezone":"Asia/Makassar","modification_date":"2012-01-21"},{"geonameid":"7376824","name":"Blong Daye","asciiname":"Blong Daye","alternatenames":"Blong Daye","latitude":"-8.6931","longitude":"116.2257","feature_class":"P","feature_code":"PPLA4","country_code":"ID","cc2":"","admin1_code":"17","admin2_code":"","admin3_code":"","admin4_code":"","population":"0","elevation":"","dem":"102","timezone":"Asia/Makassar","modification_date":"2012-01-21"},{"geonameid":"7376896","name":"Ampanlolat","asciiname":"Ampanlolat","alternatenames":"Ampanlolat","latitude":"-8.7198","longitude":"116.1983","feature_class":"P","feature_code":"PPLA4","country_code":"ID","cc2":"","admin1_code":"17","admin2_code":"","admin3_code":"","admin4_code":"","population":"0","elevation":"","dem":"79","timezone":"Asia/Makassar","modification_date":"2012-01-21"},{"geonameid":"7376911","name":"Ranggagata","asciiname":"Ranggagata","alternatenames":"Ranggagata","latitude":"-8.7224","longitude":"116.1847","feature_class":"P","feature_code":"PPLA4","country_code":"ID","cc2":"","admin1_code":"17","admin2_code":"","admin3_code":"","admin4_code":"","population":"0","elevation":"","dem":"72","timezone":"Asia/Makassar","modification_date":"2012-01-21"},{"geonameid":"7376944","name":"Karangdalam","asciiname":"Karangdalam","alternatenames":"Karangdalam","latitude":"-8.7384","longitude":"116.2431","feature_class":"P","feature_code":"PPLA4","country_code":"ID","cc2":"","admin1_code":"17","admin2_code":"","admin3_code":"","admin4_code":"","population":"0","elevation":"","dem":"107","timezone":"Asia/Makassar","modification_date":"2012-01-21"},{"geonameid":"7376985","name":"Bangekdewa","asciiname":"Bangekdewa","alternatenames":"Bangekdewa","latitude":"-8.7476","longitude":"116.1921","feature_class":"P","feature_code":"PPLA4","country_code":"ID","cc2":"","admin1_code":"17","admin2_code":"","admin3_code":"","admin4_code":"","population":"0","elevation":"","dem":"69","timezone":"Asia/Makassar","modification_date":"2012-01-21"},{"geonameid":"7376992","name":"Karang Daye","asciiname":"Karang Daye","alternatenames":"Karang Daye","latitude":"-8.7448","longitude":"116.2413","feature_class":"P","feature_code":"PPLA3","country_code":"ID","cc2":"","admin1_code":"17","admin2_code":"","admin3_code":"","admin4_code":"","population":"0","elevation":"","dem":"93","timezone":"Asia/Makassar","modification_date":"2012-01-21"},{"geonameid":"7377008","name":"Permas","asciiname":"Permas","alternatenames":"Permas","latitude":"-8.7376","longitude":"116.2078","feature_class":"P","feature_code":"PPLA4","country_code":"ID","cc2":"","admin1_code":"17","admin2_code":"","admin3_code":"","admin4_code":"","population":"0","elevation":"","dem":"76","timezone":"Asia/Makassar","modification_date":"2012-01-21"},{"geonameid":"7377082","name":"Tetebatu","asciiname":"Tetebatu","alternatenames":"Tetebatu","latitude":"-8.5535","longitude":"116.4198","feature_class":"P","feature_code":"PPLA4","country_code":"ID","cc2":"","admin1_code":"17","admin2_code":"","admin3_code":"","admin4_code":"","population":"0","elevation":"","dem":"562","timezone":"Asia/Makassar","modification_date":"2012-01-21"},{"geonameid":"7377107","name":"Perian Selatan","asciiname":"Perian Selatan","alternatenames":"Perian Selatan","latitude":"-8.5641","longitude":"116.393","feature_class":"P","feature_code":"PPLA4","country_code":"ID","cc2":"","admin1_code":"17","admin2_code":"","admin3_code":"","admin4_code":"","population":"0","elevation":"","dem":"523","timezone":"Asia/Makassar","modification_date":"2012-01-21"},{"geonameid":"7377150","name":"Gubukjero Timuk","asciiname":"Gubukjero Timuk","alternatenames":"Gubukjero Timuk","latitude":"-8.5605","longitude":"116.4792","feature_class":"P","feature_code":"PPLA4","country_code":"ID","cc2":"","admin1_code":"17","admin2_code":"","admin3_code":"","admin4_code":"","population":"0","elevation":"","dem":"432","timezone":"Asia/Makassar","modification_date":"2012-01-21"},{"geonameid":"7377168","name":"Keroak","asciiname":"Keroak","alternatenames":"Keroak","latitude":"-8.5705","longitude":"116.498","feature_class":"P","feature_code":"PPLA4","country_code":"ID","cc2":"","admin1_code":"17","admin2_code":"","admin3_code":"","admin4_code":"","population":"0","elevation":"","dem":"354","timezone":"Asia/Makassar","modification_date":"2012-01-21"},{"geonameid":"7377195","name":"Sepolong Timur","asciiname":"Sepolong Timur","alternatenames":"Sepolong Timur","latitude":"-8.585","longitude":"116.4539","feature_class":"P","feature_code":"PPLA4","country_code":"ID","cc2":"","admin1_code":"17","admin2_code":"","admin3_code":"","admin4_code":"","population":"0","elevation":"","dem":"374","timezone":"Asia/Makassar","modification_date":"2012-01-21"},{"geonameid":"7377206","name":"Kampungmasjid","asciiname":"Kampungmasjid","alternatenames":"Kampungmasjid","latitude":"-8.5984","longitude":"116.4498","feature_class":"P","feature_code":"PPLA4","country_code":"ID","cc2":"","admin1_code":"17","admin2_code":"","admin3_code":"","admin4_code":"","population":"0","elevation":"","dem":"347","timezone":"Asia/Makassar","modification_date":"2012-01-21"},{"geonameid":"7377235","name":"Rempungtimur Utara","asciiname":"Rempungtimur Utara","alternatenames":"Rempungtimur Utara","latitude":"-8.6118","longitude":"116.4991","feature_class":"P","feature_code":"PPLA4","country_code":"ID","cc2":"","admin1_code":"17","admin2_code":"","admin3_code":"","admin4_code":"","population":"0","elevation":"","dem":"256","timezone":"Asia/Makassar","modification_date":"2012-01-21"},{"geonameid":"7377246","name":"Danger Utara","asciiname":"Danger Utara","alternatenames":"Danger Utara","latitude":"-8.6121","longitude":"116.4594","feature_class":"P","feature_code":"PPLA4","country_code":"ID","cc2":"","admin1_code":"17","admin2_code":"","admin3_code":"","admin4_code":"","population":"0","elevation":"","dem":"303","timezone":"Asia/Makassar","modification_date":"2012-01-21"},{"geonameid":"7377267","name":"Timba Lauk","asciiname":"Timba Lauk","alternatenames":"Timba Lauk","latitude":"-8.621","longitude":"116.4446","feature_class":"P","feature_code":"PPLA4","country_code":"ID","cc2":"","admin1_code":"17","admin2_code":"","admin3_code":"","admin4_code":"","population":"0","elevation":"","dem":"313","timezone":"Asia/Makassar","modification_date":"2012-01-21"},{"geonameid":"7377293","name":"Dayanpeken","asciiname":"Dayanpeken","alternatenames":"Dayanpeken","latitude":"-8.592","longitude":"116.4209","feature_class":"P","feature_code":"PPLA4","country_code":"ID","cc2":"","admin1_code":"17","admin2_code":"","admin3_code":"","admin4_code":"","population":"0","elevation":"","dem":"411","timezone":"Asia/Makassar","modification_date":"2012-01-21"},{"geonameid":"7377298","name":"Dalamdesa Selatan","asciiname":"Dalamdesa Selatan","alternatenames":"Dalamdesa Selatan","latitude":"-8.5938","longitude":"116.4115","feature_class":"P","feature_code":"PPLA4","country_code":"ID","cc2":"","admin1_code":"17","admin2_code":"","admin3_code":"","admin4_code":"","population":"0","elevation":"","dem":"411","timezone":"Asia/Makassar","modification_date":"2012-01-21"},{"geonameid":"7377350","name":"Mujur","asciiname":"Mujur","alternatenames":"Mujur","latitude":"-8.6036","longitude":"116.4012","feature_class":"P","feature_code":"PPLA4","country_code":"ID","cc2":"","admin1_code":"17","admin2_code":"","admin3_code":"","admin4_code":"","population":"0","elevation":"","dem":"387","timezone":"Asia/Makassar","modification_date":"2012-01-21"},{"geonameid":"7377429","name":"Kelungkung","asciiname":"Kelungkung","alternatenames":"Kelungkung","latitude":"-8.5518","longitude":"117.3368","feature_class":"P","feature_code":"PPLA4","country_code":"ID","cc2":"","admin1_code":"17","admin2_code":"","admin3_code":"","admin4_code":"","population":"0","elevation":"","dem":"438","timezone":"Asia/Makassar","modification_date":"2012-01-21"},{"geonameid":"7377604","name":"Ngeru","asciiname":"Ngeru","alternatenames":"Ngeru","latitude":"-8.5171","longitude":"117.5158","feature_class":"P","feature_code":"PPLA4","country_code":"ID","cc2":"","admin1_code":"17","admin2_code":"","admin3_code":"","admin4_code":"","population":"0","elevation":"","dem":"21","timezone":"Asia/Makassar","modification_date":"2012-01-21"},{"geonameid":"7377900","name":"Jorok Dalam","asciiname":"Jorok Dalam","alternatenames":"Jorok Dalam","latitude":"-8.4112","longitude":"117.1353","feature_class":"P","feature_code":"PPLA4","country_code":"ID","cc2":"","admin1_code":"17","admin2_code":"","admin3_code":"","admin4_code":"","population":"0","elevation":"","dem":"28","timezone":"Asia/Makassar","modification_date":"2012-01-21"},{"geonameid":"7377902","name":"Orong","asciiname":"Orong","alternatenames":"Orong","latitude":"-8.413","longitude":"117.1296","feature_class":"P","feature_code":"PPLA4","country_code":"ID","cc2":"","admin1_code":"17","admin2_code":"","admin3_code":"","admin4_code":"","population":"0","elevation":"","dem":"35","timezone":"Asia/Makassar","modification_date":"2012-01-21"},{"geonameid":"7377903","name":"Satowebrang","asciiname":"Satowebrang","alternatenames":"Satowebrang","latitude":"-8.416","longitude":"117.1266","feature_class":"P","feature_code":"PPLA4","country_code":"ID","cc2":"","admin1_code":"17","admin2_code":"","admin3_code":"","admin4_code":"","population":"0","elevation":"","dem":"28","timezone":"Asia/Makassar","modification_date":"2012-01-21"},{"geonameid":"7377904","name":"Motong Barat","asciiname":"Motong Barat","alternatenames":"Motong Barat","latitude":"-8.4152","longitude":"117.1311","feature_class":"P","feature_code":"PPLA4","country_code":"ID","cc2":"","admin1_code":"17","admin2_code":"","admin3_code":"","admin4_code":"","population":"0","elevation":"","dem":"39","timezone":"Asia/Makassar","modification_date":"2012-01-21"},{"geonameid":"7377907","name":"Tengah Satu","asciiname":"Tengah Satu","alternatenames":"Tengah Satu","latitude":"-8.4183","longitude":"117.1308","feature_class":"P","feature_code":"PPLA4","country_code":"ID","cc2":"","admin1_code":"17","admin2_code":"","admin3_code":"","admin4_code":"","population":"0","elevation":"","dem":"42","timezone":"Asia/Makassar","modification_date":"2012-01-21"},{"geonameid":"7377919","name":"Rhee Beru","asciiname":"Rhee Beru","alternatenames":"Rhee Beru","latitude":"-8.4182","longitude":"117.236","feature_class":"P","feature_code":"PPLA4","country_code":"ID","cc2":"","admin1_code":"17","admin2_code":"","admin3_code":"","admin4_code":"","population":"0","elevation":"","dem":"15","timezone":"Asia/Makassar","modification_date":"2012-01-21"},{"geonameid":"7377925","name":"Sebedo","asciiname":"Sebedo","alternatenames":"Sebedo","latitude":"-8.4287","longitude":"117.1631","feature_class":"P","feature_code":"PPLA4","country_code":"ID","cc2":"","admin1_code":"17","admin2_code":"","admin3_code":"","admin4_code":"","population":"0","elevation":"","dem":"34","timezone":"Asia/Makassar","modification_date":"2012-01-21"},{"geonameid":"7377953","name":"Seseng","asciiname":"Seseng","alternatenames":"Seseng","latitude":"-8.4675","longitude":"117.2304","feature_class":"P","feature_code":"PPLA4","country_code":"ID","cc2":"","admin1_code":"17","admin2_code":"","admin3_code":"","admin4_code":"","population":"0","elevation":"","dem":"40","timezone":"Asia/Makassar","modification_date":"2012-01-21"},{"geonameid":"7377967","name":"Tolotangga","asciiname":"Tolotangga","alternatenames":"Tolotangga","latitude":"-8.7642","longitude":"118.6353","feature_class":"P","feature_code":"PPLA4","country_code":"ID","cc2":"","admin1_code":"17","admin2_code":"","admin3_code":"","admin4_code":"","population":"0","elevation":"","dem":"33","timezone":"Asia/Makassar","modification_date":"2012-01-21"},{"geonameid":"7378049","name":"Lantebaru","asciiname":"Lantebaru","alternatenames":"Lantebaru","latitude":"-8.6321","longitude":"118.7736","feature_class":"P","feature_code":"PPLA4","country_code":"ID","cc2":"","admin1_code":"17","admin2_code":"","admin3_code":"","admin4_code":"","population":"0","elevation":"","dem":"112","timezone":"Asia/Makassar","modification_date":"2012-01-21"},{"geonameid":"7378084","name":"Doro Oo","asciiname":"Doro Oo","alternatenames":"Doro Oo","latitude":"-8.6864","longitude":"118.7631","feature_class":"P","feature_code":"PPLA4","country_code":"ID","cc2":"","admin1_code":"17","admin2_code":"","admin3_code":"","admin4_code":"","population":"0","elevation":"","dem":"13","timezone":"Asia/Makassar","modification_date":"2012-01-21"},{"geonameid":"7378109","name":"Rupe","asciiname":"Rupe","alternatenames":"Rupe","latitude":"-8.6953","longitude":"118.8384","feature_class":"P","feature_code":"PPLA4","country_code":"ID","cc2":"","admin1_code":"17","admin2_code":"","admin3_code":"","admin4_code":"","population":"0","elevation":"","dem":"36","timezone":"Asia/Makassar","modification_date":"2012-01-21"},{"geonameid":"7378119","name":"Kalodu","asciiname":"Kalodu","alternatenames":"Kalodu","latitude":"-8.6589","longitude":"118.8384","feature_class":"P","feature_code":"PPLA4","country_code":"ID","cc2":"","admin1_code":"17","admin2_code":"","admin3_code":"","admin4_code":"","population":"0","elevation":"","dem":"550","timezone":"Asia/Makassar","modification_date":"2012-01-21"},{"geonameid":"7378274","name":"Lampe Satu","asciiname":"Lampe Satu","alternatenames":"Lampe Satu","latitude":"-8.5118","longitude":"118.8012","feature_class":"P","feature_code":"PPLA4","country_code":"ID","cc2":"","admin1_code":"17","admin2_code":"","admin3_code":"","admin4_code":"","population":"0","elevation":"","dem":"63","timezone":"Asia/Makassar","modification_date":"2012-01-21"},{"geonameid":"7378284","name":"Ta’a","asciiname":"Ta'a","alternatenames":"Ta'a,Ta’a","latitude":"-8.5184","longitude":"118.8411","feature_class":"P","feature_code":"PPLA4","country_code":"ID","cc2":"","admin1_code":"17","admin2_code":"","admin3_code":"","admin4_code":"","population":"0","elevation":"","dem":"394","timezone":"Asia/Makassar","modification_date":"2012-01-21"},{"geonameid":"7378306","name":"Sigih","asciiname":"Sigih","alternatenames":"Sigih","latitude":"-8.5373","longitude":"118.8502","feature_class":"P","feature_code":"PPLA4","country_code":"ID","cc2":"","admin1_code":"17","admin2_code":"","admin3_code":"","admin4_code":"","population":"0","elevation":"","dem":"412","timezone":"Asia/Makassar","modification_date":"2012-01-21"},{"geonameid":"7378320","name":"Raba","asciiname":"Raba","alternatenames":"Raba","latitude":"-8.5608","longitude":"118.8633","feature_class":"P","feature_code":"PPLA4","country_code":"ID","cc2":"","admin1_code":"17","admin2_code":"","admin3_code":"","admin4_code":"","population":"0","elevation":"","dem":"397","timezone":"Asia/Makassar","modification_date":"2012-01-21"},{"geonameid":"7378335","name":"Oinao","asciiname":"Oinao","alternatenames":"Oinao","latitude":"-8.5773","longitude":"118.8274","feature_class":"P","feature_code":"PPLA4","country_code":"ID","cc2":"","admin1_code":"17","admin2_code":"","admin3_code":"","admin4_code":"","population":"0","elevation":"","dem":"450","timezone":"Asia/Makassar","modification_date":"2012-01-21"},{"geonameid":"7378343","name":"Kuta","asciiname":"Kuta","alternatenames":"Kuta","latitude":"-8.5858","longitude":"118.7811","feature_class":"P","feature_code":"PPLA4","country_code":"ID","cc2":"","admin1_code":"17","admin2_code":"","admin3_code":"","admin4_code":"","population":"0","elevation":"","dem":"619","timezone":"Asia/Makassar","modification_date":"2012-01-21"},{"geonameid":"7378350","name":"Lambitu","asciiname":"Lambitu","alternatenames":"Lambitu","latitude":"-8.5969","longitude":"118.7725","feature_class":"P","feature_code":"PPLA4","country_code":"ID","cc2":"","admin1_code":"17","admin2_code":"","admin3_code":"","admin4_code":"","population":"0","elevation":"","dem":"730","timezone":"Asia/Makassar","modification_date":"2012-01-21"},{"geonameid":"7378418","name":"Kenari","asciiname":"Kenari","alternatenames":"Kenari","latitude":"-8.6184","longitude":"119.8403","feature_class":"P","feature_code":"PPLA4","country_code":"ID","cc2":"","admin1_code":"18","admin2_code":"","admin3_code":"","admin4_code":"","population":"0","elevation":"","dem":"60","timezone":"Asia/Makassar","modification_date":"2012-01-21"},{"geonameid":"7378562","name":"Dalong","asciiname":"Dalong","alternatenames":"Dalong","latitude":"-8.5649","longitude":"119.9362","feature_class":"P","feature_code":"PPLA4","country_code":"ID","cc2":"","admin1_code":"18","admin2_code":"","admin3_code":"","admin4_code":"","population":"0","elevation":"","dem":"73","timezone":"Asia/Makassar","modification_date":"2012-01-21"},{"geonameid":"7378585","name":"Merombok","asciiname":"Merombok","alternatenames":"Merombok","latitude":"-8.5404","longitude":"119.8968","feature_class":"P","feature_code":"PPLA4","country_code":"ID","cc2":"","admin1_code":"18","admin2_code":"","admin3_code":"","admin4_code":"","population":"0","elevation":"","dem":"18","timezone":"Asia/Makassar","modification_date":"2012-01-21"},{"geonameid":"7378620","name":"Melo","asciiname":"Melo","alternatenames":"Melo","latitude":"-8.5977","longitude":"119.9613","feature_class":"P","feature_code":"PPLA4","country_code":"ID","cc2":"","admin1_code":"18","admin2_code":"","admin3_code":"","admin4_code":"","population":"0","elevation":"","dem":"551","timezone":"Asia/Makassar","modification_date":"2012-01-21"},{"geonameid":"7379049","name":"Ngarangiakambera","asciiname":"Ngarangiakambera","alternatenames":"Ngarangiakambera","latitude":"-9.671","longitude":"120.0049","feature_class":"P","feature_code":"PPLA4","country_code":"ID","cc2":"","admin1_code":"18","admin2_code":"","admin3_code":"","admin4_code":"","population":"0","elevation":"","dem":"535","timezone":"Asia/Makassar","modification_date":"2012-01-21"},{"geonameid":"7379065","name":"Karipidita","asciiname":"Karipidita","alternatenames":"Karipidita","latitude":"-9.7138","longitude":"120.0297","feature_class":"P","feature_code":"PPLA4","country_code":"ID","cc2":"","admin1_code":"18","admin2_code":"","admin3_code":"","admin4_code":"","population":"0","elevation":"","dem":"553","timezone":"Asia/Makassar","modification_date":"2012-01-21"},{"geonameid":"7379235","name":"Borik","asciiname":"Borik","alternatenames":"Borik","latitude":"-8.8435","longitude":"120.2497","feature_class":"P","feature_code":"PPLA4","country_code":"ID","cc2":"","admin1_code":"18","admin2_code":"","admin3_code":"","admin4_code":"","population":"0","elevation":"","dem":"114","timezone":"Asia/Makassar","modification_date":"2012-01-21"},{"geonameid":"7379258","name":"Waepau","asciiname":"Waepau","alternatenames":"Waepau","latitude":"-8.8058","longitude":"120.2258","feature_class":"P","feature_code":"PPLA4","country_code":"ID","cc2":"","admin1_code":"18","admin2_code":"","admin3_code":"","admin4_code":"","population":"0","elevation":"","dem":"502","timezone":"Asia/Makassar","modification_date":"2012-01-21"},{"geonameid":"7379293","name":"Kaca","asciiname":"Kaca","alternatenames":"Kaca","latitude":"-8.7511","longitude":"120.2272","feature_class":"P","feature_code":"PPLA4","country_code":"ID","cc2":"","admin1_code":"18","admin2_code":"","admin3_code":"","admin4_code":"","population":"0","elevation":"","dem":"621","timezone":"Asia/Makassar","modification_date":"2012-01-21"},{"geonameid":"7379568","name":"Tungguwaneng","asciiname":"Tungguwaneng","alternatenames":"Tungguwaneng","latitude":"-8.4465","longitude":"121.1364","feature_class":"P","feature_code":"PPLA4","country_code":"ID","cc2":"","admin1_code":"18","admin2_code":"","admin3_code":"","admin4_code":"","population":"0","elevation":"","dem":"35","timezone":"Asia/Makassar","modification_date":"2012-01-21"},{"geonameid":"7379583","name":"Nanganumba","asciiname":"Nanganumba","alternatenames":"Nanganumba","latitude":"-8.4699","longitude":"121.2227","feature_class":"P","feature_code":"PPLA4","country_code":"ID","cc2":"","admin1_code":"18","admin2_code":"","admin3_code":"","admin4_code":"","population":"0","elevation":"","dem":"18","timezone":"Asia/Makassar","modification_date":"2012-01-21"},{"geonameid":"7380071","name":"Wololele A","asciiname":"Wololele A","alternatenames":"Wololele A","latitude":"-8.7567","longitude":"121.9151","feature_class":"P","feature_code":"PPLA4","country_code":"ID","cc2":"","admin1_code":"18","admin2_code":"","admin3_code":"","admin4_code":"","population":"0","elevation":"","dem":"906","timezone":"Asia/Makassar","modification_date":"2012-01-21"},{"geonameid":"7380094","name":"Aemalu","asciiname":"Aemalu","alternatenames":"Aemalu","latitude":"-8.7657","longitude":"121.9442","feature_class":"P","feature_code":"PPLA4","country_code":"ID","cc2":"","admin1_code":"18","admin2_code":"","admin3_code":"","admin4_code":"","population":"0","elevation":"","dem":"267","timezone":"Asia/Makassar","modification_date":"2012-01-21"},{"geonameid":"7380101","name":"Wololele B","asciiname":"Wololele B","alternatenames":"Wololele B","latitude":"-8.7624","longitude":"121.8929","feature_class":"P","feature_code":"PPLA4","country_code":"ID","cc2":"","admin1_code":"18","admin2_code":"","admin3_code":"","admin4_code":"","population":"0","elevation":"","dem":"383","timezone":"Asia/Makassar","modification_date":"2012-01-21"},{"geonameid":"7380122","name":"Jitapanda","asciiname":"Jitapanda","alternatenames":"Jitapanda","latitude":"-8.7765","longitude":"121.9569","feature_class":"P","feature_code":"PPLA4","country_code":"ID","cc2":"","admin1_code":"18","admin2_code":"","admin3_code":"","admin4_code":"","population":"0","elevation":"","dem":"161","timezone":"Asia/Makassar","modification_date":"2012-01-21"},{"geonameid":"7380130","name":"Liabeke","asciiname":"Liabeke","alternatenames":"Liabeke","latitude":"-8.7764","longitude":"121.9269","feature_class":"P","feature_code":"PPLA4","country_code":"ID","cc2":"","admin1_code":"18","admin2_code":"","admin3_code":"","admin4_code":"","population":"0","elevation":"","dem":"465","timezone":"Asia/Makassar","modification_date":"2012-01-21"},{"geonameid":"7380133","name":"Baolokan","asciiname":"Baolokan","alternatenames":"Baolokan","latitude":"-8.7755","longitude":"121.8887","feature_class":"P","feature_code":"PPLA4","country_code":"ID","cc2":"","admin1_code":"18","admin2_code":"","admin3_code":"","admin4_code":"","population":"0","elevation":"","dem":"284","timezone":"Asia/Makassar","modification_date":"2012-01-21"},{"geonameid":"7380150","name":"Wonda","asciiname":"Wonda","alternatenames":"Wonda","latitude":"-8.791","longitude":"121.937","feature_class":"P","feature_code":"PPLA4","country_code":"ID","cc2":"","admin1_code":"18","admin2_code":"","admin3_code":"","admin4_code":"","population":"0","elevation":"","dem":"195","timezone":"Asia/Makassar","modification_date":"2012-01-21"},{"geonameid":"7380188","name":"Aeteke","asciiname":"Aeteke","alternatenames":"Aeteke","latitude":"-8.8","longitude":"121.9778","feature_class":"P","feature_code":"PPLA4","country_code":"ID","cc2":"","admin1_code":"18","admin2_code":"","admin3_code":"","admin4_code":"","population":"0","elevation":"","dem":"42","timezone":"Asia/Makassar","modification_date":"2012-01-21"},{"geonameid":"7380222","name":"Maubasa","asciiname":"Maubasa","alternatenames":"Maubasa","latitude":"-8.8263","longitude":"121.9328","feature_class":"P","feature_code":"PPLA4","country_code":"ID","cc2":"","admin1_code":"18","admin2_code":"","admin3_code":"","admin4_code":"","population":"0","elevation":"","dem":"17","timezone":"Asia/Makassar","modification_date":"2012-01-21"},{"geonameid":"7380233","name":"Aipetu","asciiname":"Aipetu","alternatenames":"Aipetu","latitude":"-8.7953","longitude":"121.9765","feature_class":"P","feature_code":"PPLA4","country_code":"ID","cc2":"","admin1_code":"18","admin2_code":"","admin3_code":"","admin4_code":"","population":"0","elevation":"","dem":"56","timezone":"Asia/Makassar","modification_date":"2010-08-07"},{"geonameid":"7380379","name":"Boujawa","asciiname":"Boujawa","alternatenames":"Boujawa","latitude":"-8.7336","longitude":"121.6329","feature_class":"P","feature_code":"PPLA4","country_code":"ID","cc2":"","admin1_code":"18","admin2_code":"","admin3_code":"","admin4_code":"","population":"0","elevation":"","dem":"413","timezone":"Asia/Makassar","modification_date":"2012-01-21"},{"geonameid":"7380385","name":"Mbani","asciiname":"Mbani","alternatenames":"Mbani","latitude":"-8.6852","longitude":"121.6551","feature_class":"P","feature_code":"PPLA4","country_code":"ID","cc2":"","admin1_code":"18","admin2_code":"","admin3_code":"","admin4_code":"","population":"0","elevation":"","dem":"417","timezone":"Asia/Makassar","modification_date":"2012-01-21"},{"geonameid":"7380402","name":"Wolofeo","asciiname":"Wolofeo","alternatenames":"Wolofeo","latitude":"-8.725","longitude":"121.6808","feature_class":"P","feature_code":"PPLA4","country_code":"ID","cc2":"","admin1_code":"18","admin2_code":"","admin3_code":"","admin4_code":"","population":"0","elevation":"","dem":"1042","timezone":"Asia/Makassar","modification_date":"2012-01-21"},{"geonameid":"7380413","name":"Tendaleo","asciiname":"Tendaleo","alternatenames":"Tendaleo","latitude":"-8.6477","longitude":"121.7005","feature_class":"P","feature_code":"PPLA4","country_code":"ID","cc2":"","admin1_code":"18","admin2_code":"","admin3_code":"","admin4_code":"","population":"0","elevation":"","dem":"54","timezone":"Asia/Makassar","modification_date":"2012-01-21"},{"geonameid":"7380436","name":"Wolomage","asciiname":"Wolomage","alternatenames":"Wolomage","latitude":"-8.7031","longitude":"121.7359","feature_class":"P","feature_code":"PPLA4","country_code":"ID","cc2":"","admin1_code":"18","admin2_code":"","admin3_code":"","admin4_code":"","population":"0","elevation":"","dem":"670","timezone":"Asia/Makassar","modification_date":"2012-01-21"},{"geonameid":"7380440","name":"Nuajena","asciiname":"Nuajena","alternatenames":"Nuajena","latitude":"-8.7298","longitude":"121.7468","feature_class":"P","feature_code":"PPLA4","country_code":"ID","cc2":"","admin1_code":"18","admin2_code":"","admin3_code":"","admin4_code":"","population":"0","elevation":"","dem":"690","timezone":"Asia/Makassar","modification_date":"2012-01-21"},{"geonameid":"7380444","name":"Wolomoni","asciiname":"Wolomoni","alternatenames":"Wolomoni","latitude":"-8.7433","longitude":"121.7445","feature_class":"P","feature_code":"PPLA4","country_code":"ID","cc2":"","admin1_code":"18","admin2_code":"","admin3_code":"","admin4_code":"","population":"0","elevation":"","dem":"733","timezone":"Asia/Makassar","modification_date":"2012-01-21"},{"geonameid":"7380564","name":"Rerawere","asciiname":"Rerawere","alternatenames":"Rerawere","latitude":"-8.5793","longitude":"121.57227","feature_class":"P","feature_code":"PPLA4","country_code":"ID","cc2":"","admin1_code":"18","admin2_code":"","admin3_code":"","admin4_code":"","population":"0","elevation":"","dem":"15","timezone":"Asia/Makassar","modification_date":"2012-01-21"},{"geonameid":"7380595","name":"Maukaro","asciiname":"Maukaro","alternatenames":"Maukaro","latitude":"-8.61476","longitude":"121.52498","feature_class":"P","feature_code":"PPLA4","country_code":"ID","cc2":"","admin1_code":"18","admin2_code":"","admin3_code":"","admin4_code":"","population":"0","elevation":"","dem":"11","timezone":"Asia/Makassar","modification_date":"2012-01-21"},{"geonameid":"7380619","name":"Niopanda","asciiname":"Niopanda","alternatenames":"Niopanda","latitude":"-8.5513","longitude":"121.9042","feature_class":"P","feature_code":"PPLA4","country_code":"ID","cc2":"","admin1_code":"18","admin2_code":"","admin3_code":"","admin4_code":"","population":"0","elevation":"","dem":"571","timezone":"Asia/Makassar","modification_date":"2012-01-21"},{"geonameid":"7380637","name":"Loboniki","asciiname":"Loboniki","alternatenames":"Loboniki","latitude":"-8.5131","longitude":"121.927","feature_class":"P","feature_code":"PPLA4","country_code":"ID","cc2":"","admin1_code":"18","admin2_code":"","admin3_code":"","admin4_code":"","population":"0","elevation":"","dem":"31","timezone":"Asia/Makassar","modification_date":"2012-01-21"},{"geonameid":"7380644","name":"Sokonaja","asciiname":"Sokonaja","alternatenames":"Sokonaja","latitude":"-8.5916","longitude":"121.9521","feature_class":"P","feature_code":"PPLA4","country_code":"ID","cc2":"","admin1_code":"18","admin2_code":"","admin3_code":"","admin4_code":"","population":"0","elevation":"","dem":"688","timezone":"Asia/Makassar","modification_date":"2012-01-21"},{"geonameid":"7380655","name":"Lokolande","asciiname":"Lokolande","alternatenames":"Lokolande","latitude":"-8.5261","longitude":"121.9715","feature_class":"P","feature_code":"PPLA4","country_code":"ID","cc2":"","admin1_code":"18","admin2_code":"","admin3_code":"","admin4_code":"","population":"0","elevation":"","dem":"69","timezone":"Asia/Makassar","modification_date":"2012-01-21"},{"geonameid":"7380656","name":"Kotabaru","asciiname":"Kotabaru","alternatenames":"Kotabaru","latitude":"-8.5104","longitude":"121.9911","feature_class":"P","feature_code":"PPLA3","country_code":"ID","cc2":"","admin1_code":"18","admin2_code":"","admin3_code":"","admin4_code":"","population":"0","elevation":"","dem":"28","timezone":"Asia/Makassar","modification_date":"2012-01-21"},{"geonameid":"7381967","name":"Melati","asciiname":"Melati","alternatenames":"Melati","latitude":"-8.5666","longitude":"118.9275","feature_class":"P","feature_code":"PPLA4","country_code":"ID","cc2":"","admin1_code":"17","admin2_code":"","admin3_code":"","admin4_code":"","population":"0","elevation":"","dem":"106","timezone":"Asia/Makassar","modification_date":"2012-01-21"},{"geonameid":"7381977","name":"Sangia","asciiname":"Sangia","alternatenames":"Sangia","latitude":"-8.5632","longitude":"118.9836","feature_class":"P","feature_code":"PPLA4","country_code":"ID","cc2":"","admin1_code":"17","admin2_code":"","admin3_code":"","admin4_code":"","population":"0","elevation":"","dem":"25","timezone":"Asia/Makassar","modification_date":"2012-01-21"},{"geonameid":"7381978","name":"Nae","asciiname":"Nae","alternatenames":"Nae","latitude":"-8.5646","longitude":"118.9816","feature_class":"P","feature_code":"PPLA4","country_code":"ID","cc2":"","admin1_code":"17","admin2_code":"","admin3_code":"","admin4_code":"","population":"0","elevation":"","dem":"28","timezone":"Asia/Makassar","modification_date":"2012-01-21"},{"geonameid":"7381980","name":"Raioi","asciiname":"Raioi","alternatenames":"Raioi","latitude":"-8.5632","longitude":"118.9793","feature_class":"P","feature_code":"PPLA4","country_code":"ID","cc2":"","admin1_code":"17","admin2_code":"","admin3_code":"","admin4_code":"","population":"0","elevation":"","dem":"27","timezone":"Asia/Makassar","modification_date":"2012-01-21"},{"geonameid":"7381983","name":"Bau","asciiname":"Bau","alternatenames":"Bau","latitude":"-8.5625","longitude":"118.9718","feature_class":"P","feature_code":"PPLA4","country_code":"ID","cc2":"","admin1_code":"17","admin2_code":"","admin3_code":"","admin4_code":"","population":"0","elevation":"","dem":"36","timezone":"Asia/Makassar","modification_date":"2012-01-21"},{"geonameid":"7381985","name":"Rasabau","asciiname":"Rasabau","alternatenames":"Rasabau","latitude":"-8.5662","longitude":"118.9845","feature_class":"P","feature_code":"PPLA4","country_code":"ID","cc2":"","admin1_code":"17","admin2_code":"","admin3_code":"","admin4_code":"","population":"0","elevation":"","dem":"25","timezone":"Asia/Makassar","modification_date":"2012-01-21"},{"geonameid":"7381989","name":"Kalede","asciiname":"Kalede","alternatenames":"Kalede","latitude":"-8.5714","longitude":"118.9875","feature_class":"P","feature_code":"PPLA4","country_code":"ID","cc2":"","admin1_code":"17","admin2_code":"","admin3_code":"","admin4_code":"","population":"0","elevation":"","dem":"23","timezone":"Asia/Makassar","modification_date":"2012-01-21"},{"geonameid":"7381990","name":"Naru","asciiname":"Naru","alternatenames":"Naru","latitude":"-8.572","longitude":"118.9929","feature_class":"P","feature_code":"PPLA3","country_code":"ID","cc2":"","admin1_code":"17","admin2_code":"","admin3_code":"","admin4_code":"","population":"0","elevation":"","dem":"18","timezone":"Asia/Makassar","modification_date":"2012-01-21"},{"geonameid":"7381996","name":"Sukamaju","asciiname":"Sukamaju","alternatenames":"Sukamaju","latitude":"-8.5736","longitude":"118.9725","feature_class":"P","feature_code":"PPLA4","country_code":"ID","cc2":"","admin1_code":"17","admin2_code":"","admin3_code":"","admin4_code":"","population":"0","elevation":"","dem":"24","timezone":"Asia/Makassar","modification_date":"2012-01-21"},{"geonameid":"7382002","name":"Wadusari","asciiname":"Wadusari","alternatenames":"Wadusari","latitude":"-8.5736","longitude":"118.908","feature_class":"P","feature_code":"PPLA4","country_code":"ID","cc2":"","admin1_code":"17","admin2_code":"","admin3_code":"","admin4_code":"","population":"0","elevation":"","dem":"130","timezone":"Asia/Makassar","modification_date":"2012-01-21"},{"geonameid":"7382007","name":"Lanta Timur","asciiname":"Lanta Timur","alternatenames":"Lanta Timur","latitude":"-8.618","longitude":"118.9994","feature_class":"P","feature_code":"PPLA4","country_code":"ID","cc2":"","admin1_code":"17","admin2_code":"","admin3_code":"","admin4_code":"","population":"0","elevation":"","dem":"21","timezone":"Asia/Makassar","modification_date":"2012-01-21"},{"geonameid":"7382010","name":"Balai","asciiname":"Balai","alternatenames":"Balai","latitude":"-8.5992","longitude":"118.9826","feature_class":"P","feature_code":"PPLA4","country_code":"ID","cc2":"","admin1_code":"17","admin2_code":"","admin3_code":"","admin4_code":"","population":"0","elevation":"","dem":"14","timezone":"Asia/Makassar","modification_date":"2012-01-21"},{"geonameid":"7383821","name":"Manggekompo","asciiname":"Manggekompo","alternatenames":"Manggekompo","latitude":"-8.4173","longitude":"118.6173","feature_class":"P","feature_code":"PPLA4","country_code":"ID","cc2":"","admin1_code":"17","admin2_code":"","admin3_code":"","admin4_code":"","population":"0","elevation":"","dem":"541","timezone":"Asia/Makassar","modification_date":"2012-01-21"},{"geonameid":"7383823","name":"Oo","asciiname":"Oo","alternatenames":"Oo","latitude":"-8.4215","longitude":"118.5979","feature_class":"P","feature_code":"PPLA4","country_code":"ID","cc2":"","admin1_code":"17","admin2_code":"","admin3_code":"","admin4_code":"","population":"0","elevation":"","dem":"674","timezone":"Asia/Makassar","modification_date":"2012-01-21"},{"geonameid":"7383830","name":"Donggo","asciiname":"Donggo","alternatenames":"Donggo","latitude":"-8.4247","longitude":"118.5952","feature_class":"P","feature_code":"PPLA3","country_code":"ID","cc2":"","admin1_code":"17","admin2_code":"","admin3_code":"","admin4_code":"","population":"0","elevation":"","dem":"690","timezone":"Asia/Makassar","modification_date":"2012-01-21"},{"geonameid":"7383832","name":"Manggenae","asciiname":"Manggenae","alternatenames":"Manggenae","latitude":"-8.4305","longitude":"118.6176","feature_class":"P","feature_code":"PPLA4","country_code":"ID","cc2":"","admin1_code":"17","admin2_code":"","admin3_code":"","admin4_code":"","population":"0","elevation":"","dem":"482","timezone":"Asia/Makassar","modification_date":"2012-01-21"},{"geonameid":"7383835","name":"Sangari","asciiname":"Sangari","alternatenames":"Sangari","latitude":"-8.4416","longitude":"118.5794","feature_class":"P","feature_code":"PPLA4","country_code":"ID","cc2":"","admin1_code":"17","admin2_code":"","admin3_code":"","admin4_code":"","population":"0","elevation":"","dem":"581","timezone":"Asia/Makassar","modification_date":"2012-01-21"},{"geonameid":"7383868","name":"Palama","asciiname":"Palama","alternatenames":"Palama","latitude":"-8.4746","longitude":"118.5373","feature_class":"P","feature_code":"PPLA4","country_code":"ID","cc2":"","admin1_code":"17","admin2_code":"","admin3_code":"","admin4_code":"","population":"0","elevation":"","dem":"323","timezone":"Asia/Makassar","modification_date":"2012-01-21"},{"geonameid":"7384380","name":"Sangiang","asciiname":"Sangiang","alternatenames":"Sangiang","latitude":"-8.2969","longitude":"118.9332","feature_class":"P","feature_code":"PPLA4","country_code":"ID","cc2":"","admin1_code":"17","admin2_code":"","admin3_code":"","admin4_code":"","population":"0","elevation":"","dem":"11","timezone":"Asia/Makassar","modification_date":"2012-01-21"},{"geonameid":"7384407","name":"Hidirasa","asciiname":"Hidirasa","alternatenames":"Hidirasa","latitude":"-8.3249","longitude":"118.9218","feature_class":"P","feature_code":"PPLA4","country_code":"ID","cc2":"","admin1_code":"17","admin2_code":"","admin3_code":"","admin4_code":"","population":"0","elevation":"","dem":"30","timezone":"Asia/Makassar","modification_date":"2012-01-21"},{"geonameid":"7384412","name":"Oitui","asciiname":"Oitui","alternatenames":"Oitui","latitude":"-8.3331","longitude":"118.9782","feature_class":"P","feature_code":"PPLA4","country_code":"ID","cc2":"","admin1_code":"17","admin2_code":"","admin3_code":"","admin4_code":"","population":"0","elevation":"","dem":"24","timezone":"Asia/Makassar","modification_date":"2012-01-21"},{"geonameid":"7384417","name":"Bantawora","asciiname":"Bantawora","alternatenames":"Bantawora","latitude":"-8.326","longitude":"118.8938","feature_class":"P","feature_code":"PPLA4","country_code":"ID","cc2":"","admin1_code":"17","admin2_code":"","admin3_code":"","admin4_code":"","population":"0","elevation":"","dem":"54","timezone":"Asia/Makassar","modification_date":"2012-01-21"},{"geonameid":"7384423","name":"Tawali","asciiname":"Tawali","alternatenames":"Tawali","latitude":"-8.3407","longitude":"118.9145","feature_class":"P","feature_code":"PPLA3","country_code":"ID","cc2":"","admin1_code":"17","admin2_code":"","admin3_code":"","admin4_code":"","population":"0","elevation":"","dem":"57","timezone":"Asia/Makassar","modification_date":"2012-01-21"},{"geonameid":"7384424","name":"Kara","asciiname":"Kara","alternatenames":"Kara","latitude":"-8.3401","longitude":"118.9187","feature_class":"P","feature_code":"PPLA4","country_code":"ID","cc2":"","admin1_code":"17","admin2_code":"","admin3_code":"","admin4_code":"","population":"0","elevation":"","dem":"52","timezone":"Asia/Makassar","modification_date":"2012-01-21"},{"geonameid":"7384453","name":"Benteng","asciiname":"Benteng","alternatenames":"Benteng","latitude":"-8.362","longitude":"118.9167","feature_class":"P","feature_code":"PPLA4","country_code":"ID","cc2":"","admin1_code":"17","admin2_code":"","admin3_code":"","admin4_code":"","population":"0","elevation":"","dem":"77","timezone":"Asia/Makassar","modification_date":"2012-01-21"},{"geonameid":"7385748","name":"Tangratte","asciiname":"Tangratte","alternatenames":"Tangratte","latitude":"-3.0497","longitude":"119.7643","feature_class":"P","feature_code":"PPLA3","country_code":"ID","cc2":"","admin1_code":"38","admin2_code":"","admin3_code":"","admin4_code":"","population":"0","elevation":"","dem":"848","timezone":"Asia/Makassar","modification_date":"2012-01-21"},{"geonameid":"7385892","name":"Totumbang","asciiname":"Totumbang","alternatenames":"Totumbang","latitude":"-3.0779","longitude":"119.9211","feature_class":"P","feature_code":"PPLA3","country_code":"ID","cc2":"","admin1_code":"38","admin2_code":"","admin3_code":"","admin4_code":"","population":"0","elevation":"","dem":"788","timezone":"Asia/Makassar","modification_date":"2012-01-21"},{"geonameid":"7389150","name":"Tawui","asciiname":"Tawui","alternatenames":"Tawui","latitude":"-10.143","longitude":"120.073","feature_class":"P","feature_code":"PPLA4","country_code":"ID","cc2":"","admin1_code":"18","admin2_code":"","admin3_code":"","admin4_code":"","population":"0","elevation":"","dem":"30","timezone":"Asia/Makassar","modification_date":"2012-01-21"},{"geonameid":"7389226","name":"Nggongi","asciiname":"Nggongi","alternatenames":"Nggongi","latitude":"-10.1944","longitude":"120.2336","feature_class":"P","feature_code":"PPLA3","country_code":"ID","cc2":"","admin1_code":"18","admin2_code":"","admin3_code":"","admin4_code":"","population":"0","elevation":"","dem":"29","timezone":"Asia/Makassar","modification_date":"2012-01-21"},{"geonameid":"7389227","name":"Nggongi Satu","asciiname":"Nggongi Satu","alternatenames":"Nggongi 1,Nggongi Satu","latitude":"-10.195","longitude":"120.2313","feature_class":"P","feature_code":"PPLA4","country_code":"ID","cc2":"","admin1_code":"18","admin2_code":"","admin3_code":"","admin4_code":"","population":"0","elevation":"","dem":"28","timezone":"Asia/Makassar","modification_date":"2012-01-21"},{"geonameid":"7389385","name":"Mburukullu","asciiname":"Mburukullu","alternatenames":"Mburukullu","latitude":"-10.0776","longitude":"120.7569","feature_class":"P","feature_code":"PPLA4","country_code":"ID","cc2":"","admin1_code":"18","admin2_code":"","admin3_code":"","admin4_code":"","population":"0","elevation":"","dem":"96","timezone":"Asia/Makassar","modification_date":"2012-01-21"},{"geonameid":"7389418","name":"Palamadu","asciiname":"Palamadu","alternatenames":"Katakoe,Kataku,Palamadu","latitude":"-10.0396","longitude":"120.754","feature_class":"P","feature_code":"PPLA4","country_code":"ID","cc2":"","admin1_code":"18","admin2_code":"","admin3_code":"","admin4_code":"","population":"0","elevation":"","dem":"96","timezone":"Asia/Makassar","modification_date":"2013-03-06"},{"geonameid":"7389509","name":"Billa","asciiname":"Billa","alternatenames":"Billa","latitude":"-9.9469","longitude":"120.0776","feature_class":"P","feature_code":"PPLA4","country_code":"ID","cc2":"","admin1_code":"18","admin2_code":"","admin3_code":"","admin4_code":"","population":"0","elevation":"","dem":"242","timezone":"Asia/Makassar","modification_date":"2012-01-21"},{"geonameid":"7389510","name":"Malahar","asciiname":"Malahar","alternatenames":"Malahar","latitude":"-9.9492","longitude":"120.0719","feature_class":"P","feature_code":"PPLA3","country_code":"ID","cc2":"","admin1_code":"18","admin2_code":"","admin3_code":"","admin4_code":"","population":"0","elevation":"","dem":"241","timezone":"Asia/Makassar","modification_date":"2012-01-21"},{"geonameid":"7389521","name":"Karita","asciiname":"Karita","alternatenames":"Karita","latitude":"-9.9305","longitude":"120.1006","feature_class":"P","feature_code":"PPLA4","country_code":"ID","cc2":"","admin1_code":"18","admin2_code":"","admin3_code":"","admin4_code":"","population":"0","elevation":"","dem":"206","timezone":"Asia/Makassar","modification_date":"2012-01-21"},{"geonameid":"7389685","name":"Laetako","asciiname":"Laetako","alternatenames":"Laetako","latitude":"-9.8316","longitude":"120.3905","feature_class":"P","feature_code":"PPLA4","country_code":"ID","cc2":"","admin1_code":"18","admin2_code":"","admin3_code":"","admin4_code":"","population":"0","elevation":"","dem":"400","timezone":"Asia/Makassar","modification_date":"2012-01-21"},{"geonameid":"7389704","name":"Laau","asciiname":"Laau","alternatenames":"Laau","latitude":"-9.8594","longitude":"120.4342","feature_class":"P","feature_code":"PPLA4","country_code":"ID","cc2":"","admin1_code":"18","admin2_code":"","admin3_code":"","admin4_code":"","population":"0","elevation":"","dem":"467","timezone":"Asia/Makassar","modification_date":"2012-01-21"},{"geonameid":"7389765","name":"Malabhaga","asciiname":"Malabhaga","alternatenames":"Malabhaga","latitude":"-8.884","longitude":"121.0057","feature_class":"P","feature_code":"PPLA4","country_code":"ID","cc2":"","admin1_code":"18","admin2_code":"","admin3_code":"","admin4_code":"","population":"0","elevation":"","dem":"507","timezone":"Asia/Makassar","modification_date":"2012-01-21"},{"geonameid":"7389780","name":"Dona","asciiname":"Dona","alternatenames":"Dona","latitude":"-8.9011","longitude":"121.0257","feature_class":"P","feature_code":"PPLA4","country_code":"ID","cc2":"","admin1_code":"18","admin2_code":"","admin3_code":"","admin4_code":"","population":"0","elevation":"","dem":"662","timezone":"Asia/Makassar","modification_date":"2012-01-21"},{"geonameid":"7389785","name":"Rutojawa","asciiname":"Rutojawa","alternatenames":"Rutojawa","latitude":"-8.9132","longitude":"121.0142","feature_class":"P","feature_code":"PPLA4","country_code":"ID","cc2":"","admin1_code":"18","admin2_code":"","admin3_code":"","admin4_code":"","population":"0","elevation":"","dem":"710","timezone":"Asia/Makassar","modification_date":"2012-01-21"},{"geonameid":"7389832","name":"Ngedhubasa","asciiname":"Ngedhubasa","alternatenames":"Ngedhubasa","latitude":"-8.9445","longitude":"121.0593","feature_class":"P","feature_code":"PPLA4","country_code":"ID","cc2":"","admin1_code":"18","admin2_code":"","admin3_code":"","admin4_code":"","population":"0","elevation":"","dem":"20","timezone":"Asia/Makassar","modification_date":"2012-01-21"},{"geonameid":"7389837","name":"Ngedhusuba","asciiname":"Ngedhusuba","alternatenames":"Ngedhusuba","latitude":"-8.9542","longitude":"121.032","feature_class":"P","feature_code":"PPLA4","country_code":"ID","cc2":"","admin1_code":"18","admin2_code":"","admin3_code":"","admin4_code":"","population":"0","elevation":"","dem":"30","timezone":"Asia/Makassar","modification_date":"2012-01-21"},{"geonameid":"7389891","name":"Heret","asciiname":"Heret","alternatenames":"Heret","latitude":"-8.4076","longitude":"120.6293","feature_class":"P","feature_code":"PPLA4","country_code":"ID","cc2":"","admin1_code":"18","admin2_code":"","admin3_code":"","admin4_code":"","population":"0","elevation":"","dem":"476","timezone":"Asia/Makassar","modification_date":"2012-01-21"},{"geonameid":"7389915","name":"Waenenda","asciiname":"Waenenda","alternatenames":"Waenenda","latitude":"-8.4539","longitude":"120.6359","feature_class":"P","feature_code":"PPLA4","country_code":"ID","cc2":"","admin1_code":"18","admin2_code":"","admin3_code":"","admin4_code":"","population":"0","elevation":"","dem":"542","timezone":"Asia/Makassar","modification_date":"2012-01-21"},{"geonameid":"7389924","name":"Rado","asciiname":"Rado","alternatenames":"Rado","latitude":"-8.474","longitude":"120.6709","feature_class":"P","feature_code":"PPLA4","country_code":"ID","cc2":"","admin1_code":"18","admin2_code":"","admin3_code":"","admin4_code":"","population":"0","elevation":"","dem":"766","timezone":"Asia/Makassar","modification_date":"2012-01-21"},{"geonameid":"7389939","name":"Reweng","asciiname":"Reweng","alternatenames":"Reweng","latitude":"-8.4992","longitude":"120.6439","feature_class":"P","feature_code":"PPLA4","country_code":"ID","cc2":"","admin1_code":"18","admin2_code":"","admin3_code":"","admin4_code":"","population":"0","elevation":"","dem":"734","timezone":"Asia/Makassar","modification_date":"2012-01-21"},{"geonameid":"7390236","name":"Nangahurebukitpermai","asciiname":"Nangahurebukitpermai","alternatenames":"Nangahurebukitpermai","latitude":"-8.5634","longitude":"122.1588","feature_class":"P","feature_code":"PPLA4","country_code":"ID","cc2":"","admin1_code":"18","admin2_code":"","admin3_code":"","admin4_code":"","population":"0","elevation":"","dem":"33","timezone":"Asia/Makassar","modification_date":"2012-01-21"},{"geonameid":"7390240","name":"Nangahure","asciiname":"Nangahure","alternatenames":"Nangahure","latitude":"-8.5697","longitude":"122.1661","feature_class":"P","feature_code":"PPLA4","country_code":"ID","cc2":"","admin1_code":"18","admin2_code":"","admin3_code":"","admin4_code":"","population":"0","elevation":"","dem":"33","timezone":"Asia/Makassar","modification_date":"2012-01-21"},{"geonameid":"7390254","name":"Urungpigang","asciiname":"Urungpigang","alternatenames":"Urungpigang","latitude":"-8.6034","longitude":"122.1878","feature_class":"P","feature_code":"PPLA4","country_code":"ID","cc2":"","admin1_code":"18","admin2_code":"","admin3_code":"","admin4_code":"","population":"0","elevation":"","dem":"56","timezone":"Asia/Makassar","modification_date":"2012-01-21"},{"geonameid":"7390260","name":"Wolomarang","asciiname":"Wolomarang","alternatenames":"Wolomarang","latitude":"-8.604","longitude":"122.1994","feature_class":"P","feature_code":"PPLA4","country_code":"ID","cc2":"","admin1_code":"18","admin2_code":"","admin3_code":"","admin4_code":"","population":"0","elevation":"","dem":"9","timezone":"Asia/Makassar","modification_date":"2012-01-21"},{"geonameid":"7390270","name":"Kotauneng","asciiname":"Kotauneng","alternatenames":"Kotauneng","latitude":"-8.6156","longitude":"122.216","feature_class":"P","feature_code":"PPLA4","country_code":"ID","cc2":"","admin1_code":"18","admin2_code":"","admin3_code":"","admin4_code":"","population":"0","elevation":"","dem":"13","timezone":"Asia/Makassar","modification_date":"2012-01-21"},{"geonameid":"7390272","name":"Kabor","asciiname":"Kabor","alternatenames":"Kabor","latitude":"-8.62066","longitude":"122.21484","feature_class":"P","feature_code":"PPLA4","country_code":"ID","cc2":"","admin1_code":"18","admin2_code":"","admin3_code":"","admin4_code":"","population":"0","elevation":"","dem":"14","timezone":"Asia/Makassar","modification_date":"2012-01-21"},{"geonameid":"7405984","name":"Sengguruhkrajan","asciiname":"Sengguruhkrajan","alternatenames":"Sengguruhkrajan","latitude":"-8.1729","longitude":"112.5497","feature_class":"P","feature_code":"PPLA4","country_code":"ID","cc2":"","admin1_code":"08","admin2_code":"","admin3_code":"","admin4_code":"","population":"0","elevation":"","dem":"314","timezone":"Asia/Jakarta","modification_date":"2012-01-21"},{"geonameid":"7406010","name":"Sumuran","asciiname":"Sumuran","alternatenames":"Sumuran","latitude":"-8.2103","longitude":"112.5542","feature_class":"P","feature_code":"PPLA4","country_code":"ID","cc2":"","admin1_code":"08","admin2_code":"","admin3_code":"","admin4_code":"","population":"0","elevation":"","dem":"334","timezone":"Asia/Jakarta","modification_date":"2012-01-21"},{"geonameid":"7406035","name":"Banjarejokrajan","asciiname":"Banjarejokrajan","alternatenames":"Banjarejokrajan","latitude":"-8.1822","longitude":"112.6248","feature_class":"P","feature_code":"PPLA4","country_code":"ID","cc2":"","admin1_code":"08","admin2_code":"","admin3_code":"","admin4_code":"","population":"0","elevation":"","dem":"350","timezone":"Asia/Jakarta","modification_date":"2012-01-21"},{"geonameid":"7406041","name":"Bulupitukrajan","asciiname":"Bulupitukrajan","alternatenames":"Bulupitukrajan","latitude":"-8.1331","longitude":"112.6023","feature_class":"P","feature_code":"PPLA4","country_code":"ID","cc2":"","admin1_code":"08","admin2_code":"","admin3_code":"","admin4_code":"","population":"0","elevation":"","dem":"352","timezone":"Asia/Jakarta","modification_date":"2012-01-21"},{"geonameid":"7406047","name":"Kedungkrajan","asciiname":"Kedungkrajan","alternatenames":"Kedungkrajan","latitude":"-8.1476","longitude":"112.5827","feature_class":"P","feature_code":"PPLA4","country_code":"ID","cc2":"","admin1_code":"08","admin2_code":"","admin3_code":"","admin4_code":"","population":"0","elevation":"","dem":"337","timezone":"Asia/Jakarta","modification_date":"2012-01-21"},{"geonameid":"7406052","name":"Sukosarikrajan","asciiname":"Sukosarikrajan","alternatenames":"Sukosarikrajan","latitude":"-8.1606","longitude":"112.6009","feature_class":"P","feature_code":"PPLA4","country_code":"ID","cc2":"","admin1_code":"08","admin2_code":"","admin3_code":"","admin4_code":"","population":"0","elevation":"","dem":"360","timezone":"Asia/Jakarta","modification_date":"2012-01-21"},{"geonameid":"7406150","name":"Sidodadi","asciiname":"Sidodadi","alternatenames":"Sidodadi","latitude":"-8.3645","longitude":"113.6558","feature_class":"P","feature_code":"PPLA4","country_code":"ID","cc2":"","admin1_code":"08","admin2_code":"","admin3_code":"","admin4_code":"","population":"0","elevation":"","dem":"30","timezone":"Asia/Jakarta","modification_date":"2012-01-21"},{"geonameid":"7406164","name":"Krajan Suco","asciiname":"Krajan Suco","alternatenames":"Krajan Suco","latitude":"-8.2672","longitude":"113.7496","feature_class":"P","feature_code":"PPLA4","country_code":"ID","cc2":"","admin1_code":"08","admin2_code":"","admin3_code":"","admin4_code":"","population":"0","elevation":"","dem":"113","timezone":"Asia/Jakarta","modification_date":"2012-01-21"},{"geonameid":"7406165","name":"Sumber Tengah","asciiname":"Sumber Tengah","alternatenames":"Sumber Tengah","latitude":"-8.2596","longitude":"113.7246","feature_class":"P","feature_code":"PPLA4","country_code":"ID","cc2":"","admin1_code":"08","admin2_code":"","admin3_code":"","admin4_code":"","population":"0","elevation":"","dem":"98","timezone":"Asia/Jakarta","modification_date":"2012-01-21"},{"geonameid":"7406167","name":"Peji Satu","asciiname":"Peji Satu","alternatenames":"Peji Satu","latitude":"-8.2638","longitude":"113.7063","feature_class":"P","feature_code":"PPLA4","country_code":"ID","cc2":"","admin1_code":"08","admin2_code":"","admin3_code":"","admin4_code":"","population":"0","elevation":"","dem":"75","timezone":"Asia/Jakarta","modification_date":"2012-01-21"},{"geonameid":"7406171","name":"Gayasan Kulon","asciiname":"Gayasan Kulon","alternatenames":"Gayasan Kulon","latitude":"-8.2657","longitude":"113.6634","feature_class":"P","feature_code":"PPLA4","country_code":"ID","cc2":"","admin1_code":"08","admin2_code":"","admin3_code":"","admin4_code":"","population":"0","elevation":"","dem":"63","timezone":"Asia/Jakarta","modification_date":"2012-01-21"},{"geonameid":"7406190","name":"Tamansari","asciiname":"Tamansari","alternatenames":"Tamansari","latitude":"-8.281","longitude":"113.7232","feature_class":"P","feature_code":"PPLA4","country_code":"ID","cc2":"","admin1_code":"08","admin2_code":"","admin3_code":"","admin4_code":"","population":"0","elevation":"","dem":"94","timezone":"Asia/Jakarta","modification_date":"2012-01-21"},{"geonameid":"7406213","name":"Tempurejo","asciiname":"Tempurejo","alternatenames":"Tempurejo","latitude":"-8.2994","longitude":"113.6793","feature_class":"P","feature_code":"PPLA3","country_code":"ID","cc2":"","admin1_code":"08","admin2_code":"","admin3_code":"","admin4_code":"","population":"0","elevation":"","dem":"60","timezone":"Asia/Jakarta","modification_date":"2012-01-21"},{"geonameid":"7406216","name":"Sruni","asciiname":"Sruni","alternatenames":"Sruni","latitude":"-8.2983","longitude":"113.6369","feature_class":"P","feature_code":"PPLA4","country_code":"ID","cc2":"","admin1_code":"08","admin2_code":"","admin3_code":"","admin4_code":"","population":"0","elevation":"","dem":"50","timezone":"Asia/Jakarta","modification_date":"2012-01-21"},{"geonameid":"7406217","name":"Andongsari","asciiname":"Andongsari","alternatenames":"Andongsari","latitude":"-8.3661","longitude":"113.634","feature_class":"P","feature_code":"PPLA4","country_code":"ID","cc2":"","admin1_code":"08","admin2_code":"","admin3_code":"","admin4_code":"","population":"0","elevation":"","dem":"26","timezone":"Asia/Jakarta","modification_date":"2012-01-21"},{"geonameid":"7406224","name":"Jatisari","asciiname":"Jatisari","alternatenames":"Jatisari","latitude":"-8.3183","longitude":"113.6352","feature_class":"P","feature_code":"PPLA4","country_code":"ID","cc2":"","admin1_code":"08","admin2_code":"","admin3_code":"","admin4_code":"","population":"0","elevation":"","dem":"41","timezone":"Asia/Jakarta","modification_date":"2012-01-21"},{"geonameid":"7406238","name":"Sumberejo","asciiname":"Sumberejo","alternatenames":"Sumberejo","latitude":"-8.3424","longitude":"113.6816","feature_class":"P","feature_code":"PPLA4","country_code":"ID","cc2":"","admin1_code":"08","admin2_code":"","admin3_code":"","admin4_code":"","population":"0","elevation":"","dem":"53","timezone":"Asia/Jakarta","modification_date":"2012-01-21"},{"geonameid":"7406240","name":"Pontang Tengah","asciiname":"Pontang Tengah","alternatenames":"Pontang Tengah","latitude":"-8.3464","longitude":"113.6376","feature_class":"P","feature_code":"PPLA4","country_code":"ID","cc2":"","admin1_code":"08","admin2_code":"","admin3_code":"","admin4_code":"","population":"0","elevation":"","dem":"31","timezone":"Asia/Jakarta","modification_date":"2012-01-21"},{"geonameid":"7406343","name":"Sumbersalak","asciiname":"Sumbersalak","alternatenames":"Sumbersalak","latitude":"-8.1579","longitude":"113.8835","feature_class":"P","feature_code":"PPLA4","country_code":"ID","cc2":"","admin1_code":"08","admin2_code":"","admin3_code":"","admin4_code":"","population":"0","elevation":"","dem":"399","timezone":"Asia/Jakarta","modification_date":"2012-01-21"},{"geonameid":"7406364","name":"Sumberbulus Dua","asciiname":"Sumberbulus Dua","alternatenames":"Sumberbulus Dua","latitude":"-8.1415","longitude":"113.8972","feature_class":"P","feature_code":"PPLA4","country_code":"ID","cc2":"","admin1_code":"08","admin2_code":"","admin3_code":"","admin4_code":"","population":"0","elevation":"","dem":"438","timezone":"Asia/Jakarta","modification_date":"2012-01-21"},{"geonameid":"7406388","name":"Sidomulyo","asciiname":"Sidomulyo","alternatenames":"Sidomulyo","latitude":"-8.2247","longitude":"113.9278","feature_class":"P","feature_code":"PPLA4","country_code":"ID","cc2":"","admin1_code":"08","admin2_code":"","admin3_code":"","admin4_code":"","population":"0","elevation":"","dem":"554","timezone":"Asia/Jakarta","modification_date":"2012-01-21"},{"geonameid":"7406442","name":"Pengotaan","asciiname":"Pengotaan","alternatenames":"Pengotaan","latitude":"-8.0157","longitude":"113.779","feature_class":"P","feature_code":"PPLA4","country_code":"ID","cc2":"","admin1_code":"08","admin2_code":"","admin3_code":"","admin4_code":"","population":"0","elevation":"","dem":"359","timezone":"Asia/Jakarta","modification_date":"2012-01-21"},{"geonameid":"7406452","name":"Krajan Satu Pekauman","asciiname":"Krajan Satu Pekauman","alternatenames":"Krajan Satu,Krajan Satu Pekauman","latitude":"-8.0013","longitude":"113.7934","feature_class":"P","feature_code":"PPLA4","country_code":"ID","cc2":"","admin1_code":"08","admin2_code":"","admin3_code":"","admin4_code":"","population":"0","elevation":"","dem":"311","timezone":"Asia/Jakarta","modification_date":"2012-01-21"},{"geonameid":"7406453","name":"Sumberkemuning","asciiname":"Sumberkemuning","alternatenames":"Sumberkemuning","latitude":"-8.0014","longitude":"113.8351","feature_class":"P","feature_code":"PPLA4","country_code":"ID","cc2":"","admin1_code":"08","admin2_code":"","admin3_code":"","admin4_code":"","population":"0","elevation":"","dem":"335","timezone":"Asia/Jakarta","modification_date":"2012-01-21"},{"geonameid":"7406459","name":"Sumberjeruk","asciiname":"Sumberjeruk","alternatenames":"Sumberjeruk","latitude":"-8.009","longitude":"113.8716","feature_class":"P","feature_code":"PPLA4","country_code":"ID","cc2":"","admin1_code":"08","admin2_code":"","admin3_code":"","admin4_code":"","population":"0","elevation":"","dem":"404","timezone":"Asia/Jakarta","modification_date":"2012-01-21"},{"geonameid":"7406470","name":"Kalianyar Selatan","asciiname":"Kalianyar Selatan","alternatenames":"Kalianyar Selatan","latitude":"-8.0152","longitude":"113.8291","feature_class":"P","feature_code":"PPLA3","country_code":"ID","cc2":"","admin1_code":"08","admin2_code":"","admin3_code":"","admin4_code":"","population":"0","elevation":"","dem":"349","timezone":"Asia/Jakarta","modification_date":"2012-01-21"},{"geonameid":"7406473","name":"Kembangpasar","asciiname":"Kembangpasar","alternatenames":"Kembangpasar","latitude":"-8.0117","longitude":"113.8637","feature_class":"P","feature_code":"PPLA4","country_code":"ID","cc2":"","admin1_code":"08","admin2_code":"","admin3_code":"","admin4_code":"","population":"0","elevation":"","dem":"386","timezone":"Asia/Jakarta","modification_date":"2012-01-21"},{"geonameid":"7406481","name":"Kemirian","asciiname":"Kemirian","alternatenames":"Kemirian","latitude":"-8.0235","longitude":"113.8342","feature_class":"P","feature_code":"PPLA4","country_code":"ID","cc2":"","admin1_code":"08","admin2_code":"","admin3_code":"","admin4_code":"","population":"0","elevation":"","dem":"348","timezone":"Asia/Jakarta","modification_date":"2012-01-21"},{"geonameid":"7406483","name":"Kidulsawah","asciiname":"Kidulsawah","alternatenames":"Kidulsawah","latitude":"-8.0205","longitude":"113.8262","feature_class":"P","feature_code":"PPLA4","country_code":"ID","cc2":"","admin1_code":"08","admin2_code":"","admin3_code":"","admin4_code":"","population":"0","elevation":"","dem":"347","timezone":"Asia/Jakarta","modification_date":"2012-01-21"},{"geonameid":"7406491","name":"Tanahwulan","asciiname":"Tanahwulan","alternatenames":"Tanahwulan","latitude":"-8.0293","longitude":"113.7592","feature_class":"P","feature_code":"PPLA4","country_code":"ID","cc2":"","admin1_code":"08","admin2_code":"","admin3_code":"","admin4_code":"","population":"0","elevation":"","dem":"450","timezone":"Asia/Jakarta","modification_date":"2012-01-21"},{"geonameid":"7406492","name":"Pujerbaru","asciiname":"Pujerbaru","alternatenames":"Pujerbaru","latitude":"-8.0322","longitude":"113.7621","feature_class":"P","feature_code":"PPLA4","country_code":"ID","cc2":"","admin1_code":"08","admin2_code":"","admin3_code":"","admin4_code":"","population":"0","elevation":"","dem":"430","timezone":"Asia/Jakarta","modification_date":"2012-01-21"},{"geonameid":"7406493","name":"Gambangan","asciiname":"Gambangan","alternatenames":"Gambangan","latitude":"-8.0322","longitude":"113.7689","feature_class":"P","feature_code":"PPLA4","country_code":"ID","cc2":"","admin1_code":"08","admin2_code":"","admin3_code":"","admin4_code":"","population":"0","elevation":"","dem":"396","timezone":"Asia/Jakarta","modification_date":"2012-01-21"},{"geonameid":"7406499","name":"Sumur","asciiname":"Sumur","alternatenames":"Sumur","latitude":"-8.03","longitude":"113.8172","feature_class":"P","feature_code":"PPLA4","country_code":"ID","cc2":"","admin1_code":"08","admin2_code":"","admin3_code":"","admin4_code":"","population":"0","elevation":"","dem":"332","timezone":"Asia/Jakarta","modification_date":"2012-01-21"},{"geonameid":"7406502","name":"Krajan Pocangan","asciiname":"Krajan Pocangan","alternatenames":"Krajan,Krajan Pocangan","latitude":"-8.0299","longitude":"113.8526","feature_class":"P","feature_code":"PPLA4","country_code":"ID","cc2":"","admin1_code":"08","admin2_code":"","admin3_code":"","admin4_code":"","population":"0","elevation":"","dem":"376","timezone":"Asia/Jakarta","modification_date":"2012-01-21"},{"geonameid":"7406506","name":"Mengenkrajan","asciiname":"Mengenkrajan","alternatenames":"Mengenkrajan","latitude":"-8.0395","longitude":"113.8512","feature_class":"P","feature_code":"PPLA4","country_code":"ID","cc2":"","admin1_code":"08","admin2_code":"","admin3_code":"","admin4_code":"","population":"0","elevation":"","dem":"379","timezone":"Asia/Jakarta","modification_date":"2012-01-21"},{"geonameid":"7406511","name":"Karangmelok","asciiname":"Karangmelok","alternatenames":"Karangmelok","latitude":"-8.0414","longitude":"113.8293","feature_class":"P","feature_code":"PPLA4","country_code":"ID","cc2":"","admin1_code":"08","admin2_code":"","admin3_code":"","admin4_code":"","population":"0","elevation":"","dem":"337","timezone":"Asia/Jakarta","modification_date":"2012-01-21"},{"geonameid":"7406519","name":"Krajan Dua Sumbersari","asciiname":"Krajan Dua Sumbersari","alternatenames":"Krajan Dua,Krajan Dua Sumbersari","latitude":"-8.0344","longitude":"113.7806","feature_class":"P","feature_code":"PPLA4","country_code":"ID","cc2":"","admin1_code":"08","admin2_code":"","admin3_code":"","admin4_code":"","population":"0","elevation":"","dem":"357","timezone":"Asia/Jakarta","modification_date":"2012-01-21"},{"geonameid":"7406520","name":"Krajan Atas Suger Lor","asciiname":"Krajan Atas Suger Lor","alternatenames":"Krajan Atas,Krajan Atas Suger Lor","latitude":"-8.0381","longitude":"113.7789","feature_class":"P","feature_code":"PPLA4","country_code":"ID","cc2":"","admin1_code":"08","admin2_code":"","admin3_code":"","admin4_code":"","population":"0","elevation":"","dem":"330","timezone":"Asia/Jakarta","modification_date":"2012-01-21"},{"geonameid":"7406529","name":"Sumberpakem","asciiname":"Sumberpakem","alternatenames":"Sumberpakem","latitude":"-8.0479","longitude":"113.8026","feature_class":"P","feature_code":"PPLA4","country_code":"ID","cc2":"","admin1_code":"08","admin2_code":"","admin3_code":"","admin4_code":"","population":"0","elevation":"","dem":"297","timezone":"Asia/Jakarta","modification_date":"2012-01-21"},{"geonameid":"7406534","name":"Dawuhanmangli","asciiname":"Dawuhanmangli","alternatenames":"Dawuhanmangli","latitude":"-8.0513","longitude":"113.8439","feature_class":"P","feature_code":"PPLA4","country_code":"ID","cc2":"","admin1_code":"08","admin2_code":"","admin3_code":"","admin4_code":"","population":"0","elevation":"","dem":"362","timezone":"Asia/Jakarta","modification_date":"2012-01-21"},{"geonameid":"7406540","name":"Plereyan","asciiname":"Plereyan","alternatenames":"Plereyan","latitude":"-8.0484","longitude":"113.8715","feature_class":"P","feature_code":"PPLA4","country_code":"ID","cc2":"","admin1_code":"08","admin2_code":"","admin3_code":"","admin4_code":"","population":"0","elevation":"","dem":"432","timezone":"Asia/Jakarta","modification_date":"2012-01-21"},{"geonameid":"7406542","name":"Sumberpakem","asciiname":"Sumberpakem","alternatenames":"Sumberpakem","latitude":"-8.0562","longitude":"113.8714","feature_class":"P","feature_code":"PPLA4","country_code":"ID","cc2":"","admin1_code":"08","admin2_code":"","admin3_code":"","admin4_code":"","population":"0","elevation":"","dem":"423","timezone":"Asia/Jakarta","modification_date":"2012-01-21"},{"geonameid":"7406543","name":"Krajan Sumberdanti","asciiname":"Krajan Sumberdanti","alternatenames":"Krajan,Krajan Sumberdanti","latitude":"-8.0521","longitude":"113.863","feature_class":"P","feature_code":"PPLA4","country_code":"ID","cc2":"","admin1_code":"08","admin2_code":"","admin3_code":"","admin4_code":"","population":"0","elevation":"","dem":"417","timezone":"Asia/Jakarta","modification_date":"2012-01-21"},{"geonameid":"7406551","name":"Ragang","asciiname":"Ragang","alternatenames":"Ragang","latitude":"-8.0505","longitude":"113.8295","feature_class":"P","feature_code":"PPLA4","country_code":"ID","cc2":"","admin1_code":"08","admin2_code":"","admin3_code":"","admin4_code":"","population":"0","elevation":"","dem":"338","timezone":"Asia/Jakarta","modification_date":"2012-01-21"},{"geonameid":"7406552","name":"Sukokerto","asciiname":"Sukokerto","alternatenames":"Sukokerto","latitude":"-8.0549","longitude":"113.8137","feature_class":"P","feature_code":"PPLA4","country_code":"ID","cc2":"","admin1_code":"08","admin2_code":"","admin3_code":"","admin4_code":"","population":"0","elevation":"","dem":"312","timezone":"Asia/Jakarta","modification_date":"2012-01-21"},{"geonameid":"7406557","name":"Mojogemi","asciiname":"Mojogemi","alternatenames":"Mojogemi","latitude":"-8.0578","longitude":"113.7972","feature_class":"P","feature_code":"PPLA4","country_code":"ID","cc2":"","admin1_code":"08","admin2_code":"","admin3_code":"","admin4_code":"","population":"0","elevation":"","dem":"273","timezone":"Asia/Jakarta","modification_date":"2012-01-21"},{"geonameid":"7406560","name":"Krajan Timur Suger Kidul","asciiname":"Krajan Timur Suger Kidul","alternatenames":"Krajan Timur,Krajan Timur Suger Kidul","latitude":"-8.0526","longitude":"113.7809","feature_class":"P","feature_code":"PPLA4","country_code":"ID","cc2":"","admin1_code":"08","admin2_code":"","admin3_code":"","admin4_code":"","population":"0","elevation":"","dem":"284","timezone":"Asia/Jakarta","modification_date":"2012-01-21"},{"geonameid":"7406563","name":"Sukojember","asciiname":"Sukojember","alternatenames":"Sukojember","latitude":"-8.059","longitude":"113.7698","feature_class":"P","feature_code":"PPLA4","country_code":"ID","cc2":"","admin1_code":"08","admin2_code":"","admin3_code":"","admin4_code":"","population":"0","elevation":"","dem":"311","timezone":"Asia/Jakarta","modification_date":"2012-01-21"},{"geonameid":"7406584","name":"Biting","asciiname":"Biting","alternatenames":"Biting","latitude":"-8.073","longitude":"113.8575","feature_class":"P","feature_code":"PPLA4","country_code":"ID","cc2":"","admin1_code":"08","admin2_code":"","admin3_code":"","admin4_code":"","population":"0","elevation":"","dem":"383","timezone":"Asia/Jakarta","modification_date":"2012-01-21"},{"geonameid":"7406586","name":"Sumbergayam","asciiname":"Sumbergayam","alternatenames":"Sumbergayam","latitude":"-8.0744","longitude":"113.8305","feature_class":"P","feature_code":"PPLA4","country_code":"ID","cc2":"","admin1_code":"08","admin2_code":"","admin3_code":"","admin4_code":"","population":"0","elevation":"","dem":"323","timezone":"Asia/Jakarta","modification_date":"2012-01-21"},{"geonameid":"7406593","name":"Duklengkong","asciiname":"Duklengkong","alternatenames":"Duklengkong","latitude":"-8.0753","longitude":"113.7986","feature_class":"P","feature_code":"PPLA4","country_code":"ID","cc2":"","admin1_code":"08","admin2_code":"","admin3_code":"","admin4_code":"","population":"0","elevation":"","dem":"258","timezone":"Asia/Jakarta","modification_date":"2012-01-21"},{"geonameid":"7406600","name":"Sukowiryo","asciiname":"Sukowiryo","alternatenames":"Sukowiryo","latitude":"-8.0818","longitude":"113.7754","feature_class":"P","feature_code":"PPLA4","country_code":"ID","cc2":"","admin1_code":"08","admin2_code":"","admin3_code":"","admin4_code":"","population":"0","elevation":"","dem":"224","timezone":"Asia/Jakarta","modification_date":"2012-01-21"},{"geonameid":"7406606","name":"Sumberwaru","asciiname":"Sumberwaru","alternatenames":"Sumberwaru","latitude":"-8.0823","longitude":"113.8246","feature_class":"P","feature_code":"PPLA4","country_code":"ID","cc2":"","admin1_code":"08","admin2_code":"","admin3_code":"","admin4_code":"","population":"0","elevation":"","dem":"312","timezone":"Asia/Jakarta","modification_date":"2012-01-21"},{"geonameid":"7406612","name":"Sukosari","asciiname":"Sukosari","alternatenames":"Sukosari","latitude":"-8.0838","longitude":"113.8413","feature_class":"P","feature_code":"PPLA4","country_code":"ID","cc2":"","admin1_code":"08","admin2_code":"","admin3_code":"","admin4_code":"","population":"0","elevation":"","dem":"340","timezone":"Asia/Jakarta","modification_date":"2012-01-21"},{"geonameid":"7406624","name":"Sukorejo","asciiname":"Sukorejo","alternatenames":"Sukorejo","latitude":"-8.0827","longitude":"113.8269","feature_class":"P","feature_code":"PPLA4","country_code":"ID","cc2":"","admin1_code":"08","admin2_code":"","admin3_code":"","admin4_code":"","population":"0","elevation":"","dem":"312","timezone":"Asia/Jakarta","modification_date":"2012-01-21"},{"geonameid":"7406626","name":"Klole","asciiname":"Klole","alternatenames":"Klole","latitude":"-8.0839","longitude":"113.8238","feature_class":"P","feature_code":"PPLA4","country_code":"ID","cc2":"","admin1_code":"08","admin2_code":"","admin3_code":"","admin4_code":"","population":"0","elevation":"","dem":"312","timezone":"Asia/Jakarta","modification_date":"2012-01-21"},{"geonameid":"7406635","name":"Krajan Barat Jelbuk","asciiname":"Krajan Barat Jelbuk","alternatenames":"Krajan Barat,Krajan Barat Jelbuk","latitude":"-8.0873","longitude":"113.7592","feature_class":"P","feature_code":"PPLA4","country_code":"ID","cc2":"","admin1_code":"08","admin2_code":"","admin3_code":"","admin4_code":"","population":"0","elevation":"","dem":"254","timezone":"Asia/Jakarta","modification_date":"2012-01-21"},{"geonameid":"7406637","name":"Krajan Barat Candijati","asciiname":"Krajan Barat Candijati","alternatenames":"Krajan Barat,Krajan Barat Candijati","latitude":"-8.0976","longitude":"113.7562","feature_class":"P","feature_code":"PPLA4","country_code":"ID","cc2":"","admin1_code":"08","admin2_code":"","admin3_code":"","admin4_code":"","population":"0","elevation":"","dem":"247","timezone":"Asia/Jakarta","modification_date":"2012-01-21"},{"geonameid":"7406640","name":"Grugul","asciiname":"Grugul","alternatenames":"Grugul","latitude":"-8.1007","longitude":"113.7899","feature_class":"P","feature_code":"PPLA4","country_code":"ID","cc2":"","admin1_code":"08","admin2_code":"","admin3_code":"","admin4_code":"","population":"0","elevation":"","dem":"204","timezone":"Asia/Jakarta","modification_date":"2012-01-21"},{"geonameid":"7406657","name":"Sebanen","asciiname":"Sebanen","alternatenames":"Sebanen","latitude":"-8.1002","longitude":"113.8224","feature_class":"P","feature_code":"PPLA4","country_code":"ID","cc2":"","admin1_code":"08","admin2_code":"","admin3_code":"","admin4_code":"","population":"0","elevation":"","dem":"306","timezone":"Asia/Jakarta","modification_date":"2012-01-21"},{"geonameid":"7406667","name":"Klanceng","asciiname":"Klanceng","alternatenames":"Klanceng","latitude":"-8.1023","longitude":"113.7512","feature_class":"P","feature_code":"PPLA4","country_code":"ID","cc2":"","admin1_code":"08","admin2_code":"","admin3_code":"","admin4_code":"","population":"0","elevation":"","dem":"235","timezone":"Asia/Jakarta","modification_date":"2012-01-21"},{"geonameid":"7406674","name":"Krajan Dua Patempuran","asciiname":"Krajan Dua Patempuran","alternatenames":"Krajan Dua,Krajan Dua Patempuran","latitude":"-8.1081","longitude":"113.7993","feature_class":"P","feature_code":"PPLA4","country_code":"ID","cc2":"","admin1_code":"08","admin2_code":"","admin3_code":"","admin4_code":"","population":"0","elevation":"","dem":"243","timezone":"Asia/Jakarta","modification_date":"2012-01-21"},{"geonameid":"7406679","name":"Krajan Sumberanget","asciiname":"Krajan Sumberanget","alternatenames":"Krajan,Krajan Sumberanget","latitude":"-8.113","longitude":"113.8437","feature_class":"P","feature_code":"PPLA4","country_code":"ID","cc2":"","admin1_code":"08","admin2_code":"","admin3_code":"","admin4_code":"","population":"0","elevation":"","dem":"348","timezone":"Asia/Jakarta","modification_date":"2012-01-21"},{"geonameid":"7406680","name":"Krajan Ledokombo","asciiname":"Krajan Ledokombo","alternatenames":"Krajan,Krajan Ledokombo","latitude":"-8.12","longitude":"113.8614","feature_class":"P","feature_code":"PPLA4","country_code":"ID","cc2":"","admin1_code":"08","admin2_code":"","admin3_code":"","admin4_code":"","population":"0","elevation":"","dem":"384","timezone":"Asia/Jakarta","modification_date":"2012-01-21"},{"geonameid":"7406682","name":"Sumberketempah","asciiname":"Sumberketempah","alternatenames":"Sumberketempah","latitude":"-8.1168","longitude":"113.8273","feature_class":"P","feature_code":"PPLA4","country_code":"ID","cc2":"","admin1_code":"08","admin2_code":"","admin3_code":"","admin4_code":"","population":"0","elevation":"","dem":"317","timezone":"Asia/Jakarta","modification_date":"2012-01-21"},{"geonameid":"7406687","name":"Karangpeton","asciiname":"Karangpeton","alternatenames":"Karangpeton","latitude":"-8.1246","longitude":"113.7813","feature_class":"P","feature_code":"PPLA4","country_code":"ID","cc2":"","admin1_code":"08","admin2_code":"","admin3_code":"","admin4_code":"","population":"0","elevation":"","dem":"190","timezone":"Asia/Jakarta","modification_date":"2012-01-21"},{"geonameid":"7406691","name":"Biting","asciiname":"Biting","alternatenames":"Biting","latitude":"-8.1184","longitude":"113.7617","feature_class":"P","feature_code":"PPLA4","country_code":"ID","cc2":"","admin1_code":"08","admin2_code":"","admin3_code":"","admin4_code":"","population":"0","elevation":"","dem":"165","timezone":"Asia/Jakarta","modification_date":"2012-01-21"},{"geonameid":"7406748","name":"Tista","asciiname":"Tista","alternatenames":"Tista","latitude":"-8.3525","longitude":"114.9211","feature_class":"P","feature_code":"PPLA4","country_code":"ID","cc2":"","admin1_code":"02","admin2_code":"","admin3_code":"","admin4_code":"","population":"0","elevation":"","dem":"728","timezone":"Asia/Makassar","modification_date":"2012-01-21"},{"geonameid":"7406753","name":"Asahbadung","asciiname":"Asahbadung","alternatenames":"Asahbadung","latitude":"-8.3278","longitude":"114.9055","feature_class":"P","feature_code":"PPLA4","country_code":"ID","cc2":"","admin1_code":"02","admin2_code":"","admin3_code":"","admin4_code":"","population":"0","elevation":"","dem":"396","timezone":"Asia/Makassar","modification_date":"2012-01-21"},{"geonameid":"7406769","name":"Telaga","asciiname":"Telaga","alternatenames":"Telaga","latitude":"-8.2675","longitude":"114.9506","feature_class":"P","feature_code":"PPLA4","country_code":"ID","cc2":"","admin1_code":"02","admin2_code":"","admin3_code":"","admin4_code":"","population":"0","elevation":"","dem":"294","timezone":"Asia/Makassar","modification_date":"2012-01-21"},{"geonameid":"7406779","name":"Bongancina Kaja","asciiname":"Bongancina Kaja","alternatenames":"Bongancina Kaja","latitude":"-8.3343","longitude":"114.9494","feature_class":"P","feature_code":"PPLA4","country_code":"ID","cc2":"","admin1_code":"02","admin2_code":"","admin3_code":"","admin4_code":"","population":"0","elevation":"","dem":"660","timezone":"Asia/Makassar","modification_date":"2012-01-21"},{"geonameid":"7406786","name":"Puspajati","asciiname":"Puspajati","alternatenames":"Puspajati","latitude":"-8.2585","longitude":"114.993","feature_class":"P","feature_code":"PPLA4","country_code":"ID","cc2":"","admin1_code":"02","admin2_code":"","admin3_code":"","admin4_code":"","population":"0","elevation":"","dem":"342","timezone":"Asia/Makassar","modification_date":"2012-01-21"},{"geonameid":"7406787","name":"Pelapuan","asciiname":"Pelapuan","alternatenames":"Pelapuan","latitude":"-8.2669","longitude":"114.989","feature_class":"P","feature_code":"PPLA4","country_code":"ID","cc2":"","admin1_code":"02","admin2_code":"","admin3_code":"","admin4_code":"","population":"0","elevation":"","dem":"372","timezone":"Asia/Makassar","modification_date":"2012-01-21"},{"geonameid":"7406792","name":"Kanginan","asciiname":"Kanginan","alternatenames":"Kanginan","latitude":"-8.287","longitude":"114.9819","feature_class":"P","feature_code":"PPLA4","country_code":"ID","cc2":"","admin1_code":"02","admin2_code":"","admin3_code":"","admin4_code":"","population":"0","elevation":"","dem":"341","timezone":"Asia/Makassar","modification_date":"2012-01-21"},{"geonameid":"7406796","name":"Bantiran","asciiname":"Bantiran","alternatenames":"Bantiran","latitude":"-8.3095","longitude":"114.9908","feature_class":"P","feature_code":"PPLA4","country_code":"ID","cc2":"","admin1_code":"02","admin2_code":"","admin3_code":"","admin4_code":"","population":"0","elevation":"","dem":"595","timezone":"Asia/Makassar","modification_date":"2012-01-21"},{"geonameid":"7406800","name":"Klau","asciiname":"Klau","alternatenames":"Klau","latitude":"-8.336","longitude":"114.9882","feature_class":"P","feature_code":"PPLA4","country_code":"ID","cc2":"","admin1_code":"02","admin2_code":"","admin3_code":"","admin4_code":"","population":"0","elevation":"","dem":"657","timezone":"Asia/Makassar","modification_date":"2012-01-21"},