{"nextFile":"cities.8.json","rows":[{"geonameid":"3908263","name":"Paurito","asciiname":"Paurito","alternatenames":"Paurito","latitude":"-17.88333","longitude":"-62.96667","feature_class":"P","feature_code":"PPL","country_code":"BO","cc2":"","admin1_code":"08","admin2_code":"","admin3_code":"","admin4_code":"","population":"2191","elevation":"","dem":"361","timezone":"America/La_Paz","modification_date":"2013-05-05"},{"geonameid":"3908339","name":"Patacamaya","asciiname":"Patacamaya","alternatenames":"Patacamaya,Patacmaya,Patakamaya,pa ta ka ma ya,帕塔卡馬亞","latitude":"-17.2358","longitude":"-67.92169","feature_class":"P","feature_code":"PPL","country_code":"BO","cc2":"","admin1_code":"04","admin2_code":"","admin3_code":"","admin4_code":"","population":"12260","elevation":"","dem":"3799","timezone":"America/La_Paz","modification_date":"2013-05-08"},{"geonameid":"3909010","name":"Pailón","asciiname":"Pailon","alternatenames":"El Pailon,El Pailón,Pailon,Pailón,Puerto Ibanez,Puerto Ibañez,pai long,派隆","latitude":"-17.65","longitude":"-62.75","feature_class":"P","feature_code":"PPL","country_code":"BO","cc2":"","admin1_code":"08","admin2_code":"","admin3_code":"","admin4_code":"","population":"9304","elevation":"","dem":"298","timezone":"America/La_Paz","modification_date":"2012-01-18"},{"geonameid":"3909038","name":"Padilla","asciiname":"Padilla","alternatenames":"Padilla,pa di ya,帕迪亞","latitude":"-19.30878","longitude":"-64.30273","feature_class":"P","feature_code":"PPL","country_code":"BO","cc2":"","admin1_code":"01","admin2_code":"","admin3_code":"","admin4_code":"","population":"2920","elevation":"","dem":"2091","timezone":"America/La_Paz","modification_date":"2012-08-15"},{"geonameid":"3909234","name":"Oruro","asciiname":"Oruro","alternatenames":"Ciudad Oruro,Gruro,ORU,Oruras,Oruro,Uru Uru,Ururu,ao lu luo,awrwrw,awrwrw  bwlywya,olulo,oruro,Оруро,Օրուրո,أورورو,اورورو، بولیویا,ორურო,オルロ,奥鲁罗,오루로","latitude":"-17.98333","longitude":"-67.15","feature_class":"P","feature_code":"PPLA","country_code":"BO","cc2":"","admin1_code":"05","admin2_code":"","admin3_code":"","admin4_code":"","population":"208684","elevation":"","dem":"3936","timezone":"America/La_Paz","modification_date":"2012-01-18"},{"geonameid":"3909360","name":"Okinawa Número Uno","asciiname":"Okinawa Numero Uno","alternatenames":"","latitude":"-17.23333","longitude":"-62.81667","feature_class":"P","feature_code":"PPL","country_code":"BO","cc2":"","admin1_code":"08","admin2_code":"","admin3_code":"","admin4_code":"","population":"4944","elevation":"","dem":"260","timezone":"America/La_Paz","modification_date":"2006-01-17"},{"geonameid":"3910027","name":"Montero","asciiname":"Montero","alternatenames":"Monteras,Montero,Vibora,Víbora,meng te luo,montelo,montero,Монтеро,მონტერო,モンテロ,蒙特羅,몬테로","latitude":"-17.33866","longitude":"-63.2505","feature_class":"P","feature_code":"PPL","country_code":"BO","cc2":"","admin1_code":"08","admin2_code":"","admin3_code":"","admin4_code":"","population":"88616","elevation":"","dem":"300","timezone":"America/La_Paz","modification_date":"2013-05-08"},{"geonameid":"3910094","name":"Monteagudo","asciiname":"Monteagudo","alternatenames":"MHW,Monteagudo,Sauces,Villa Monteagudo,Монтеагудо","latitude":"-19.79989","longitude":"-63.95461","feature_class":"P","feature_code":"PPL","country_code":"BO","cc2":"","admin1_code":"01","admin2_code":"","admin3_code":"","admin4_code":"","population":"8289","elevation":"","dem":"1148","timezone":"America/La_Paz","modification_date":"2013-01-11"},{"geonameid":"3910203","name":"Mojotoro","asciiname":"Mojotoro","alternatenames":"Mojocoro,Mojotoro","latitude":"-18.91667","longitude":"-65.06667","feature_class":"P","feature_code":"PPLA4","country_code":"BO","cc2":"BO","admin1_code":"01","admin2_code":"0101","admin3_code":"01","admin4_code":"07","population":"0","elevation":"","dem":"2509","timezone":"America/La_Paz","modification_date":"2011-07-31"},{"geonameid":"3910244","name":"Mojocoya","asciiname":"Mojocoya","alternatenames":"Mojocoya,Mojocoyo","latitude":"-18.7641","longitude":"-64.61978","feature_class":"P","feature_code":"PPLA4","country_code":"BO","cc2":"BO","admin1_code":"01","admin2_code":"0103","admin3_code":"03","admin4_code":"01","population":"0","elevation":"","dem":"2348","timezone":"America/La_Paz","modification_date":"2012-08-15"},{"geonameid":"3910291","name":"Mizque","asciiname":"Mizque","alternatenames":"Ciudad Mizque,Ciudad de Mizqu,Ciudad de Mizque","latitude":"-17.94101","longitude":"-65.34016","feature_class":"P","feature_code":"PPL","country_code":"BO","cc2":"","admin1_code":"02","admin2_code":"","admin3_code":"","admin4_code":"","population":"30481","elevation":"","dem":"2014","timezone":"America/La_Paz","modification_date":"2009-10-16"},{"geonameid":"3910343","name":"Mineros","asciiname":"Mineros","alternatenames":"","latitude":"-17.11876","longitude":"-63.231","feature_class":"P","feature_code":"PPL","country_code":"BO","cc2":"","admin1_code":"08","admin2_code":"","admin3_code":"","admin4_code":"","population":"14385","elevation":"","dem":"258","timezone":"America/La_Paz","modification_date":"2013-05-08"},{"geonameid":"3910743","name":"Maragua","asciiname":"Maragua","alternatenames":"","latitude":"-19.04611","longitude":"-65.42861","feature_class":"P","feature_code":"PPLA4","country_code":"BO","cc2":"","admin1_code":"01","admin2_code":"0101","admin3_code":"01","admin4_code":"11","population":"0","elevation":"","dem":"3104","timezone":"America/La_Paz","modification_date":"2011-07-31"},{"geonameid":"3910758","name":"Mapiri","asciiname":"Mapiri","alternatenames":"Mapiri","latitude":"-15.25","longitude":"-68.16667","feature_class":"P","feature_code":"PPL","country_code":"BO","cc2":"","admin1_code":"04","admin2_code":"","admin3_code":"","admin4_code":"","population":"2597","elevation":"","dem":"806","timezone":"America/La_Paz","modification_date":"2012-01-18"},{"geonameid":"3910901","name":"Mairana","asciiname":"Mairana","alternatenames":"Mairana","latitude":"-18.11919","longitude":"-63.95965","feature_class":"P","feature_code":"PPL","country_code":"BO","cc2":"","admin1_code":"08","admin2_code":"","admin3_code":"","admin4_code":"","population":"4298","elevation":"","dem":"1326","timezone":"America/La_Paz","modification_date":"2013-01-11"},{"geonameid":"3910971","name":"Machacamarca","asciiname":"Machacamarca","alternatenames":"Machacamarca,Machakamarka","latitude":"-18.17251","longitude":"-67.02099","feature_class":"P","feature_code":"PPL","country_code":"BO","cc2":"","admin1_code":"05","admin2_code":"","admin3_code":"","admin4_code":"","population":"2044","elevation":"","dem":"3728","timezone":"America/La_Paz","modification_date":"2013-01-11"},{"geonameid":"3911120","name":"Los Negros","asciiname":"Los Negros","alternatenames":"Estancia Los Negros,Los Negros","latitude":"-17.73333","longitude":"-63.43333","feature_class":"P","feature_code":"PPL","country_code":"BO","cc2":"","admin1_code":"08","admin2_code":"","admin3_code":"","admin4_code":"","population":"3046","elevation":"","dem":"420","timezone":"America/La_Paz","modification_date":"2012-01-18"},{"geonameid":"3911409","name":"Llallagua","asciiname":"Llallagua","alternatenames":"Llallagua,Llallawa,la la gua,拉拉瓜","latitude":"-18.42426","longitude":"-66.58388","feature_class":"P","feature_code":"PPL","country_code":"BO","cc2":"","admin1_code":"07","admin2_code":"","admin3_code":"","admin4_code":"","population":"28069","elevation":"","dem":"3897","timezone":"America/La_Paz","modification_date":"2013-01-11"},{"geonameid":"3911484","name":"Lintaca","asciiname":"Lintaca","alternatenames":"","latitude":"-20.76667","longitude":"-65.33333","feature_class":"P","feature_code":"PPLA4","country_code":"BO","cc2":"","admin1_code":"01","admin2_code":"0107","admin3_code":"01","admin4_code":"02","population":"0","elevation":"","dem":"3189","timezone":"America/La_Paz","modification_date":"2011-07-31"},{"geonameid":"3911512","name":"Limoncito","asciiname":"Limoncito","alternatenames":"Limoncito","latitude":"-18.03104","longitude":"-63.40523","feature_class":"P","feature_code":"PPL","country_code":"BO","cc2":"","admin1_code":"08","admin2_code":"","admin3_code":"","admin4_code":"","population":"3622","elevation":"","dem":"551","timezone":"America/La_Paz","modification_date":"2013-01-11"},{"geonameid":"3911814","name":"Las Carreras","asciiname":"Las Carreras","alternatenames":"","latitude":"-21.25","longitude":"-65.28333","feature_class":"P","feature_code":"PPLA4","country_code":"BO","cc2":"","admin1_code":"01","admin2_code":"0109","admin3_code":"03","admin4_code":"01","population":"0","elevation":"","dem":"2512","timezone":"America/La_Paz","modification_date":"2011-07-31"},{"geonameid":"3911815","name":"Las Carreras","asciiname":"Las Carreras","alternatenames":"","latitude":"-21.2084","longitude":"-65.20988","feature_class":"P","feature_code":"PPLA4","country_code":"BO","cc2":"","admin1_code":"01","admin2_code":"0109","admin3_code":"03","admin4_code":"01","population":"0","elevation":"","dem":"2328","timezone":"America/La_Paz","modification_date":"2012-08-15"},{"geonameid":"3911925","name":"La Paz","asciiname":"La Paz","alternatenames":"A Paz,Chukiyawu,Chuqi Yapu,Chuqiyapu,Ciudad La Paz,Gorad La-Pas,LPB,La Pas,La Pasas,La Paz,La-Pas,La-Pas shaary,La-Pazo,Lapasa,Pax,Soukre/La Paz,la ba si,la paja,la pajha,la pas,la pasa,la paz,labaz,lapaja,lapas,lapaseu,lapaz,rapasu,Λα Πας,Σούκρε/Λα Παζ,Горад Ла-Пас,Ла Паз,Ла Пас,Ла-Пас,Ла-Пас шаары,Լա Պաս,לא פאז,לה פאס,لا پاز,لاباز,لاپاز,ला पाझ,ला पास,লা পাজ,ਲਾ ਪਾਸ,ଲାପାଜ,லா பாஸ்,ലാ പാസ്,ลาปาซ,ლა-პასი,ላፓዝ,ラパス,拉巴斯,라파스","latitude":"-16.5","longitude":"-68.15","feature_class":"P","feature_code":"PPLG","country_code":"BO","cc2":"","admin1_code":"04","admin2_code":"","admin3_code":"","admin4_code":"","population":"812799","elevation":"","dem":"3782","timezone":"America/La_Paz","modification_date":"2012-07-23"},{"geonameid":"3912119","name":"Lahuachaca","asciiname":"Lahuachaca","alternatenames":"Lahuachaca","latitude":"-17.37054","longitude":"-67.67501","feature_class":"P","feature_code":"PPL","country_code":"BO","cc2":"","admin1_code":"04","admin2_code":"","admin3_code":"","admin4_code":"","population":"3235","elevation":"","dem":"3806","timezone":"America/La_Paz","modification_date":"2013-05-08"},{"geonameid":"3912300","name":"La Cueva","asciiname":"La Cueva","alternatenames":"Cueva,La Cueva","latitude":"-20.93333","longitude":"-64.9","feature_class":"P","feature_code":"PPLA4","country_code":"BO","cc2":"BO","admin1_code":"01","admin2_code":"0109","admin3_code":"02","admin4_code":"04","population":"0","elevation":"","dem":"3212","timezone":"America/La_Paz","modification_date":"2011-07-31"},{"geonameid":"3912418","name":"La Bélgica","asciiname":"La Belgica","alternatenames":"La Belgica,La Bélgica","latitude":"-17.55","longitude":"-63.21667","feature_class":"P","feature_code":"PPL","country_code":"BO","cc2":"","admin1_code":"08","admin2_code":"","admin3_code":"","admin4_code":"","population":"5501","elevation":"","dem":"353","timezone":"America/La_Paz","modification_date":"2012-01-19"},{"geonameid":"3913271","name":"Jorochito","asciiname":"Jorochito","alternatenames":"Jorochiba,Jorochita,Jorochito","latitude":"-18.05514","longitude":"-63.42821","feature_class":"P","feature_code":"PPL","country_code":"BO","cc2":"","admin1_code":"08","admin2_code":"","admin3_code":"","admin4_code":"","population":"4013","elevation":"","dem":"564","timezone":"America/La_Paz","modification_date":"2013-01-11"},{"geonameid":"3913985","name":"Yumani","asciiname":"Yumani","alternatenames":"Estancia Yumani,Isla del Sol","latitude":"-16.03574","longitude":"-69.14843","feature_class":"P","feature_code":"PPL","country_code":"BO","cc2":"","admin1_code":"04","admin2_code":"","admin3_code":"","admin4_code":"","population":"2500","elevation":"","dem":"3972","timezone":"America/La_Paz","modification_date":"2013-11-17"},{"geonameid":"3914084","name":"Irpa Irpa","asciiname":"Irpa Irpa","alternatenames":"Irpa Irpa","latitude":"-17.71667","longitude":"-66.26667","feature_class":"P","feature_code":"PPL","country_code":"BO","cc2":"","admin1_code":"02","admin2_code":"","admin3_code":"","admin4_code":"","population":"2968","elevation":"","dem":"2467","timezone":"America/La_Paz","modification_date":"2012-01-19"},{"geonameid":"3914641","name":"Huayllas","asciiname":"Huayllas","alternatenames":"","latitude":"-19.16972","longitude":"-65.32611","feature_class":"P","feature_code":"PPLA4","country_code":"BO","cc2":"","admin1_code":"01","admin2_code":"0101","admin3_code":"02","admin4_code":"02","population":"0","elevation":"","dem":"2692","timezone":"America/La_Paz","modification_date":"2011-07-31"},{"geonameid":"3914715","name":"Huatajata","asciiname":"Huatajata","alternatenames":"","latitude":"-16.2","longitude":"-68.68333","feature_class":"P","feature_code":"PPL","country_code":"BO","cc2":"","admin1_code":"04","admin2_code":"","admin3_code":"","admin4_code":"","population":"3700","elevation":"","dem":"3943","timezone":"America/La_Paz","modification_date":"2008-05-28"},{"geonameid":"3914720","name":"Huata","asciiname":"Huata","alternatenames":"","latitude":"-19.01667","longitude":"-65.25","feature_class":"P","feature_code":"PPLA4","country_code":"BO","cc2":"","admin1_code":"01","admin2_code":"0101","admin3_code":"01","admin4_code":"10","population":"0","elevation":"","dem":"2917","timezone":"America/La_Paz","modification_date":"2011-07-31"},{"geonameid":"3914763","name":"Huarina","asciiname":"Huarina","alternatenames":"Huarina","latitude":"-16.2","longitude":"-68.63333","feature_class":"P","feature_code":"PPL","country_code":"BO","cc2":"","admin1_code":"04","admin2_code":"","admin3_code":"","admin4_code":"","population":"1616","elevation":"","dem":"3840","timezone":"America/La_Paz","modification_date":"2013-05-05"},{"geonameid":"3914839","name":"Huanuni","asciiname":"Huanuni","alternatenames":"Huanuni,Villa Huanuni","latitude":"-18.289","longitude":"-66.83583","feature_class":"P","feature_code":"PPL","country_code":"BO","cc2":"","admin1_code":"05","admin2_code":"","admin3_code":"","admin4_code":"","population":"15492","elevation":"","dem":"3963","timezone":"America/La_Paz","modification_date":"2013-01-11"},{"geonameid":"3914988","name":"Huajlaya","asciiname":"Huajlaya","alternatenames":"","latitude":"-20.6","longitude":"-64.55","feature_class":"P","feature_code":"PPLA4","country_code":"BO","cc2":"","admin1_code":"01","admin2_code":"0107","admin3_code":"03","admin4_code":"04","population":"0","elevation":"","dem":"2083","timezone":"America/La_Paz","modification_date":"2011-07-31"},{"geonameid":"3915350","name":"Guayaramerín","asciiname":"Guayaramerin","alternatenames":"Guajara-Mirim,Guajaramerin,Guajaramerinas,Guayaramerin,Guayaramerín,Puerto Sucre,Wayaramirin,gua ya la mei lin,guaiaramerini,gwayalamelin,Гуаярамерин,გუაიარამერინი,瓜亞拉梅林,과야라메린","latitude":"-10.83676","longitude":"-65.36136","feature_class":"P","feature_code":"PPL","country_code":"BO","cc2":"","admin1_code":"03","admin2_code":"","admin3_code":"","admin4_code":"","population":"36008","elevation":"","dem":"137","timezone":"America/La_Paz","modification_date":"2011-09-01"},{"geonameid":"3915436","name":"Guanay","asciiname":"Guanay","alternatenames":"Guanay,Huanay","latitude":"-15.49756","longitude":"-67.88332","feature_class":"P","feature_code":"PPLA3","country_code":"BO","cc2":"","admin1_code":"04","admin2_code":"0206","admin3_code":"","admin4_code":"","population":"0","elevation":"","dem":"477","timezone":"America/La_Paz","modification_date":"2014-07-27"},{"geonameid":"3917939","name":"Entre Ríos","asciiname":"Entre Rios","alternatenames":"Entre Rios,Entre Ríos,San Luis","latitude":"-21.52661","longitude":"-64.17299","feature_class":"P","feature_code":"PPL","country_code":"BO","cc2":"","admin1_code":"09","admin2_code":"","admin3_code":"","admin4_code":"","population":"2685","elevation":"","dem":"1232","timezone":"America/La_Paz","modification_date":"2012-08-16"},{"geonameid":"3918611","name":"Curahuara de Carangas","asciiname":"Curahuara de Carangas","alternatenames":"Curaguara de Carangas,Curahuara,Curahuara de Carangas","latitude":"-17.86667","longitude":"-68.43333","feature_class":"P","feature_code":"PPL","country_code":"BO","cc2":"BO","admin1_code":"04","admin2_code":"","admin3_code":"","admin4_code":"","population":"1613","elevation":"","dem":"3945","timezone":"America/La_Paz","modification_date":"2013-05-05"},{"geonameid":"3918678","name":"Culpina","asciiname":"Culpina","alternatenames":"","latitude":"-20.82358","longitude":"-64.94492","feature_class":"P","feature_code":"PPLA4","country_code":"BO","cc2":"","admin1_code":"01","admin2_code":"0109","admin3_code":"02","admin4_code":"01","population":"0","elevation":"","dem":"2972","timezone":"America/La_Paz","modification_date":"2012-08-15"},{"geonameid":"3918937","name":"Cotoca","asciiname":"Cotoca","alternatenames":"","latitude":"-17.81667","longitude":"-63.05","feature_class":"P","feature_code":"PPL","country_code":"BO","cc2":"","admin1_code":"08","admin2_code":"","admin3_code":"","admin4_code":"","population":"18347","elevation":"","dem":"387","timezone":"America/La_Paz","modification_date":"2006-01-17"},{"geonameid":"3918938","name":"Cotoca","asciiname":"Cotoca","alternatenames":"Cotoca,Qutuqa,ke tuo ka,კოტოკა,科托卡","latitude":"-17.74959","longitude":"-62.83442","feature_class":"P","feature_code":"PPLA3","country_code":"BO","cc2":"","admin1_code":"08","admin2_code":"","admin3_code":"","admin4_code":"","population":"0","elevation":"","dem":"318","timezone":"America/La_Paz","modification_date":"2015-06-12"},{"geonameid":"3919085","name":"Coroico","asciiname":"Coroico","alternatenames":"Corioco,Koroikas,Korojko,Quruyqu,Villa de Sagarnaga,Villa de Sagárnaga,ke luo yi ke,Коройко,科羅伊科","latitude":"-16.19386","longitude":"-67.72998","feature_class":"P","feature_code":"PPLA3","country_code":"BO","cc2":"","admin1_code":"04","admin2_code":"","admin3_code":"","admin4_code":"","population":"2361","elevation":"","dem":"1575","timezone":"America/La_Paz","modification_date":"2014-07-27"},{"geonameid":"3919097","name":"Coripata","asciiname":"Coripata","alternatenames":"Coripata","latitude":"-16.3","longitude":"-67.6","feature_class":"P","feature_code":"PPL","country_code":"BO","cc2":"","admin1_code":"04","admin2_code":"","admin3_code":"","admin4_code":"","population":"2107","elevation":"","dem":"1688","timezone":"America/La_Paz","modification_date":"2012-01-19"},{"geonameid":"3919352","name":"Concepción","asciiname":"Concepcion","alternatenames":"","latitude":"-16.43333","longitude":"-60.9","feature_class":"P","feature_code":"PPL","country_code":"BO","cc2":"","admin1_code":"08","admin2_code":"","admin3_code":"","admin4_code":"","population":"6900","elevation":"","dem":"478","timezone":"America/La_Paz","modification_date":"2006-01-17"},{"geonameid":"3919703","name":"Comarapa","asciiname":"Comarapa","alternatenames":"Comarapa,Komarapa,Kumarapa,ke ma la pa,科馬拉帕","latitude":"-17.91537","longitude":"-64.53163","feature_class":"P","feature_code":"PPL","country_code":"BO","cc2":"","admin1_code":"08","admin2_code":"0713","admin3_code":"","admin4_code":"","population":"4445","elevation":"","dem":"1818","timezone":"America/La_Paz","modification_date":"2015-06-12"},{"geonameid":"3919715","name":"Colquiri","asciiname":"Colquiri","alternatenames":"Colquiri","latitude":"-17.38918","longitude":"-67.12671","feature_class":"P","feature_code":"PPL","country_code":"BO","cc2":"","admin1_code":"04","admin2_code":"","admin3_code":"","admin4_code":"","population":"3933","elevation":"","dem":"4276","timezone":"America/La_Paz","modification_date":"2013-05-08"},{"geonameid":"3919720","name":"Colquechaca","asciiname":"Colquechaca","alternatenames":"Ciudad Colquechaca,Ciudad de Colquechaca,Colquechaca","latitude":"-18.70031","longitude":"-66.00397","feature_class":"P","feature_code":"PPL","country_code":"BO","cc2":"","admin1_code":"07","admin2_code":"","admin3_code":"","admin4_code":"","population":"1706","elevation":"","dem":"4170","timezone":"America/La_Paz","modification_date":"2012-08-16"},{"geonameid":"3919813","name":"Colomi","asciiname":"Colomi","alternatenames":"Colomi","latitude":"-17.35","longitude":"-65.86667","feature_class":"P","feature_code":"PPL","country_code":"BO","cc2":"","admin1_code":"02","admin2_code":"","admin3_code":"","admin4_code":"","population":"3921","elevation":"","dem":"3444","timezone":"America/La_Paz","modification_date":"2012-01-19"},{"geonameid":"3919884","name":"Colchani","asciiname":"Colchani","alternatenames":"Colchani","latitude":"-20.3","longitude":"-66.93333","feature_class":"P","feature_code":"PPL","country_code":"BO","cc2":"","admin1_code":"07","admin2_code":"","admin3_code":"","admin4_code":"","population":"11988","elevation":"","dem":"3668","timezone":"America/La_Paz","modification_date":"2012-01-19"},{"geonameid":"3919886","name":"Colchani","asciiname":"Colchani","alternatenames":"Calcheni,Colchani","latitude":"-17.31667","longitude":"-66.71667","feature_class":"P","feature_code":"PPL","country_code":"BO","cc2":"BO","admin1_code":"02","admin2_code":"","admin3_code":"","admin4_code":"","population":"1074","elevation":"","dem":"3411","timezone":"America/La_Paz","modification_date":"2012-01-19"},{"geonameid":"3919968","name":"Cochabamba","asciiname":"Cochabamba","alternatenames":"CBB,Ciudad Cochabamba,Cochabamba,Kocabamb,Kocabamba,Kochabamba,Kočabamb,Kočabamba,Kuchawampa,Quchapampa,ke qia ban ba,ko cha bam ba,kochabamba,kochabanba,kwchabamba,kwtshabamba,qwzbmbh,Кочабамба,קוצבמבה,كوتشابامبا,کوچابامبا,โกชาบัมบา,ཀོ་ཅ་བང་ལྦ་,კოჩაბამბა,コチャバンバ,科恰班巴,코차밤바","latitude":"-17.3895","longitude":"-66.1568","feature_class":"P","feature_code":"PPLA","country_code":"BO","cc2":"","admin1_code":"02","admin2_code":"","admin3_code":"","admin4_code":"","population":"900414","elevation":"","dem":"2577","timezone":"America/La_Paz","modification_date":"2012-01-19"},{"geonameid":"3919998","name":"Cobija","asciiname":"Cobija","alternatenames":"CIJ,Cobija,Cobila,Cobya,Kobicha,Kobikha,Kuwiha,Kuwixa,Puerto Cobija,ke wei ha,kobiha,kwbykha,Кобиха,Кобіха,کوبیخا,კობიხა,コビハ,科維哈,코비하","latitude":"-11.02671","longitude":"-68.76918","feature_class":"P","feature_code":"PPLA","country_code":"BO","cc2":"","admin1_code":"06","admin2_code":"","admin3_code":"","admin4_code":"","population":"26585","elevation":"","dem":"200","timezone":"America/La_Paz","modification_date":"2010-08-21"},{"geonameid":"3920016","name":"Cliza","asciiname":"Cliza","alternatenames":"Cliza","latitude":"-17.58777","longitude":"-65.93253","feature_class":"P","feature_code":"PPL","country_code":"BO","cc2":"","admin1_code":"02","admin2_code":"","admin3_code":"","admin4_code":"","population":"8654","elevation":"","dem":"2726","timezone":"America/La_Paz","modification_date":"2013-05-08"},{"geonameid":"3920185","name":"Chuqui Chuqui","asciiname":"Chuqui Chuqui","alternatenames":"","latitude":"-18.81667","longitude":"-65.06667","feature_class":"P","feature_code":"PPLA4","country_code":"BO","cc2":"","admin1_code":"01","admin2_code":"0101","admin3_code":"01","admin4_code":"04","population":"0","elevation":"","dem":"2325","timezone":"America/La_Paz","modification_date":"2011-07-31"},{"geonameid":"3920244","name":"Chulumani","asciiname":"Chulumani","alternatenames":"","latitude":"-16.40855","longitude":"-67.5294","feature_class":"P","feature_code":"PPL","country_code":"BO","cc2":"","admin1_code":"04","admin2_code":"","admin3_code":"","admin4_code":"","population":"2952","elevation":"","dem":"1871","timezone":"America/La_Paz","modification_date":"2014-06-27"},{"geonameid":"3920736","name":"Chimoré","asciiname":"Chimore","alternatenames":"Chimore,Chimoré","latitude":"-16.94807","longitude":"-65.14002","feature_class":"P","feature_code":"PPL","country_code":"BO","cc2":"","admin1_code":"02","admin2_code":"","admin3_code":"","admin4_code":"","population":"5147","elevation":"","dem":"236","timezone":"America/La_Paz","modification_date":"2013-05-08"},{"geonameid":"3921062","name":"Chaunaca","asciiname":"Chaunaca","alternatenames":"Chahuanaca,Chahunaca,Chaunaca,Estancia Chaunaca","latitude":"-19.01667","longitude":"-65.46667","feature_class":"P","feature_code":"PPLA4","country_code":"BO","cc2":"BO","admin1_code":"01","admin2_code":"0101","admin3_code":"01","admin4_code":"03","population":"0","elevation":"","dem":"2934","timezone":"America/La_Paz","modification_date":"2011-07-31"},{"geonameid":"3921141","name":"Charagua","asciiname":"Charagua","alternatenames":"","latitude":"-19.79151","longitude":"-63.19864","feature_class":"P","feature_code":"PPL","country_code":"BO","cc2":"","admin1_code":"08","admin2_code":"","admin3_code":"","admin4_code":"","population":"3025","elevation":"","dem":"799","timezone":"America/La_Paz","modification_date":"2013-01-11"},{"geonameid":"3921355","name":"Challapata","asciiname":"Challapata","alternatenames":"Challapata","latitude":"-18.90208","longitude":"-66.77048","feature_class":"P","feature_code":"PPL","country_code":"BO","cc2":"","admin1_code":"05","admin2_code":"","admin3_code":"","admin4_code":"","population":"8016","elevation":"","dem":"3732","timezone":"America/La_Paz","modification_date":"2013-01-11"},{"geonameid":"3922032","name":"Carandayti","asciiname":"Carandayti","alternatenames":"Carandaiti,Carandaiti Guazu,Carandaiti Guazú,Carandaity,Carandayti","latitude":"-20.75","longitude":"-63.06667","feature_class":"P","feature_code":"PPLA4","country_code":"BO","cc2":"BO","admin1_code":"01","admin2_code":"0110","admin3_code":"03","admin4_code":"03","population":"0","elevation":"","dem":"639","timezone":"America/La_Paz","modification_date":"2011-07-31"},{"geonameid":"3922125","name":"Capinota","asciiname":"Capinota","alternatenames":"Capinota","latitude":"-17.71113","longitude":"-66.26082","feature_class":"P","feature_code":"PPL","country_code":"BO","cc2":"","admin1_code":"02","admin2_code":"","admin3_code":"","admin4_code":"","population":"5157","elevation":"","dem":"2395","timezone":"America/La_Paz","modification_date":"2013-05-08"},{"geonameid":"3922414","name":"Camiri","asciiname":"Camiri","alternatenames":"CAM,Camiri,Kamiri,Refineria Camiri,ka mi li,Камири,კამირი,卡米里","latitude":"-20.03849","longitude":"-63.51833","feature_class":"P","feature_code":"PPL","country_code":"BO","cc2":"","admin1_code":"08","admin2_code":"","admin3_code":"","admin4_code":"","population":"27961","elevation":"","dem":"802","timezone":"America/La_Paz","modification_date":"2013-01-11"},{"geonameid":"3922441","name":"Camatindi","asciiname":"Camatindi","alternatenames":"","latitude":"-20.98333","longitude":"-63.43333","feature_class":"P","feature_code":"PPLA4","country_code":"BO","cc2":"","admin1_code":"01","admin2_code":"0110","admin3_code":"03","admin4_code":"02","population":"0","elevation":"","dem":"854","timezone":"America/La_Paz","modification_date":"2011-07-31"},{"geonameid":"3922451","name":"Camargo","asciiname":"Camargo","alternatenames":"Camargo,Cinti,ka ma ge,卡馬戈","latitude":"-20.64064","longitude":"-65.20893","feature_class":"P","feature_code":"PPLA4","country_code":"BO","cc2":"","admin1_code":"01","admin2_code":"0107","admin3_code":"01","admin4_code":"01","population":"4715","elevation":"","dem":"2412","timezone":"America/La_Paz","modification_date":"2012-08-15"},{"geonameid":"3922965","name":"Buena Vista","asciiname":"Buena Vista","alternatenames":"Bella Vista,Buena Vista","latitude":"-17.4583","longitude":"-63.67126","feature_class":"P","feature_code":"PPL","country_code":"BO","cc2":"","admin1_code":"08","admin2_code":"0704","admin3_code":"","admin4_code":"","population":"4282","elevation":"","dem":"370","timezone":"America/La_Paz","modification_date":"2015-11-02"},{"geonameid":"3923015","name":"Boyuibe","asciiname":"Boyuibe","alternatenames":"Boyuibe","latitude":"-20.43227","longitude":"-63.28147","feature_class":"P","feature_code":"PPL","country_code":"BO","cc2":"","admin1_code":"08","admin2_code":"","admin3_code":"","admin4_code":"","population":"3075","elevation":"","dem":"811","timezone":"America/La_Paz","modification_date":"2013-01-11"},{"geonameid":"3923145","name":"Betanzos","asciiname":"Betanzos","alternatenames":"","latitude":"-19.55293","longitude":"-65.45395","feature_class":"P","feature_code":"PPL","country_code":"BO","cc2":"","admin1_code":"07","admin2_code":"","admin3_code":"","admin4_code":"","population":"4847","elevation":"","dem":"3329","timezone":"America/La_Paz","modification_date":"2013-01-11"},{"geonameid":"3923284","name":"Batallas","asciiname":"Batallas","alternatenames":"Batallas","latitude":"-16.3","longitude":"-68.53333","feature_class":"P","feature_code":"PPL","country_code":"BO","cc2":"","admin1_code":"04","admin2_code":"","admin3_code":"","admin4_code":"","population":"2597","elevation":"","dem":"3849","timezone":"America/La_Paz","modification_date":"2013-05-05"},{"geonameid":"3923438","name":"Azurduy","asciiname":"Azurduy","alternatenames":"Azurdui,Azurduy,Pomabamba,Villa Azurduy","latitude":"-20.10613","longitude":"-64.41398","feature_class":"P","feature_code":"PPLA4","country_code":"BO","cc2":"BO","admin1_code":"01","admin2_code":"0102","admin3_code":"01","admin4_code":"01","population":"0","elevation":"","dem":"2492","timezone":"America/La_Paz","modification_date":"2012-08-15"},{"geonameid":"3923570","name":"Atocha","asciiname":"Atocha","alternatenames":"Atocha,Atucha,Municipio de Atocha","latitude":"-20.93515","longitude":"-66.22139","feature_class":"P","feature_code":"PPL","country_code":"BO","cc2":"","admin1_code":"07","admin2_code":"","admin3_code":"","admin4_code":"","population":"1833","elevation":"","dem":"3675","timezone":"America/La_Paz","modification_date":"2013-01-11"},{"geonameid":"3923644","name":"Ascensión","asciiname":"Ascension","alternatenames":"Anez,Ascencion,Ascención,Ascension,Ascensión,Asencion,Añez","latitude":"-15.7","longitude":"-63.08333","feature_class":"P","feature_code":"PPL","country_code":"BO","cc2":"","admin1_code":"08","admin2_code":"","admin3_code":"","admin4_code":"","population":"14429","elevation":"","dem":"198","timezone":"America/La_Paz","modification_date":"2012-01-19"},{"geonameid":"3923770","name":"Arani","asciiname":"Arani","alternatenames":"Arani","latitude":"-17.56854","longitude":"-65.76883","feature_class":"P","feature_code":"PPL","country_code":"BO","cc2":"","admin1_code":"02","admin2_code":"","admin3_code":"","admin4_code":"","population":"3906","elevation":"","dem":"2749","timezone":"America/La_Paz","modification_date":"2013-05-08"},{"geonameid":"3924105","name":"Amarete","asciiname":"Amarete","alternatenames":"Amarete","latitude":"-15.23333","longitude":"-68.96667","feature_class":"P","feature_code":"PPL","country_code":"BO","cc2":"","admin1_code":"04","admin2_code":"","admin3_code":"","admin4_code":"","population":"2203","elevation":"","dem":"3376","timezone":"America/La_Paz","modification_date":"2013-05-05"},{"geonameid":"3924341","name":"Aiquile","asciiname":"Aiquile","alternatenames":"","latitude":"-18.20408","longitude":"-65.18068","feature_class":"P","feature_code":"PPL","country_code":"BO","cc2":"","admin1_code":"02","admin2_code":"","admin3_code":"","admin4_code":"","population":"8224","elevation":"","dem":"2258","timezone":"America/La_Paz","modification_date":"2009-10-16"},{"geonameid":"3924610","name":"Achacachi","asciiname":"Achacachi","alternatenames":"Acakacis,Achacachi,Ačakačis,Jachakachi,Villa Lealtad,a cha ka qi,akasachy,אטשאקאטשי,اکاساچی,阿查卡奇","latitude":"-16.05","longitude":"-68.68333","feature_class":"P","feature_code":"PPL","country_code":"BO","cc2":"","admin1_code":"04","admin2_code":"","admin3_code":"","admin4_code":"","population":"8447","elevation":"","dem":"3838","timezone":"America/La_Paz","modification_date":"2012-01-19"},{"geonameid":"3924668","name":"Abapó","asciiname":"Abapo","alternatenames":"Abapo,Abapó,Mision Abapo,Misión Abapó,a ba bo,abapw,آباپو,阿巴波","latitude":"-18.88279","longitude":"-63.38026","feature_class":"P","feature_code":"PPL","country_code":"BO","cc2":"","admin1_code":"08","admin2_code":"","admin3_code":"","admin4_code":"","population":"2419","elevation":"","dem":"468","timezone":"America/La_Paz","modification_date":"2013-01-11"},{"geonameid":"8354631","name":"Cruz de Machacamarca","asciiname":"Cruz de Machacamarca","alternatenames":"","latitude":"-18.88395","longitude":"-68.41989","feature_class":"P","feature_code":"PPLA2","country_code":"BO","cc2":"","admin1_code":"05","admin2_code":"","admin3_code":"","admin4_code":"","population":"0","elevation":"","dem":"3726","timezone":"America/La_Paz","modification_date":"2012-08-03"},{"geonameid":"9165781","name":"Yacuíba","asciiname":"Yacuiba","alternatenames":"","latitude":"-22.01528","longitude":"-65","feature_class":"P","feature_code":"PPLA2","country_code":"BO","cc2":"","admin1_code":"09","admin2_code":"","admin3_code":"","admin4_code":"","population":"0","elevation":"","dem":"3237","timezone":"America/La_Paz","modification_date":"2014-06-11"},{"geonameid":"10340676","name":"Santa Fe","asciiname":"Santa Fe","alternatenames":"","latitude":"-17.90818","longitude":"-63.03955","feature_class":"P","feature_code":"PPLA3","country_code":"BO","cc2":"","admin1_code":"08","admin2_code":"","admin3_code":"","admin4_code":"","population":"0","elevation":"","dem":"377","timezone":"America/La_Paz","modification_date":"2015-06-12"},{"geonameid":"10340677","name":"San Julian","asciiname":"San Julian","alternatenames":"","latitude":"-17.80623","longitude":"-62.89536","feature_class":"P","feature_code":"PPLA3","country_code":"BO","cc2":"","admin1_code":"08","admin2_code":"","admin3_code":"","admin4_code":"","population":"0","elevation":"","dem":"339","timezone":"America/La_Paz","modification_date":"2015-06-12"},{"geonameid":"10340678","name":"Puearto Pailas","asciiname":"Puearto Pailas","alternatenames":"","latitude":"-17.663","longitude":"-62.81227","feature_class":"P","feature_code":"PPLA3","country_code":"BO","cc2":"","admin1_code":"08","admin2_code":"","admin3_code":"","admin4_code":"","population":"0","elevation":"","dem":"300","timezone":"America/La_Paz","modification_date":"2015-06-12"},{"geonameid":"3513146","name":"Upper Hell's Gate","asciiname":"Upper Hell's Gate","alternatenames":"Hellsgate","latitude":"17.643","longitude":"-63.22649","feature_class":"P","feature_code":"PPL","country_code":"BQ","cc2":"","admin1_code":"SB","admin2_code":"","admin3_code":"","admin4_code":"","population":"2810","elevation":"","dem":"195","timezone":"America/Kralendijk","modification_date":"2011-02-05"},{"geonameid":"3513173","name":"The Bottom","asciiname":"The Bottom","alternatenames":"Bottom,Leverock Town","latitude":"17.6259","longitude":"-63.24919","feature_class":"P","feature_code":"PPLA","country_code":"BQ","cc2":"","admin1_code":"SB","admin2_code":"","admin3_code":"","admin4_code":"","population":"488","elevation":"","dem":"222","timezone":"America/Kralendijk","modification_date":"2010-12-19"},{"geonameid":"3513426","name":"Oranjestad","asciiname":"Oranjestad","alternatenames":"Gorad Aran'estad,Oran'estad,Oranestad,Orange Town,Oraniestat,Oranjestad,Oranjestad pa Sint Eustatius,Oranjestad på Sint Eustatius,Oranjestadas,Oranjestado,Oranjested,Oranjestêd,ao la nie si ta de,awranyastad,olanyeseutateu,oraniesutaddo,Οράνιεστατ,Горад Араньестад,Ораньестад,Орањестад,أورانياستاد,اورنجسٹیڈ، سینٹ ایوسٹائیس,ორანესტადი,オラニエスタッド,奥拉涅斯塔德,오라녜스타트","latitude":"17.48268","longitude":"-62.98324","feature_class":"P","feature_code":"PPLA","country_code":"BQ","cc2":"","admin1_code":"SE","admin2_code":"","admin3_code":"","admin4_code":"","population":"1097","elevation":"","dem":"62","timezone":"America/Kralendijk","modification_date":"2011-02-06"},{"geonameid":"3513563","name":"Kralendijk","asciiname":"Kralendijk","alternatenames":"Gorad Kralendehjk,Kralendajk,Kralendeikas,Kralendejk,Kralendijk,Kralendiyk,Kralentik,Playa,ke la lun dai ke,keulallendeikeu,kralndyk,kralyndayk,kurarendaiku,Κράλεντικ,Горад Кралендэйк,Кралендайк,Кралендајк,Кралендейк,Կրալենդիյկ,كراليندايك,کرالندیک,کرالن‌دیک,კრალენდეიკი,クラレンダイク,克拉伦代克,크랄렌데이크","latitude":"12.15","longitude":"-68.26667","feature_class":"P","feature_code":"PPLC","country_code":"BQ","cc2":"","admin1_code":"BO","admin2_code":"","admin3_code":"","admin4_code":"","population":"3081","elevation":"","dem":"4","timezone":"America/Kralendijk","modification_date":"2014-08-19"},{"geonameid":"3513760","name":"Dorp Tera Kora","asciiname":"Dorp Tera Kora","alternatenames":"Dorp Tera Cora,Dorp Tera Corá,Dorp Tera Kora,Terra Corra","latitude":"12.13333","longitude":"-68.26667","feature_class":"P","feature_code":"PPL","country_code":"BQ","cc2":"","admin1_code":"BO","admin2_code":"","admin3_code":"","admin4_code":"","population":"1186","elevation":"","dem":"6","timezone":"America/Kralendijk","modification_date":"2010-12-19"},{"geonameid":"3513765","name":"Dorp Rincón","asciiname":"Dorp Rincon","alternatenames":"Dorp Rincan,Dorp Rincon,Dorp Rincón,Rincon,Rincón","latitude":"12.23333","longitude":"-68.33333","feature_class":"P","feature_code":"PPL","country_code":"BQ","cc2":"","admin1_code":"BO","admin2_code":"","admin3_code":"","admin4_code":"","population":"1496","elevation":"","dem":"39","timezone":"America/Kralendijk","modification_date":"2010-12-19"},{"geonameid":"3513768","name":"Dorp Antriol","asciiname":"Dorp Antriol","alternatenames":"Deenterra,Dentera,Dorp Antriol,Entrejol","latitude":"12.16667","longitude":"-68.26667","feature_class":"P","feature_code":"PPL","country_code":"BQ","cc2":"","admin1_code":"BO","admin2_code":"","admin3_code":"","admin4_code":"","population":"2980","elevation":"","dem":"28","timezone":"America/Kralendijk","modification_date":"2010-12-19"},{"geonameid":"3384983","name":"Vitorino Freire","asciiname":"Vitorino Freire","alternatenames":"Agua Branca,Centro dos Boas,Senador Vitorino Freire,Vitorino Freire,Água Branca","latitude":"-4.04238","longitude":"-45.23777","feature_class":"P","feature_code":"PPL","country_code":"BR","cc2":"","admin1_code":"13","admin2_code":"2107407","admin3_code":"","admin4_code":"","population":"13267","elevation":"","dem":"44","timezone":"America/Fortaleza","modification_date":"2013-01-11"},{"geonameid":"3384986","name":"Vitória do Mearim","asciiname":"Vitoria do Mearim","alternatenames":"Baixo Mearim,Mearim,Victoria do Baixo Mearim,Vitoria do Baixo Mearim,Vitória do Baixo Mearim","latitude":"-3.46222","longitude":"-44.87056","feature_class":"P","feature_code":"PPL","country_code":"BR","cc2":"","admin1_code":"13","admin2_code":"2112902","admin3_code":"","admin4_code":"","population":"15775","elevation":"","dem":"15","timezone":"America/Fortaleza","modification_date":"2012-08-03"},{"geonameid":"3384987","name":"Vitória de Santo Antão","asciiname":"Vitoria de Santo Antao","alternatenames":"Victoria,Vitoria,Vitorija-de-Santu-Antan,Vitória,Витория-де-Санту-Антан","latitude":"-8.11806","longitude":"-35.29139","feature_class":"P","feature_code":"PPL","country_code":"BR","cc2":"","admin1_code":"30","admin2_code":"2616407","admin3_code":"","admin4_code":"","population":"107383","elevation":"","dem":"156","timezone":"America/Recife","modification_date":"2012-08-03"},{"geonameid":"3385022","name":"Viseu","asciiname":"Viseu","alternatenames":"Vizeu","latitude":"-1.19667","longitude":"-46.14","feature_class":"P","feature_code":"PPL","country_code":"BR","cc2":"","admin1_code":"16","admin2_code":"1508308","admin3_code":"","admin4_code":"","population":"18958","elevation":"","dem":"13","timezone":"America/Belem","modification_date":"2012-08-03"},{"geonameid":"3385077","name":"Conde","asciiname":"Conde","alternatenames":"Conde,Jacoca","latitude":"-7.25972","longitude":"-34.9075","feature_class":"P","feature_code":"PPL","country_code":"BR","cc2":"","admin1_code":"17","admin2_code":"2504603","admin3_code":"","admin4_code":"","population":"15859","elevation":"","dem":"116","timezone":"America/Fortaleza","modification_date":"2012-08-03"},{"geonameid":"3385088","name":"Vigia","asciiname":"Vigia","alternatenames":"","latitude":"-0.85833","longitude":"-48.14167","feature_class":"P","feature_code":"PPL","country_code":"BR","cc2":"","admin1_code":"16","admin2_code":"1508209","admin3_code":"","admin4_code":"","population":"29229","elevation":"","dem":"6","timezone":"America/Belem","modification_date":"2012-08-03"},{"geonameid":"3385106","name":"Viçosa do Ceará","asciiname":"Vicosa do Ceara","alternatenames":"Vicosa,Viçosa","latitude":"-3.56222","longitude":"-41.09222","feature_class":"P","feature_code":"PPL","country_code":"BR","cc2":"","admin1_code":"06","admin2_code":"2314102","admin3_code":"","admin4_code":"","population":"16636","elevation":"","dem":"719","timezone":"America/Fortaleza","modification_date":"2012-08-03"},{"geonameid":"3385109","name":"Viçosa","asciiname":"Vicosa","alternatenames":"Assembleia,Assembléia,Visoza,wei suo sa,Висоза,Վիսոզա,维索萨","latitude":"-9.37139","longitude":"-36.24083","feature_class":"P","feature_code":"PPL","country_code":"BR","cc2":"","admin1_code":"02","admin2_code":"2709400","admin3_code":"","admin4_code":"","population":"19573","elevation":"","dem":"227","timezone":"America/Maceio","modification_date":"2012-08-03"},{"geonameid":"3385118","name":"Vicência","asciiname":"Vicencia","alternatenames":"","latitude":"-7.65694","longitude":"-35.32667","feature_class":"P","feature_code":"PPL","country_code":"BR","cc2":"","admin1_code":"30","admin2_code":"2616308","admin3_code":"","admin4_code":"","population":"10378","elevation":"","dem":"122","timezone":"America/Recife","modification_date":"2012-08-03"},{"geonameid":"3385122","name":"Viana","asciiname":"Viana","alternatenames":"Viana,Vianna,Виана","latitude":"-3.22028","longitude":"-45.00361","feature_class":"P","feature_code":"PPL","country_code":"BR","cc2":"","admin1_code":"13","admin2_code":"2112803","admin3_code":"","admin4_code":"","population":"26689","elevation":"","dem":"13","timezone":"America/Fortaleza","modification_date":"2012-08-03"},{"geonameid":"3385467","name":"Várzea Alegre","asciiname":"Varzea Alegre","alternatenames":"","latitude":"-5.35","longitude":"-40.38333","feature_class":"P","feature_code":"PPL","country_code":"BR","cc2":"","admin1_code":"06","admin2_code":"2305605","admin3_code":"","admin4_code":"","population":"21841","elevation":"","dem":"320","timezone":"America/Fortaleza","modification_date":"2012-08-03"},{"geonameid":"3385504","name":"Varjota","asciiname":"Varjota","alternatenames":"","latitude":"-4.19444","longitude":"-40.47667","feature_class":"P","feature_code":"PPL","country_code":"BR","cc2":"","admin1_code":"06","admin2_code":"2313955","admin3_code":"","admin4_code":"","population":"16462","elevation":"","dem":"187","timezone":"America/Fortaleza","modification_date":"2012-08-03"},{"geonameid":"3385538","name":"Vargem Grande","asciiname":"Vargem Grande","alternatenames":"","latitude":"-3.54306","longitude":"-43.91583","feature_class":"P","feature_code":"PPL","country_code":"BR","cc2":"","admin1_code":"13","admin2_code":"2112704","admin3_code":"","admin4_code":"","population":"21419","elevation":"","dem":"44","timezone":"America/Fortaleza","modification_date":"2012-08-03"},{"geonameid":"3385592","name":"Valença do Piauí","asciiname":"Valenca do Piaui","alternatenames":"Berlengas,Valenca,Valença","latitude":"-6.4075","longitude":"-41.74556","feature_class":"P","feature_code":"PPL","country_code":"BR","cc2":"","admin1_code":"20","admin2_code":"2211308","admin3_code":"","admin4_code":"","population":"15881","elevation":"","dem":"336","timezone":"America/Fortaleza","modification_date":"2012-08-03"},{"geonameid":"3385645","name":"Urucurituba","asciiname":"Urucurituba","alternatenames":"","latitude":"-3.12845","longitude":"-58.15856","feature_class":"P","feature_code":"PPL","country_code":"BR","cc2":"","admin1_code":"04","admin2_code":"1304401","admin3_code":"","admin4_code":"","population":"10180","elevation":"","dem":"37","timezone":"America/Manaus","modification_date":"2013-04-04"},{"geonameid":"3385658","name":"Uruçuí","asciiname":"Urucui","alternatenames":"Urussuhy,Urussui,Urussuí","latitude":"-7.22944","longitude":"-44.55611","feature_class":"P","feature_code":"PPL","country_code":"BR","cc2":"","admin1_code":"20","admin2_code":"2211209","admin3_code":"","admin4_code":"","population":"12243","elevation":"","dem":"173","timezone":"America/Fortaleza","modification_date":"2012-08-03"},{"geonameid":"3385670","name":"Urucará","asciiname":"Urucara","alternatenames":"","latitude":"-2.53639","longitude":"-57.76","feature_class":"P","feature_code":"PPL","country_code":"BR","cc2":"","admin1_code":"04","admin2_code":"1304302","admin3_code":"","admin4_code":"","population":"8603","elevation":"","dem":"17","timezone":"America/Manaus","modification_date":"2012-08-03"},{"geonameid":"3385674","name":"Uruburetama","asciiname":"Uruburetama","alternatenames":"Arraial,Sao Joao de Uruburetama,São João de Uruburetama","latitude":"-3.625","longitude":"-39.50833","feature_class":"P","feature_code":"PPL","country_code":"BR","cc2":"","admin1_code":"06","admin2_code":"2313807","admin3_code":"","admin4_code":"","population":"12075","elevation":"","dem":"127","timezone":"America/Fortaleza","modification_date":"2012-08-03"},{"geonameid":"3385726","name":"Urbano Santos","asciiname":"Urbano Santos","alternatenames":"","latitude":"-3.20778","longitude":"-43.40361","feature_class":"P","feature_code":"PPL","country_code":"BR","cc2":"","admin1_code":"13","admin2_code":"2112605","admin3_code":"","admin4_code":"","population":"12268","elevation":"","dem":"42","timezone":"America/Fortaleza","modification_date":"2012-08-03"},{"geonameid":"3385736","name":"Upanema","asciiname":"Upanema","alternatenames":"","latitude":"-5.64194","longitude":"-37.25778","feature_class":"P","feature_code":"PPL","country_code":"BR","cc2":"","admin1_code":"22","admin2_code":"2414605","admin3_code":"","admin4_code":"","population":"6704","elevation":"","dem":"46","timezone":"America/Fortaleza","modification_date":"2012-08-03"},{"geonameid":"3385742","name":"União dos Palmares","asciiname":"Uniao dos Palmares","alternatenames":"Uniao,União","latitude":"-9.16278","longitude":"-36.03194","feature_class":"P","feature_code":"PPL","country_code":"BR","cc2":"","admin1_code":"02","admin2_code":"2709301","admin3_code":"","admin4_code":"","population":"41178","elevation":"","dem":"154","timezone":"America/Maceio","modification_date":"2012-08-03"},{"geonameid":"3385745","name":"União","asciiname":"Uniao","alternatenames":"","latitude":"-4.58583","longitude":"-42.86417","feature_class":"P","feature_code":"PPL","country_code":"BR","cc2":"","admin1_code":"20","admin2_code":"2211100","admin3_code":"","admin4_code":"","population":"15677","elevation":"","dem":"60","timezone":"America/Fortaleza","modification_date":"2012-08-03"},{"geonameid":"3385758","name":"Umirim","asciiname":"Umirim","alternatenames":"Riacho da Sela,Riacho da Sella,Riachuelo","latitude":"-3.67722","longitude":"-39.35028","feature_class":"P","feature_code":"PPL","country_code":"BR","cc2":"","admin1_code":"06","admin2_code":"2313757","admin3_code":"","admin4_code":"","population":"12220","elevation":"","dem":"63","timezone":"America/Fortaleza","modification_date":"2012-08-03"},{"geonameid":"3385778","name":"Umbuzeiro","asciiname":"Umbuzeiro","alternatenames":"","latitude":"-7.69556","longitude":"-35.66361","feature_class":"P","feature_code":"PPL","country_code":"BR","cc2":"","admin1_code":"17","admin2_code":"2517001","admin3_code":"","admin4_code":"","population":"4588","elevation":"","dem":"527","timezone":"America/Fortaleza","modification_date":"2012-08-03"},{"geonameid":"3385826","name":"Umarizal","asciiname":"Umarizal","alternatenames":"Divinopolis","latitude":"-5.99056","longitude":"-37.81444","feature_class":"P","feature_code":"PPL","country_code":"BR","cc2":"","admin1_code":"22","admin2_code":"2414506","admin3_code":"","admin4_code":"","population":"8780","elevation":"","dem":"174","timezone":"America/Fortaleza","modification_date":"2012-08-03"},{"geonameid":"3385850","name":"Uiraúna","asciiname":"Uirauna","alternatenames":"Belem,Belém,Canaa,Canaã","latitude":"-6.51833","longitude":"-38.41222","feature_class":"P","feature_code":"PPL","country_code":"BR","cc2":"","admin1_code":"17","admin2_code":"2516904","admin3_code":"","admin4_code":"","population":"7823","elevation":"","dem":"298","timezone":"America/Fortaleza","modification_date":"2012-08-03"},{"geonameid":"3385873","name":"Ubajara","asciiname":"Ubajara","alternatenames":"","latitude":"-3.85444","longitude":"-40.92111","feature_class":"P","feature_code":"PPL","country_code":"BR","cc2":"","admin1_code":"06","admin2_code":"2313609","admin3_code":"","admin4_code":"","population":"13802","elevation":"","dem":"855","timezone":"America/Fortaleza","modification_date":"2012-08-03"},{"geonameid":"3385883","name":"Uauá","asciiname":"Uaua","alternatenames":"","latitude":"-9.84139","longitude":"-39.48167","feature_class":"P","feature_code":"PPL","country_code":"BR","cc2":"","admin1_code":"05","admin2_code":"2932002","admin3_code":"","admin4_code":"","population":"11425","elevation":"","dem":"440","timezone":"America/Bahia","modification_date":"2012-08-03"},{"geonameid":"3385899","name":"Tutóia","asciiname":"Tutoia","alternatenames":"Tutoya","latitude":"-2.76194","longitude":"-42.27444","feature_class":"P","feature_code":"PPL","country_code":"BR","cc2":"","admin1_code":"13","admin2_code":"2112506","admin3_code":"","admin4_code":"","population":"12212","elevation":"","dem":"5","timezone":"America/Fortaleza","modification_date":"2012-08-03"},{"geonameid":"3385908","name":"Turiaçu","asciiname":"Turiacu","alternatenames":"Turiassu,Turiassú,Tury-Assu,Tury-Assú","latitude":"-1.66333","longitude":"-45.37167","feature_class":"P","feature_code":"PPL","country_code":"BR","cc2":"","admin1_code":"13","admin2_code":"2112407","admin3_code":"","admin4_code":"","population":"10471","elevation":"","dem":"34","timezone":"America/Fortaleza","modification_date":"2012-08-03"},{"geonameid":"3385920","name":"Tupanatinga","asciiname":"Tupanatinga","alternatenames":"Santa Clara","latitude":"-8.75333","longitude":"-37.33972","feature_class":"P","feature_code":"PPL","country_code":"BR","cc2":"","admin1_code":"30","admin2_code":"2615805","admin3_code":"","admin4_code":"","population":"5768","elevation":"","dem":"718","timezone":"America/Recife","modification_date":"2012-08-03"},{"geonameid":"3385922","name":"Tuntum","asciiname":"Tuntum","alternatenames":"Tumtum","latitude":"-5.25806","longitude":"-44.64889","feature_class":"P","feature_code":"PPL","country_code":"BR","cc2":"","admin1_code":"13","admin2_code":"2112308","admin3_code":"","admin4_code":"","population":"16402","elevation":"","dem":"109","timezone":"America/Fortaleza","modification_date":"2012-08-03"},{"geonameid":"3385935","name":"Tucuruí","asciiname":"Tucurui","alternatenames":"Alcobaca,Alcobaça,TUR","latitude":"-3.76585","longitude":"-49.67923","feature_class":"P","feature_code":"PPL","country_code":"BR","cc2":"","admin1_code":"16","admin2_code":"1508100","admin3_code":"","admin4_code":"","population":"76337","elevation":"","dem":"60","timezone":"America/Belem","modification_date":"2014-08-17"},{"geonameid":"3385980","name":"Tucumã","asciiname":"Tucuma","alternatenames":"","latitude":"-0.18333","longitude":"-50.05","feature_class":"P","feature_code":"PPL","country_code":"BR","cc2":"","admin1_code":"16","admin2_code":"1502509","admin3_code":"","admin4_code":"","population":"15030","elevation":"","dem":"13","timezone":"America/Belem","modification_date":"2012-08-03"},{"geonameid":"3386027","name":"Triunfo","asciiname":"Triunfo","alternatenames":"","latitude":"-6.56667","longitude":"-38.6","feature_class":"P","feature_code":"PPL","country_code":"BR","cc2":"","admin1_code":"17","admin2_code":"2516805","admin3_code":"","admin4_code":"","population":"3871","elevation":"","dem":"340","timezone":"America/Fortaleza","modification_date":"2012-08-03"},{"geonameid":"3386042","name":"Trindade","asciiname":"Trindade","alternatenames":"","latitude":"-7.76194","longitude":"-40.26778","feature_class":"P","feature_code":"PPL","country_code":"BR","cc2":"","admin1_code":"30","admin2_code":"2615607","admin3_code":"","admin4_code":"","population":"19313","elevation":"","dem":"523","timezone":"America/Recife","modification_date":"2012-08-03"},{"geonameid":"3386177","name":"Trairi","asciiname":"Trairi","alternatenames":"Trahiry","latitude":"-3.27778","longitude":"-39.26889","feature_class":"P","feature_code":"PPL","country_code":"BR","cc2":"","admin1_code":"06","admin2_code":"2313500","admin3_code":"","admin4_code":"","population":"23126","elevation":"","dem":"9","timezone":"America/Fortaleza","modification_date":"2012-08-03"},{"geonameid":"3386198","name":"Traipu","asciiname":"Traipu","alternatenames":"Porto da Folha,Pôrto da Fôlha","latitude":"-9.97056","longitude":"-37.00333","feature_class":"P","feature_code":"PPL","country_code":"BR","cc2":"","admin1_code":"02","admin2_code":"2709202","admin3_code":"","admin4_code":"","population":"8427","elevation":"","dem":"30","timezone":"America/Maceio","modification_date":"2012-08-03"},{"geonameid":"3386213","name":"Touros","asciiname":"Touros","alternatenames":"","latitude":"-5.19889","longitude":"-35.46083","feature_class":"P","feature_code":"PPL","country_code":"BR","cc2":"","admin1_code":"22","admin2_code":"2414407","admin3_code":"","admin4_code":"","population":"7662","elevation":"","dem":"9","timezone":"America/Fortaleza","modification_date":"2012-08-03"},{"geonameid":"3386264","name":"Toritama","asciiname":"Toritama","alternatenames":"Toritama,Torres,Торитама","latitude":"-8.00667","longitude":"-36.05667","feature_class":"P","feature_code":"PPL","country_code":"BR","cc2":"","admin1_code":"30","admin2_code":"2615409","admin3_code":"","admin4_code":"","population":"23940","elevation":"","dem":"356","timezone":"America/Recife","modification_date":"2012-08-03"},{"geonameid":"3386279","name":"Tomé Açu","asciiname":"Tome Acu","alternatenames":"","latitude":"-2.41889","longitude":"-48.15222","feature_class":"P","feature_code":"PPL","country_code":"BR","cc2":"","admin1_code":"16","admin2_code":"1508001","admin3_code":"","admin4_code":"","population":"34053","elevation":"","dem":"21","timezone":"America/Belem","modification_date":"2012-08-03"},{"geonameid":"3386361","name":"Timon","asciiname":"Timon","alternatenames":"Flores,Timon,Тимон","latitude":"-5.09417","longitude":"-42.83667","feature_class":"P","feature_code":"PPL","country_code":"BR","cc2":"","admin1_code":"13","admin2_code":"2112209","admin3_code":"","admin4_code":"","population":"124427","elevation":"","dem":"76","timezone":"America/Fortaleza","modification_date":"2012-08-03"},{"geonameid":"3386372","name":"Timbiras","asciiname":"Timbiras","alternatenames":"Monte Alegre,Urubu,Urubú","latitude":"-4.25528","longitude":"-43.94056","feature_class":"P","feature_code":"PPL","country_code":"BR","cc2":"","admin1_code":"13","admin2_code":"2112100","admin3_code":"","admin4_code":"","population":"17875","elevation":"","dem":"36","timezone":"America/Fortaleza","modification_date":"2012-08-03"},{"geonameid":"3386396","name":"Timbaúba","asciiname":"Timbauba","alternatenames":"Gurjao,Gurjão","latitude":"-7.50528","longitude":"-35.31833","feature_class":"P","feature_code":"PPL","country_code":"BR","cc2":"","admin1_code":"30","admin2_code":"2615300","admin3_code":"","admin4_code":"","population":"45121","elevation":"","dem":"136","timezone":"America/Recife","modification_date":"2012-08-03"},{"geonameid":"3386449","name":"Tianguá","asciiname":"Tiangua","alternatenames":"Barracao,Barracão","latitude":"-3.73222","longitude":"-40.99167","feature_class":"P","feature_code":"PPL","country_code":"BR","cc2":"","admin1_code":"06","admin2_code":"2313401","admin3_code":"","admin4_code":"","population":"45696","elevation":"","dem":"773","timezone":"America/Fortaleza","modification_date":"2012-08-03"},{"geonameid":"3386467","name":"Terra Santa","asciiname":"Terra Santa","alternatenames":"","latitude":"-2.10417","longitude":"-56.48694","feature_class":"P","feature_code":"PPL","country_code":"BR","cc2":"","admin1_code":"16","admin2_code":"1507979","admin3_code":"","admin4_code":"","population":"13512","elevation":"","dem":"21","timezone":"America/Santarem","modification_date":"2012-08-03"},{"geonameid":"3386496","name":"Teresina","asciiname":"Teresina","alternatenames":"Gorad Tehrehzina,Poti,THE,Teresina,Terezina,Theresina,Therezina,Vila Nova do Poti,te lei xi na,te re si na,telejina,terejina,teresina,trzynh,tyrysyna,Горад Тэрэзіна,Терезина,Терезіна,תרזינה,تيريسينا,تیریسینا,টেরেসিনা,เตเรซีนา,ტერეზინა,テレジーナ,特雷西納,테레지나","latitude":"-5.08917","longitude":"-42.80194","feature_class":"P","feature_code":"PPLA","country_code":"BR","cc2":"","admin1_code":"20","admin2_code":"2211001","admin3_code":"","admin4_code":"","population":"744512","elevation":"","dem":"87","timezone":"America/Fortaleza","modification_date":"2012-08-03"},{"geonameid":"3386533","name":"Teixeira","asciiname":"Teixeira","alternatenames":"Tejshejra,Teyseyra,te xie la,Тейшейра,Տեյշեյրա,特谢拉","latitude":"-7.22278","longitude":"-37.25417","feature_class":"P","feature_code":"PPL","country_code":"BR","cc2":"","admin1_code":"17","admin2_code":"2516706","admin3_code":"","admin4_code":"","population":"9954","elevation":"","dem":"780","timezone":"America/Fortaleza","modification_date":"2012-08-03"},{"geonameid":"3386543","name":"Tavares","asciiname":"Tavares","alternatenames":"","latitude":"-7.63583","longitude":"-37.87833","feature_class":"P","feature_code":"PPL","country_code":"BR","cc2":"","admin1_code":"17","admin2_code":"2516607","admin3_code":"","admin4_code":"","population":"4939","elevation":"","dem":"718","timezone":"America/Fortaleza","modification_date":"2012-08-03"},{"geonameid":"3386567","name":"São João dos Inhamuns","asciiname":"Sao Joao dos Inhamuns","alternatenames":"Sao Joao dos Inhamuns,São João dos Inhamuns","latitude":"-6","longitude":"-40.28333","feature_class":"P","feature_code":"PPL","country_code":"BR","cc2":"","admin1_code":"06","admin2_code":"2313302","admin3_code":"","admin4_code":"","population":"29188","elevation":"","dem":"405","timezone":"America/Fortaleza","modification_date":"2012-08-03"},{"geonameid":"3386622","name":"Taquaritinga do Norte","asciiname":"Taquaritinga do Norte","alternatenames":"Jaquaritinga do Norte,Taquaretinga,Taquaritinga","latitude":"-7.90306","longitude":"-36.04417","feature_class":"P","feature_code":"PPL","country_code":"BR","cc2":"","admin1_code":"30","admin2_code":"2615003","admin3_code":"","admin4_code":"","population":"13379","elevation":"","dem":"771","timezone":"America/Recife","modification_date":"2012-08-03"},{"geonameid":"3386628","name":"Taquarana","asciiname":"Taquarana","alternatenames":"Cana Brava dos Pais,Cana-Brava,Canna Brava","latitude":"-9.645","longitude":"-36.49722","feature_class":"P","feature_code":"PPL","country_code":"BR","cc2":"","admin1_code":"02","admin2_code":"2709103","admin3_code":"","admin4_code":"","population":"5288","elevation":"","dem":"242","timezone":"America/Maceio","modification_date":"2012-08-03"},{"geonameid":"3386693","name":"Taperoá","asciiname":"Taperoa","alternatenames":"Batalhao,Batalhão","latitude":"-7.2075","longitude":"-36.82667","feature_class":"P","feature_code":"PPL","country_code":"BR","cc2":"","admin1_code":"17","admin2_code":"2516508","admin3_code":"","admin4_code":"","population":"8879","elevation":"","dem":"533","timezone":"America/Fortaleza","modification_date":"2012-08-03"},{"geonameid":"3386842","name":"Tangará","asciiname":"Tangara","alternatenames":"Riacho","latitude":"-6.19944","longitude":"-35.80167","feature_class":"P","feature_code":"PPL","country_code":"BR","cc2":"","admin1_code":"22","admin2_code":"2414001","admin3_code":"","admin4_code":"","population":"8067","elevation":"","dem":"188","timezone":"America/Fortaleza","modification_date":"2012-08-03"},{"geonameid":"3386874","name":"Tamboril","asciiname":"Tamboril","alternatenames":"Tambari","latitude":"-4.83222","longitude":"-40.32056","feature_class":"P","feature_code":"PPL","country_code":"BR","cc2":"","admin1_code":"06","admin2_code":"2313203","admin3_code":"","admin4_code":"","population":"14292","elevation":"","dem":"321","timezone":"America/Fortaleza","modification_date":"2012-08-03"},{"geonameid":"3386931","name":"Tamandaré","asciiname":"Tamandare","alternatenames":"","latitude":"-8.75632","longitude":"-35.09995","feature_class":"P","feature_code":"PPLA2","country_code":"BR","cc2":"BR","admin1_code":"30","admin2_code":"2614857","admin3_code":"","admin4_code":"","population":"17954","elevation":"","dem":"12","timezone":"America/Recife","modification_date":"2012-08-03"},{"geonameid":"3386957","name":"Taipu","asciiname":"Taipu","alternatenames":"","latitude":"-5.62167","longitude":"-35.59667","feature_class":"P","feature_code":"PPL","country_code":"BR","cc2":"","admin1_code":"22","admin2_code":"2413904","admin3_code":"","admin4_code":"","population":"4606","elevation":"","dem":"42","timezone":"America/Fortaleza","modification_date":"2012-08-03"},{"geonameid":"3387082","name":"Tabira","asciiname":"Tabira","alternatenames":"Espirito Santo,Madeira","latitude":"-7.59083","longitude":"-37.53944","feature_class":"P","feature_code":"PPL","country_code":"BR","cc2":"","admin1_code":"30","admin2_code":"2614600","admin3_code":"","admin4_code":"","population":"16926","elevation":"","dem":"571","timezone":"America/Recife","modification_date":"2012-08-03"},{"geonameid":"3387115","name":"Surubim","asciiname":"Surubim","alternatenames":"","latitude":"-7.83306","longitude":"-35.75472","feature_class":"P","feature_code":"PPL","country_code":"BR","cc2":"","admin1_code":"30","admin2_code":"2614501","admin3_code":"","admin4_code":"","population":"34580","elevation":"","dem":"377","timezone":"America/Recife","modification_date":"2012-08-03"},{"geonameid":"3387130","name":"Sumé","asciiname":"Sume","alternatenames":"Sao Thome,Sao Tome,São Thomé,São Tomé","latitude":"-7.67167","longitude":"-36.88","feature_class":"P","feature_code":"PPL","country_code":"BR","cc2":"","admin1_code":"17","admin2_code":"2516300","admin3_code":"","admin4_code":"","population":"10440","elevation":"","dem":"518","timezone":"America/Fortaleza","modification_date":"2012-08-03"},{"geonameid":"3387202","name":"Sousa","asciiname":"Sousa","alternatenames":"Souza","latitude":"-6.75917","longitude":"-38.22806","feature_class":"P","feature_code":"PPL","country_code":"BR","cc2":"","admin1_code":"17","admin2_code":"2516201","admin3_code":"","admin4_code":"","population":"47927","elevation":"","dem":"229","timezone":"America/Fortaleza","modification_date":"2012-08-03"},{"geonameid":"3387204","name":"Soure","asciiname":"Soure","alternatenames":"SFK","latitude":"-0.71667","longitude":"-48.52333","feature_class":"P","feature_code":"PPL","country_code":"BR","cc2":"","admin1_code":"16","admin2_code":"1507904","admin3_code":"","admin4_code":"","population":"18212","elevation":"","dem":"17","timezone":"America/Belem","modification_date":"2012-08-03"},{"geonameid":"3387258","name":"Soledade","asciiname":"Soledade","alternatenames":"Ibiapinopolis,Ibiapinópolis","latitude":"-7.05722","longitude":"-36.36278","feature_class":"P","feature_code":"PPL","country_code":"BR","cc2":"","admin1_code":"17","admin2_code":"2516102","admin3_code":"","admin4_code":"","population":"8090","elevation":"","dem":"526","timezone":"America/Fortaleza","modification_date":"2012-08-03"},{"geonameid":"3387266","name":"Solânea","asciiname":"Solanea","alternatenames":"Moreno","latitude":"-6.755","longitude":"-35.54","feature_class":"P","feature_code":"PPL","country_code":"BR","cc2":"","admin1_code":"17","admin2_code":"2501500","admin3_code":"","admin4_code":"","population":"17030","elevation":"","dem":"188","timezone":"America/Fortaleza","modification_date":"2012-08-03"},{"geonameid":"3387296","name":"Sobral","asciiname":"Sobral","alternatenames":"Januaria de Acaracu,Januária de Acaracu,QBX,Sobral,Sobrat,Собрал","latitude":"-3.68611","longitude":"-40.34972","feature_class":"P","feature_code":"PPL","country_code":"BR","cc2":"","admin1_code":"06","admin2_code":"2312908","admin3_code":"","admin4_code":"","population":"157996","elevation":"","dem":"75","timezone":"America/Fortaleza","modification_date":"2013-12-28"},{"geonameid":"3387604","name":"Sirinhaém","asciiname":"Sirinhaem","alternatenames":"Serinhaem,Sirinkhaem,Сиринхаем,סירינהאַéם","latitude":"-8.59083","longitude":"-35.11611","feature_class":"P","feature_code":"PPLA2","country_code":"BR","cc2":"BR","admin1_code":"30","admin2_code":"2614204","admin3_code":"","admin4_code":"","population":"40852","elevation":"","dem":"43","timezone":"America/Recife","modification_date":"2012-04-16"},{"geonameid":"3387620","name":"Simplício Mendes","asciiname":"Simplicio Mendes","alternatenames":"","latitude":"-7.85389","longitude":"-41.91028","feature_class":"P","feature_code":"PPL","country_code":"BR","cc2":"","admin1_code":"20","admin2_code":"2210805","admin3_code":"","admin4_code":"","population":"7076","elevation":"","dem":"292","timezone":"America/Fortaleza","modification_date":"2012-08-03"},{"geonameid":"3387625","name":"Simões","asciiname":"Simoes","alternatenames":"","latitude":"-7.59889","longitude":"-40.81778","feature_class":"P","feature_code":"PPL","country_code":"BR","cc2":"","admin1_code":"20","admin2_code":"2210706","admin3_code":"","admin4_code":"","population":"4332","elevation":"","dem":"442","timezone":"America/Fortaleza","modification_date":"2012-08-03"},{"geonameid":"3387644","name":"Severiano Melo","asciiname":"Severiano Melo","alternatenames":"","latitude":"-5.77722","longitude":"-37.95778","feature_class":"P","feature_code":"PPL","country_code":"BR","cc2":"","admin1_code":"22","admin2_code":"2413607","admin3_code":"","admin4_code":"","population":"2503","elevation":"","dem":"150","timezone":"America/Fortaleza","modification_date":"2012-08-03"},{"geonameid":"3387663","name":"Sertânia","asciiname":"Sertania","alternatenames":"Alagoa de Baixo","latitude":"-8.07361","longitude":"-37.26444","feature_class":"P","feature_code":"PPL","country_code":"BR","cc2":"","admin1_code":"30","admin2_code":"2614105","admin3_code":"","admin4_code":"","population":"18190","elevation":"","dem":"558","timezone":"America/Recife","modification_date":"2012-08-03"},{"geonameid":"3387786","name":"Serra Talhada","asciiname":"Serra Talhada","alternatenames":"Serra-Tal'jada,Vila Bela,Villa Bella,sai la ta li ya da,serara talahada,Серра-Тальяда,সেররা টালহাডা,塞拉塔利亚达","latitude":"-7.99194","longitude":"-38.29833","feature_class":"P","feature_code":"PPL","country_code":"BR","cc2":"","admin1_code":"30","admin2_code":"2613909","admin3_code":"","admin4_code":"","population":"51203","elevation":"","dem":"436","timezone":"America/Recife","modification_date":"2012-08-03"},{"geonameid":"3387880","name":"Serra Branca","asciiname":"Serra Branca","alternatenames":"","latitude":"-6.53333","longitude":"-38.26667","feature_class":"P","feature_code":"PPL","country_code":"BR","cc2":"","admin1_code":"17","admin2_code":"2517209","admin3_code":"","admin4_code":"","population":"8765","elevation":"","dem":"327","timezone":"America/Fortaleza","modification_date":"2012-08-03"},{"geonameid":"3387926","name":"Senador Pompeu","asciiname":"Senador Pompeu","alternatenames":"","latitude":"-5.58806","longitude":"-39.37167","feature_class":"P","feature_code":"PPL","country_code":"BR","cc2":"","admin1_code":"06","admin2_code":"2312700","admin3_code":"","admin4_code":"","population":"16515","elevation":"","dem":"181","timezone":"America/Fortaleza","modification_date":"2012-08-03"},{"geonameid":"3387928","name":"Senador José Porfírio","asciiname":"Senador Jose Porfirio","alternatenames":"","latitude":"-2.59083","longitude":"-51.95417","feature_class":"P","feature_code":"PPL","country_code":"BR","cc2":"","admin1_code":"16","admin2_code":"1507805","admin3_code":"","admin4_code":"","population":"5708","elevation":"","dem":"7","timezone":"America/Belem","modification_date":"2012-08-03"},{"geonameid":"3387987","name":"Satuba","asciiname":"Satuba","alternatenames":"","latitude":"-9.56333","longitude":"-35.82444","feature_class":"P","feature_code":"PPL","country_code":"BR","cc2":"","admin1_code":"02","admin2_code":"2708907","admin3_code":"","admin4_code":"","population":"15887","elevation":"","dem":"48","timezone":"America/Maceio","modification_date":"2012-08-03"},{"geonameid":"3388092","name":"São Tomé","asciiname":"Sao Tome","alternatenames":"Sao Thome,São Thomé","latitude":"-5.9725","longitude":"-36.07528","feature_class":"P","feature_code":"PPL","country_code":"BR","cc2":"","admin1_code":"22","admin2_code":"2412906","admin3_code":"","admin4_code":"","population":"6137","elevation":"","dem":"167","timezone":"America/Fortaleza","modification_date":"2012-08-03"},{"geonameid":"3388112","name":"São Sebastião","asciiname":"Sao Sebastiao","alternatenames":"Salome,Salomé,San-Sebast'jan,Сан-Себастьян","latitude":"-9.93361","longitude":"-36.55417","feature_class":"P","feature_code":"PPL","country_code":"BR","cc2":"","admin1_code":"02","admin2_code":"2708808","admin3_code":"","admin4_code":"","population":"9551","elevation":"","dem":"204","timezone":"America/Maceio","modification_date":"2012-08-03"},{"geonameid":"3388145","name":"São Raimundo Nonato","asciiname":"Sao Raimundo Nonato","alternatenames":"Raimundo Nonato,Sao Raymundo Nonato","latitude":"-9.01528","longitude":"-42.69944","feature_class":"P","feature_code":"PPL","country_code":"BR","cc2":"","admin1_code":"20","admin2_code":"2210607","admin3_code":"","admin4_code":"","population":"19569","elevation":"","dem":"354","timezone":"America/Fortaleza","modification_date":"2012-08-03"},{"geonameid":"3388147","name":"São Raimundo das Mangabeiras","asciiname":"Sao Raimundo das Mangabeiras","alternatenames":"Sao Raymundo do Rio Neves,São Raymundo do Rio Neves","latitude":"-7.02194","longitude":"-45.48111","feature_class":"P","feature_code":"PPL","country_code":"BR","cc2":"","admin1_code":"13","admin2_code":"2111607","admin3_code":"","admin4_code":"","population":"10216","elevation":"","dem":"241","timezone":"America/Fortaleza","modification_date":"2012-08-03"},{"geonameid":"3388173","name":"São Pedro do Piauí","asciiname":"Sao Pedro do Piaui","alternatenames":"Sao Pedro,São Pedro","latitude":"-5.92944","longitude":"-42.71861","feature_class":"P","feature_code":"PPL","country_code":"BR","cc2":"","admin1_code":"20","admin2_code":"2210508","admin3_code":"","admin4_code":"","population":"7408","elevation":"","dem":"263","timezone":"America/Fortaleza","modification_date":"2012-08-03"},{"geonameid":"3388238","name":"São Paulo do Potengi","asciiname":"Sao Paulo do Potengi","alternatenames":"Potengy,Sao Paulo do Potengi,São Paulo do Potengi","latitude":"-5.895","longitude":"-35.76278","feature_class":"P","feature_code":"PPL","country_code":"BR","cc2":"","admin1_code":"22","admin2_code":"2412609","admin3_code":"","admin4_code":"","population":"9333","elevation":"","dem":"78","timezone":"America/Fortaleza","modification_date":"2012-08-03"},{"geonameid":"3388266","name":"São Miguel do Tapuio","asciiname":"Sao Miguel do Tapuio","alternatenames":"Deliciosa,San-Migel-du-Tapuju,Sao Miguel,São Miguel,Tapuio,sa'o miguraela do tapu'i'o,sheng mi ge er-du ta pu you,Сан-Мигел-ду-Тапую,সাও মিগুৱেল ডো টাপুইও,圣米格尔-杜塔普尤","latitude":"-5.50361","longitude":"-41.32333","feature_class":"P","feature_code":"PPL","country_code":"BR","cc2":"","admin1_code":"20","admin2_code":"2210409","admin3_code":"","admin4_code":"","population":"7964","elevation":"","dem":"283","timezone":"America/Fortaleza","modification_date":"2012-08-03"},{"geonameid":"3388269","name":"São Miguel dos Campos","asciiname":"Sao Miguel dos Campos","alternatenames":"San-Migel'-dus-Kampus,Sao Miguel,Sao Miguel De Campos,São Miguel,Сан-Мигель-дус-Кампус","latitude":"-9.78111","longitude":"-36.09361","feature_class":"P","feature_code":"PPL","country_code":"BR","cc2":"","admin1_code":"02","admin2_code":"2708600","admin3_code":"","admin4_code":"","population":"40890","elevation":"","dem":"13","timezone":"America/Maceio","modification_date":"2012-08-03"},{"geonameid":"3388270","name":"São Miguel do Guamá","asciiname":"Sao Miguel do Guama","alternatenames":"Guama,Guamá","latitude":"-1.62667","longitude":"-47.48333","feature_class":"P","feature_code":"PPL","country_code":"BR","cc2":"","admin1_code":"16","admin2_code":"1507607","admin3_code":"","admin4_code":"","population":"28265","elevation":"","dem":"9","timezone":"America/Belem","modification_date":"2012-08-03"},{"geonameid":"3388304","name":"São Miguel","asciiname":"Sao Miguel","alternatenames":"","latitude":"-5.46667","longitude":"-35.36667","feature_class":"P","feature_code":"PPL","country_code":"BR","cc2":"","admin1_code":"22","admin2_code":"2407500","admin3_code":"","admin4_code":"","population":"12838","elevation":"","dem":"23","timezone":"America/Fortaleza","modification_date":"2012-08-03"},{"geonameid":"3388318","name":"São Mateus do Maranhão","asciiname":"Sao Mateus do Maranhao","alternatenames":"","latitude":"-4.04167","longitude":"-44.475","feature_class":"P","feature_code":"PPL","country_code":"BR","cc2":"","admin1_code":"13","admin2_code":"2111508","admin3_code":"","admin4_code":"","population":"28233","elevation":"","dem":"47","timezone":"America/Fortaleza","modification_date":"2012-08-03"},{"geonameid":"3388341","name":"São Luís do Quitunde","asciiname":"Sao Luis do Quitunde","alternatenames":"Sao Luiz de Quitunde,Sao Luiz do Quitunde,São Luiz de Quitunde,São Luiz do Quitunde","latitude":"-9.31833","longitude":"-35.56111","feature_class":"P","feature_code":"PPL","country_code":"BR","cc2":"","admin1_code":"02","admin2_code":"2708501","admin3_code":"","admin4_code":"","population":"20563","elevation":"","dem":"7","timezone":"America/Maceio","modification_date":"2012-08-03"},{"geonameid":"3388368","name":"São Luís","asciiname":"Sao Luis","alternatenames":"Maranhao,Maranhão,SLZ,San Luisas,San-Luis,Sao Louis,Sao Luis,Sao Luis do Maranhao,Sao Luiz,Sao Luiz de Maranhao,Sao Luiz do Maranhao,Saun Luis,Saun Luís,São Luis,São Luiz,São Luiz de Maranhão,São Luiz do Maranhão,São Luís,São Luís do Maranhão,cavo luyicu,sa'o lu'isa,san-luisi,sanglu-iseu,saw lwyys,saw lwyz,sayw lwyys  maranhaw,sheng lu yi si,Σάο Λουίς,Сан-Луис,Сан-Луіс,Сан-Луїс,Сао Луис,סאו לואיס,ساؤ لوئیس,ساؤ لوئیس، مارانہاؤ,سائو لوئیس، مارانهاو,ساو لويز,साओ लुईस,সাও লুইস,சாவோ லூயிசு,სან-ლუისი,サン・ルイス,圣路易斯,상루이스","latitude":"-2.52972","longitude":"-44.30278","feature_class":"P","feature_code":"PPLA","country_code":"BR","cc2":"","admin1_code":"13","admin2_code":"2111300","admin3_code":"","admin4_code":"","population":"917237","elevation":"","dem":"29","timezone":"America/Fortaleza","modification_date":"2013-01-26"},{"geonameid":"3388376","name":"São Lourenço da Mata","asciiname":"Sao Lourenco da Mata","alternatenames":"San-Lorensu-da-Mata,Sao Lourenco,Sao Lourenco da Matta,São Lourenço,São Lourenço da Matta,Сан-Лоренсу-да-Мата","latitude":"-8.00222","longitude":"-35.01833","feature_class":"P","feature_code":"PPL","country_code":"BR","cc2":"","admin1_code":"30","admin2_code":"2613701","admin3_code":"","admin4_code":"","population":"88416","elevation":"","dem":"48","timezone":"America/Recife","modification_date":"2012-08-03"},{"geonameid":"3388435","name":"São José do Egito","asciiname":"Sao Jose do Egito","alternatenames":"Queimadas,Sao Jose da Ingazeira,Sao Jose das Queimadas,Sao Jose do Egypto,São José da Ingàzeira,São José das Queimadas,São José do Egypto","latitude":"-7.47889","longitude":"-37.27444","feature_class":"P","feature_code":"PPL","country_code":"BR","cc2":"","admin1_code":"30","admin2_code":"2613602","admin3_code":"","admin4_code":"","population":"18218","elevation":"","dem":"594","timezone":"America/Recife","modification_date":"2012-08-03"},{"geonameid":"3388437","name":"São José do Campestre","asciiname":"Sao Jose do Campestre","alternatenames":"Campestre","latitude":"-6.31556","longitude":"-35.71389","feature_class":"P","feature_code":"PPL","country_code":"BR","cc2":"","admin1_code":"22","admin2_code":"2412302","admin3_code":"","admin4_code":"","population":"10254","elevation":"","dem":"153","timezone":"America/Fortaleza","modification_date":"2012-08-03"},{"geonameid":"3388440","name":"São José do Belmonte","asciiname":"Sao Jose do Belmonte","alternatenames":"Belmonte,Manicobal,Manissobal,Maniçobal","latitude":"-7.86139","longitude":"-38.75972","feature_class":"P","feature_code":"PPL","country_code":"BR","cc2":"","admin1_code":"30","admin2_code":"2613503","admin3_code":"","admin4_code":"","population":"14211","elevation":"","dem":"493","timezone":"America/Recife","modification_date":"2012-08-03"},{"geonameid":"3388441","name":"São José de Ribamar","asciiname":"Sao Jose de Ribamar","alternatenames":"Ribamar,Sao-Jose-do-Ribamar,São-José-do-Ribamar","latitude":"-2.56194","longitude":"-44.05417","feature_class":"P","feature_code":"PPL","country_code":"BR","cc2":"","admin1_code":"13","admin2_code":"2111201","admin3_code":"","admin4_code":"","population":"27777","elevation":"","dem":"-9999","timezone":"America/Fortaleza","modification_date":"2012-08-03"},{"geonameid":"3388442","name":"São José de Piranhas","asciiname":"Sao Jose de Piranhas","alternatenames":"Jatoba,Jatobá","latitude":"-7.12056","longitude":"-38.50194","feature_class":"P","feature_code":"PPL","country_code":"BR","cc2":"","admin1_code":"17","admin2_code":"2514503","admin3_code":"","admin4_code":"","population":"7628","elevation":"","dem":"344","timezone":"America/Fortaleza","modification_date":"2012-08-03"},{"geonameid":"3388443","name":"São José de Mipibu","asciiname":"Sao Jose de Mipibu","alternatenames":"Sao Jose Do Mipibu","latitude":"-6.07472","longitude":"-35.23778","feature_class":"P","feature_code":"PPL","country_code":"BR","cc2":"","admin1_code":"22","admin2_code":"2412203","admin3_code":"","admin4_code":"","population":"15298","elevation":"","dem":"63","timezone":"America/Fortaleza","modification_date":"2012-08-03"},{"geonameid":"3388447","name":"São José da Tapera","asciiname":"Sao Jose da Tapera","alternatenames":"","latitude":"-9.55833","longitude":"-37.38111","feature_class":"P","feature_code":"PPL","country_code":"BR","cc2":"","admin1_code":"02","admin2_code":"2708402","admin3_code":"","admin4_code":"","population":"12391","elevation":"","dem":"252","timezone":"America/Maceio","modification_date":"2012-08-03"},{"geonameid":"3388454","name":"São José da Laje","asciiname":"Sao Jose da Laje","alternatenames":"Jose da Lage,José da Lage,Sao Jose da Lage,São José da Lage","latitude":"-9.00972","longitude":"-36.05833","feature_class":"P","feature_code":"PPL","country_code":"BR","cc2":"","admin1_code":"02","admin2_code":"2708303","admin3_code":"","admin4_code":"","population":"12810","elevation":"","dem":"265","timezone":"America/Maceio","modification_date":"2012-08-03"},{"geonameid":"3388456","name":"São José da Coroa Grande","asciiname":"Sao Jose da Coroa Grande","alternatenames":"Puiracu,Puirassu,Puirassú,Puiraçu","latitude":"-8.89778","longitude":"-35.14778","feature_class":"P","feature_code":"PPL","country_code":"BR","cc2":"","admin1_code":"30","admin2_code":"2613404","admin3_code":"","admin4_code":"","population":"11512","elevation":"","dem":"9","timezone":"America/Recife","modification_date":"2012-08-03"},{"geonameid":"3388567","name":"São Joaquim do Monte","asciiname":"Sao Joaquim do Monte","alternatenames":"Camaratuba,Sao Joaquim,São Joaquim","latitude":"-8.4325","longitude":"-35.80444","feature_class":"P","feature_code":"PPL","country_code":"BR","cc2":"","admin1_code":"30","admin2_code":"2613305","admin3_code":"","admin4_code":"","population":"13520","elevation":"","dem":"483","timezone":"America/Recife","modification_date":"2012-08-03"},{"geonameid":"3388615","name":"São João dos Patos","asciiname":"Sao Joao dos Patos","alternatenames":"","latitude":"-6.495","longitude":"-43.70222","feature_class":"P","feature_code":"PPL","country_code":"BR","cc2":"","admin1_code":"13","admin2_code":"2111102","admin3_code":"","admin4_code":"","population":"19538","elevation":"","dem":"346","timezone":"America/Fortaleza","modification_date":"2012-08-03"},{"geonameid":"3388618","name":"São João do Piauí","asciiname":"Sao Joao do Piaui","alternatenames":"San-Zhuan-du-Piaui,Sao Joao Do Piauhy,São Joao Do Piauhy,pi ao yi zhou sheng ruo ang,sa'o joya'o do piya'u'i,Сан-Жуан-ду-Пиауи,সাও জোয়াও ডো পিয়াউই,皮奥伊州圣若昂","latitude":"-8.35806","longitude":"-42.24667","feature_class":"P","feature_code":"PPL","country_code":"BR","cc2":"","admin1_code":"20","admin2_code":"2210003","admin3_code":"","admin4_code":"","population":"12688","elevation":"","dem":"219","timezone":"America/Fortaleza","modification_date":"2012-08-03"},{"geonameid":"3388626","name":"São João de Pirabas","asciiname":"Sao Joao de Pirabas","alternatenames":"","latitude":"-0.77472","longitude":"-47.17722","feature_class":"P","feature_code":"PPL","country_code":"BR","cc2":"","admin1_code":"16","admin2_code":"1507474","admin3_code":"","admin4_code":"","population":"10065","elevation":"","dem":"26","timezone":"America/Belem","modification_date":"2012-08-03"},{"geonameid":"3388635","name":"São João Batista","asciiname":"Sao Joao Batista","alternatenames":"Ibipeuara","latitude":"-2.95528","longitude":"-44.80694","feature_class":"P","feature_code":"PPL","country_code":"BR","cc2":"","admin1_code":"13","admin2_code":"2111003","admin3_code":"","admin4_code":"","population":"3634","elevation":"","dem":"6","timezone":"America/Fortaleza","modification_date":"2012-08-03"},{"geonameid":"3388660","name":"São João","asciiname":"Sao Joao","alternatenames":"","latitude":"-8.87556","longitude":"-36.36667","feature_class":"P","feature_code":"PPL","country_code":"BR","cc2":"","admin1_code":"30","admin2_code":"2613206","admin3_code":"","admin4_code":"","population":"6926","elevation":"","dem":"712","timezone":"America/Recife","modification_date":"2012-08-03"},{"geonameid":"3388713","name":"São Gonçalo do Amarante","asciiname":"Sao Goncalo do Amarante","alternatenames":"Felipe Camarao,Felipe Camarão,Filipe Camarao,Filipe Camarão,Sao Goncalo,São Gonçalo","latitude":"-5.79333","longitude":"-35.32944","feature_class":"P","feature_code":"PPL","country_code":"BR","cc2":"","admin1_code":"22","admin2_code":"2412005","admin3_code":"","admin4_code":"","population":"10381","elevation":"","dem":"15","timezone":"America/Fortaleza","modification_date":"2012-08-03"},{"geonameid":"3388714","name":"São Gonçalo do Amarante","asciiname":"Sao Goncalo do Amarante","alternatenames":"Anacetaba,Sao Goncalo,São Gonçalo","latitude":"-3.60722","longitude":"-38.96833","feature_class":"P","feature_code":"PPL","country_code":"BR","cc2":"","admin1_code":"06","admin2_code":"2312403","admin3_code":"","admin4_code":"","population":"23583","elevation":"","dem":"23","timezone":"America/Fortaleza","modification_date":"2012-08-03"},{"geonameid":"3388760","name":"São Geraldo do Araguaia","asciiname":"Sao Geraldo do Araguaia","alternatenames":"","latitude":"-6.40056","longitude":"-48.555","feature_class":"P","feature_code":"PPL","country_code":"BR","cc2":"","admin1_code":"16","admin2_code":"1507458","admin3_code":"","admin4_code":"","population":"12925","elevation":"","dem":"131","timezone":"America/Araguaina","modification_date":"2012-08-03"},{"geonameid":"3388847","name":"São Félix do Xingu","asciiname":"Sao Felix do Xingu","alternatenames":"Sao Felix,São Felix","latitude":"-6.64472","longitude":"-51.995","feature_class":"P","feature_code":"PPL","country_code":"BR","cc2":"","admin1_code":"16","admin2_code":"1507300","admin3_code":"","admin4_code":"","population":"16477","elevation":"","dem":"199","timezone":"America/Belem","modification_date":"2012-08-03"},{"geonameid":"3388868","name":"São Domingos do Maranhão","asciiname":"Sao Domingos do Maranhao","alternatenames":"Pucuma,Pucumã","latitude":"-5.57583","longitude":"-44.38528","feature_class":"P","feature_code":"PPL","country_code":"BR","cc2":"","admin1_code":"13","admin2_code":"2110708","admin3_code":"","admin4_code":"","population":"18275","elevation":"","dem":"179","timezone":"America/Fortaleza","modification_date":"2012-08-03"},{"geonameid":"3388926","name":"São Caetano de Odivelas","asciiname":"Sao Caetano de Odivelas","alternatenames":"Sao Caetano de Odivellas,São Caetano de Odivellas","latitude":"-0.75","longitude":"-48.02","feature_class":"P","feature_code":"PPL","country_code":"BR","cc2":"","admin1_code":"16","admin2_code":"1507102","admin3_code":"","admin4_code":"","population":"8862","elevation":"","dem":"8","timezone":"America/Belem","modification_date":"2012-08-03"},{"geonameid":"3388949","name":"São Bernardo","asciiname":"Sao Bernardo","alternatenames":"Sao Bernardo do Parnahyba,São Bernardo do Parnahyba","latitude":"-3.36139","longitude":"-42.41778","feature_class":"P","feature_code":"PPL","country_code":"BR","cc2":"","admin1_code":"13","admin2_code":"2110609","admin3_code":"","admin4_code":"","population":"11171","elevation":"","dem":"29","timezone":"America/Fortaleza","modification_date":"2012-08-03"},{"geonameid":"3388991","name":"São Bento","asciiname":"Sao Bento","alternatenames":"","latitude":"-6.28333","longitude":"-37.75","feature_class":"P","feature_code":"PPL","country_code":"BR","cc2":"","admin1_code":"17","admin2_code":"2504306","admin3_code":"","admin4_code":"","population":"24749","elevation":"","dem":"476","timezone":"America/Fortaleza","modification_date":"2012-08-03"},{"geonameid":"3389006","name":"São Bento","asciiname":"Sao Bento","alternatenames":"San-Bentu,Sao Benito dos Perizes,Sao Bento das Perdizes,Sao Bento dos Perizes,São Benito dos Perizes,São Bento das Perdizes,Сан-Бенту","latitude":"-2.69583","longitude":"-44.82139","feature_class":"P","feature_code":"PPL","country_code":"BR","cc2":"","admin1_code":"13","admin2_code":"2110500","admin3_code":"","admin4_code":"","population":"17245","elevation":"","dem":"10","timezone":"America/Fortaleza","modification_date":"2012-08-03"},{"geonameid":"3389012","name":"São Benedito do Rio Preto","asciiname":"Sao Benedito do Rio Preto","alternatenames":"Curuzu,Sao Benedicto,Sao Benedito,São Benedicto,São Benedito","latitude":"-3.33361","longitude":"-43.52833","feature_class":"P","feature_code":"PPL","country_code":"BR","cc2":"","admin1_code":"13","admin2_code":"2110401","admin3_code":"","admin4_code":"","population":"12079","elevation":"","dem":"34","timezone":"America/Fortaleza","modification_date":"2012-08-03"},{"geonameid":"3389062","name":"Santo Antônio do Tauá","asciiname":"Santo Antonio do Taua","alternatenames":"Santo Antonio,Santo Antonio de Taua,Santo Antônio,Santo Antônio de Tauá","latitude":"-1.15194","longitude":"-48.12944","feature_class":"P","feature_code":"PPL","country_code":"BR","cc2":"","admin1_code":"16","admin2_code":"1507003","admin3_code":"","admin4_code":"","population":"8921","elevation":"","dem":"18","timezone":"America/Belem","modification_date":"2012-08-03"},{"geonameid":"3389134","name":"Santo Antônio","asciiname":"Santo Antonio","alternatenames":"Padre Miguelinho","latitude":"-6.31056","longitude":"-35.47889","feature_class":"P","feature_code":"PPL","country_code":"BR","cc2":"","admin1_code":"22","admin2_code":"2411502","admin3_code":"","admin4_code":"","population":"12529","elevation":"","dem":"93","timezone":"America/Fortaleza","modification_date":"2012-08-03"},{"geonameid":"3389321","name":"Santa Rita","asciiname":"Santa Rita","alternatenames":"","latitude":"-7.11389","longitude":"-34.97806","feature_class":"P","feature_code":"PPL","country_code":"BR","cc2":"","admin1_code":"17","admin2_code":"2513703","admin3_code":"","admin4_code":"","population":"119893","elevation":"","dem":"6","timezone":"America/Fortaleza","modification_date":"2012-08-03"},{"geonameid":"3389339","name":"Santa Rita","asciiname":"Santa Rita","alternatenames":"Santa Rita,Санта Рита","latitude":"-3.86358","longitude":"-43.85999","feature_class":"P","feature_code":"PPL","country_code":"BR","cc2":"","admin1_code":"13","admin2_code":"2112704","admin3_code":"","admin4_code":"","population":"13224","elevation":"","dem":"44","timezone":"America/Fortaleza","modification_date":"2012-12-05"},{"geonameid":"3389353","name":"Santarém","asciiname":"Santarem","alternatenames":"STM,Santarem,Santarem i Brasil,Santaren,Santarenas,Santarém,Santarém i Brasil,sang ta rey,santaleng,santaren,santary  para,sheng ta lun,sntrm,Сантарем,Сантарен,סנטרם,سانتاری، پارا,ซังตาเรย์,サンタレン,聖塔倫,산타렝","latitude":"-2.44306","longitude":"-54.70833","feature_class":"P","feature_code":"PPL","country_code":"BR","cc2":"","admin1_code":"16","admin2_code":"1506807","admin3_code":"","admin4_code":"","population":"189047","elevation":"","dem":"51","timezone":"America/Santarem","modification_date":"2013-12-25"},{"geonameid":"3389358","name":"Santa Quitéria do Maranhão","asciiname":"Santa Quiteria do Maranhao","alternatenames":"Bacuri,Bacurí,Santa Quiteria,Santa Quitéria","latitude":"-3.51556","longitude":"-42.54667","feature_class":"P","feature_code":"PPL","country_code":"BR","cc2":"","admin1_code":"13","admin2_code":"2110104","admin3_code":"","admin4_code":"","population":"17174","elevation":"","dem":"29","timezone":"America/Fortaleza","modification_date":"2012-08-03"},{"geonameid":"3389361","name":"Santa Quitéria","asciiname":"Santa Quiteria","alternatenames":"","latitude":"-4.33194","longitude":"-40.15667","feature_class":"P","feature_code":"PPL","country_code":"BR","cc2":"","admin1_code":"06","admin2_code":"2312205","admin3_code":"","admin4_code":"","population":"24391","elevation":"","dem":"198","timezone":"America/Fortaleza","modification_date":"2012-08-03"},{"geonameid":"3389380","name":"Santana do Mundaú","asciiname":"Santana do Mundau","alternatenames":"Mundahu Mirim,Mundahú Mirim,Mundau Mirim,Mundaú Mirim","latitude":"-9.16806","longitude":"-36.22222","feature_class":"P","feature_code":"PPL","country_code":"BR","cc2":"","admin1_code":"02","admin2_code":"2708105","admin3_code":"","admin4_code":"","population":"6439","elevation":"","dem":"229","timezone":"America/Maceio","modification_date":"2012-08-03"},{"geonameid":"3389381","name":"Santana do Matos","asciiname":"Santana do Matos","alternatenames":"Sant'Anna dos Mattos","latitude":"-5.9575","longitude":"-36.65556","feature_class":"P","feature_code":"PPL","country_code":"BR","cc2":"","admin1_code":"22","admin2_code":"2411403","admin3_code":"","admin4_code":"","population":"8050","elevation":"","dem":"144","timezone":"America/Fortaleza","modification_date":"2012-08-03"},{"geonameid":"3389384","name":"Santana do Ipanema","asciiname":"Santana do Ipanema","alternatenames":"Sant'Anna do Ipanema,Santana-du-Ipanema,Сантана-ду-Ипанема","latitude":"-9.37833","longitude":"-37.24528","feature_class":"P","feature_code":"PPL","country_code":"BR","cc2":"","admin1_code":"02","admin2_code":"2708006","admin3_code":"","admin4_code":"","population":"26146","elevation":"","dem":"240","timezone":"America/Maceio","modification_date":"2012-08-03"},{"geonameid":"3389387","name":"Santana do Acaraú","asciiname":"Santana do Acarau","alternatenames":"Licania,Sant'Anna,Santana","latitude":"-3.46056","longitude":"-40.21222","feature_class":"P","feature_code":"PPL","country_code":"BR","cc2":"","admin1_code":"06","admin2_code":"2312007","admin3_code":"","admin4_code":"","population":"14707","elevation":"","dem":"46","timezone":"America/Fortaleza","modification_date":"2012-08-03"},{"geonameid":"3389459","name":"Santa Maria do Pará","asciiname":"Santa Maria do Para","alternatenames":"Santa Maria","latitude":"-1.35028","longitude":"-47.57556","feature_class":"P","feature_code":"PPL","country_code":"BR","cc2":"","admin1_code":"16","admin2_code":"1506609","admin3_code":"","admin4_code":"","population":"12915","elevation":"","dem":"51","timezone":"America/Belem","modification_date":"2012-08-03"},{"geonameid":"3389462","name":"Santa Maria da Boa Vista","asciiname":"Santa Maria da Boa Vista","alternatenames":"Boa Vista,Coripos,Coripós,Santa Maria Boa Vista","latitude":"-8.80778","longitude":"-39.82556","feature_class":"P","feature_code":"PPL","country_code":"BR","cc2":"","admin1_code":"30","admin2_code":"2612604","admin3_code":"","admin4_code":"","population":"14695","elevation":"","dem":"351","timezone":"America/Bahia","modification_date":"2012-08-03"},{"geonameid":"3389557","name":"Santa Luzia","asciiname":"Santa Luzia","alternatenames":"","latitude":"-7.64265","longitude":"-47.21738","feature_class":"P","feature_code":"PPL","country_code":"BR","cc2":"","admin1_code":"13","admin2_code":"2109502","admin3_code":"","admin4_code":"","population":"22909","elevation":"","dem":"197","timezone":"America/Fortaleza","modification_date":"2013-06-05"},{"geonameid":"3389560","name":"Santa Luzia","asciiname":"Santa Luzia","alternatenames":"","latitude":"-6.87222","longitude":"-36.91861","feature_class":"P","feature_code":"PPL","country_code":"BR","cc2":"","admin1_code":"17","admin2_code":"2513406","admin3_code":"","admin4_code":"","population":"13243","elevation":"","dem":"304","timezone":"America/Fortaleza","modification_date":"2012-08-03"},{"geonameid":"3389609","name":"Santa Inês","asciiname":"Santa Ines","alternatenames":"Ines,Inês,Santa-Ines,Санта-Инес","latitude":"-3.66667","longitude":"-45.38","feature_class":"P","feature_code":"PPL","country_code":"BR","cc2":"","admin1_code":"13","admin2_code":"2109908","admin3_code":"","admin4_code":"","population":"67424","elevation":"","dem":"31","timezone":"America/Fortaleza","modification_date":"2012-08-03"},{"geonameid":"3389622","name":"Santa Helena","asciiname":"Santa Helena","alternatenames":"","latitude":"-2.23111","longitude":"-45.3","feature_class":"P","feature_code":"PPL","country_code":"BR","cc2":"","admin1_code":"13","admin2_code":"2109809","admin3_code":"","admin4_code":"","population":"16045","elevation":"","dem":"12","timezone":"America/Fortaleza","modification_date":"2012-08-03"},{"geonameid":"3389652","name":"Santa Cruz do Capibaribe","asciiname":"Santa Cruz do Capibaribe","alternatenames":"Capibaribe,Santa Cruz,Santa-Krus-du-Kapibaribi,santa kruja do kapibaribe,sheng ke lu si-du ka pi ba li bi,Санта-Крус-ду-Капибариби,সান্টা ক্রুজ ডো কাপিবারিবে,圣克鲁斯-杜卡皮巴里比","latitude":"-7.9575","longitude":"-36.20472","feature_class":"P","feature_code":"PPL","country_code":"BR","cc2":"","admin1_code":"30","admin2_code":"2612505","admin3_code":"","admin4_code":"","population":"76450","elevation":"","dem":"445","timezone":"America/Recife","modification_date":"2012-08-03"},{"geonameid":"3389673","name":"Santa Cruz","asciiname":"Santa Cruz","alternatenames":"Santa-Krus,sheng ke lu si,Санта-Крус,聖克魯斯","latitude":"-6.22944","longitude":"-36.02278","feature_class":"P","feature_code":"PPL","country_code":"BR","cc2":"","admin1_code":"22","admin2_code":"2411205","admin3_code":"","admin4_code":"","population":"27775","elevation":"","dem":"230","timezone":"America/Fortaleza","modification_date":"2012-08-03"},{"geonameid":"3389822","name":"Salinópolis","asciiname":"Salinopolis","alternatenames":"Salinas","latitude":"-0.61361","longitude":"-47.35611","feature_class":"P","feature_code":"PPL","country_code":"BR","cc2":"","admin1_code":"16","admin2_code":"1506203","admin3_code":"","admin4_code":"","population":"40998","elevation":"","dem":"10","timezone":"America/Belem","modification_date":"2012-08-03"},{"geonameid":"3389860","name":"Salgueiro","asciiname":"Salgueiro","alternatenames":"Salgejru,Salqueiro,Салгейру","latitude":"-8.07417","longitude":"-39.11917","feature_class":"P","feature_code":"PPL","country_code":"BR","cc2":"","admin1_code":"30","admin2_code":"2612208","admin3_code":"","admin4_code":"","population":"42152","elevation":"","dem":"420","timezone":"America/Recife","modification_date":"2012-08-03"},{"geonameid":"3389873","name":"Salgado de São Félix","asciiname":"Salgado de Sao Felix","alternatenames":"Abura,Aburá,Ibura,Salgada,Salgado","latitude":"-7.35694","longitude":"-35.44056","feature_class":"P","feature_code":"PPL","country_code":"BR","cc2":"","admin1_code":"17","admin2_code":"2513109","admin3_code":"","admin4_code":"","population":"4266","elevation":"","dem":"64","timezone":"America/Fortaleza","modification_date":"2012-08-03"},{"geonameid":"3390160","name":"Russas","asciiname":"Russas","alternatenames":"Rucas,Ruças,Sao Bernardo das Russas,São Bernardo das Russas","latitude":"-4.94028","longitude":"-37.97583","feature_class":"P","feature_code":"PPL","country_code":"BR","cc2":"","admin1_code":"06","admin2_code":"2311801","admin3_code":"","admin4_code":"","population":"39465","elevation":"","dem":"26","timezone":"America/Fortaleza","modification_date":"2012-08-03"},{"geonameid":"3390280","name":"Rio Tinto","asciiname":"Rio Tinto","alternatenames":"","latitude":"-6.80306","longitude":"-35.08056","feature_class":"P","feature_code":"PPL","country_code":"BR","cc2":"","admin1_code":"17","admin2_code":"2512903","admin3_code":"","admin4_code":"","population":"11804","elevation":"","dem":"35","timezone":"America/Fortaleza","modification_date":"2012-08-03"},{"geonameid":"3390288","name":"Rio Largo","asciiname":"Rio Largo","alternatenames":"","latitude":"-9.47833","longitude":"-35.85333","feature_class":"P","feature_code":"PPL","country_code":"BR","cc2":"","admin1_code":"02","admin2_code":"2707701","admin3_code":"","admin4_code":"","population":"63387","elevation":"","dem":"97","timezone":"America/Maceio","modification_date":"2012-08-03"},{"geonameid":"3390295","name":"Rio Formoso","asciiname":"Rio Formoso","alternatenames":"","latitude":"-8.66877","longitude":"-35.16277","feature_class":"P","feature_code":"PPLA2","country_code":"BR","cc2":"","admin1_code":"30","admin2_code":"2611903","admin3_code":"","admin4_code":"","population":"15518","elevation":"","dem":"87","timezone":"America/Recife","modification_date":"2012-12-30"},{"geonameid":"3390326","name":"Ribeirão","asciiname":"Ribeirao","alternatenames":"","latitude":"-8.51444","longitude":"-35.37778","feature_class":"P","feature_code":"PPLA2","country_code":"BR","cc2":"BR","admin1_code":"30","admin2_code":"2611804","admin3_code":"","admin4_code":"","population":"29818","elevation":"","dem":"128","timezone":"America/Recife","modification_date":"2012-09-27"},{"geonameid":"3390581","name":"Riachão","asciiname":"Riachao","alternatenames":"Riachaq","latitude":"-7.36194","longitude":"-46.61722","feature_class":"P","feature_code":"PPL","country_code":"BR","cc2":"","admin1_code":"13","admin2_code":"2109502","admin3_code":"","admin4_code":"","population":"12427","elevation":"","dem":"385","timezone":"America/Fortaleza","modification_date":"2012-08-03"},{"geonameid":"3390659","name":"Reriutaba","asciiname":"Reriutaba","alternatenames":"Santa Cruz","latitude":"-4.14167","longitude":"-40.58222","feature_class":"P","feature_code":"PPL","country_code":"BR","cc2":"","admin1_code":"06","admin2_code":"2311702","admin3_code":"","admin4_code":"","population":"12076","elevation":"","dem":"153","timezone":"America/Fortaleza","modification_date":"2012-08-03"},{"geonameid":"3390674","name":"Remígio","asciiname":"Remigio","alternatenames":"Lagoa do Remigio,Lagôa do Remigio,Remigio,Remígio","latitude":"-6.94646","longitude":"-35.78039","feature_class":"P","feature_code":"PPL","country_code":"BR","cc2":"","admin1_code":"17","admin2_code":"2501104","admin3_code":"","admin4_code":"","population":"9659","elevation":"","dem":"561","timezone":"America/Fortaleza","modification_date":"2012-12-05"},{"geonameid":"3390700","name":"Regeneração","asciiname":"Regeneracao","alternatenames":"","latitude":"-6.23122","longitude":"-42.68691","feature_class":"P","feature_code":"PPL","country_code":"BR","cc2":"","admin1_code":"20","admin2_code":"2208809","admin3_code":"","admin4_code":"","population":"13608","elevation":"","dem":"177","timezone":"America/Fortaleza","modification_date":"2014-12-28"},