{"nextFile":"cities.134.json","rows":[{"geonameid":"4692521","name":"Friendswood","asciiname":"Friendswood","alternatenames":"Frendsvud,frndzwwd  tgzas,fryndzwwd,Френдсвуд,فرندزوود، تگزاس,فريندزوود","latitude":"29.5294","longitude":"-95.20104","feature_class":"P","feature_code":"PPL","country_code":"US","cc2":"","admin1_code":"TX","admin2_code":"167","admin3_code":"","admin4_code":"","population":"35805","elevation":"10","dem":"11","timezone":"America/Chicago","modification_date":"2011-05-14"},{"geonameid":"4692559","name":"Frisco","asciiname":"Frisco","alternatenames":"Frisco,Frisko,fryskw,fryskw  tgzas,furisuko,peuliseuko,phriskea,Фриско,Фріско,فريسكو,فریسکو، تگزاس,فریسکو، ٹیکساس,ഫ്രിസ്കോ,フリスコ,프리스코","latitude":"33.15067","longitude":"-96.82361","feature_class":"P","feature_code":"PPL","country_code":"US","cc2":"","admin1_code":"TX","admin2_code":"085","admin3_code":"","admin4_code":"","population":"116989","elevation":"212","dem":"216","timezone":"America/Chicago","modification_date":"2011-05-14"},{"geonameid":"4692658","name":"Fulshear","asciiname":"Fulshear","alternatenames":"","latitude":"29.68996","longitude":"-95.89968","feature_class":"P","feature_code":"PPL","country_code":"US","cc2":"","admin1_code":"TX","admin2_code":"157","admin3_code":"","admin4_code":"","population":"1134","elevation":"40","dem":"43","timezone":"America/Chicago","modification_date":"2011-05-14"},{"geonameid":"4692661","name":"Fulton","asciiname":"Fulton","alternatenames":"","latitude":"28.0614","longitude":"-97.0411","feature_class":"P","feature_code":"PPL","country_code":"US","cc2":"","admin1_code":"TX","admin2_code":"007","admin3_code":"","admin4_code":"","population":"1358","elevation":"3","dem":"9","timezone":"America/Chicago","modification_date":"2011-05-14"},{"geonameid":"4692746","name":"Gainesville","asciiname":"Gainesville","alternatenames":"GLE,Gejnsvil,geinjeubil,ghynsfyl,gynzwyl  tgzas,Гејнсвил,غينسفيل,گینزویل، تگزاس,게인즈빌","latitude":"33.62594","longitude":"-97.13335","feature_class":"P","feature_code":"PPLA2","country_code":"US","cc2":"","admin1_code":"TX","admin2_code":"097","admin3_code":"","admin4_code":"","population":"16002","elevation":"229","dem":"233","timezone":"America/Chicago","modification_date":"2011-05-14"},{"geonameid":"4692771","name":"Galena Park","asciiname":"Galena Park","alternatenames":"Galina Park,ghalyna bark,glyna park  tgzas,Галина Парк,غالينا بارك,گلینا پارک، تگزاس","latitude":"29.73356","longitude":"-95.23021","feature_class":"P","feature_code":"PPL","country_code":"US","cc2":"","admin1_code":"TX","admin2_code":"201","admin3_code":"","admin4_code":"","population":"10887","elevation":"3","dem":"9","timezone":"America/Chicago","modification_date":"2011-05-14"},{"geonameid":"4692883","name":"Galveston","asciiname":"Galveston","alternatenames":"GLS,Galveston,Gorad Galvestan,gaelbeoseuteon,galwstwn  tgzas,garubesuton,gelvhastana,ghalfstwn,jia er wei si dui,Галвестон,Горад Галвестан,Ґалвестoн,غالفستون,گالوستون، تگزاس,गॅल्व्हस्टन,ഗാൽ‌വെസ്റ്റൺ,ガルベストン,加爾維斯敦,갤버스턴","latitude":"29.30135","longitude":"-94.7977","feature_class":"P","feature_code":"PPLA2","country_code":"US","cc2":"","admin1_code":"TX","admin2_code":"167","admin3_code":"","admin4_code":"","population":"47743","elevation":"2","dem":"5","timezone":"America/Chicago","modification_date":"2011-05-14"},{"geonameid":"4692898","name":"Ganado","asciiname":"Ganado","alternatenames":"","latitude":"29.04054","longitude":"-96.51358","feature_class":"P","feature_code":"PPL","country_code":"US","cc2":"","admin1_code":"TX","admin2_code":"239","admin3_code":"","admin4_code":"","population":"2003","elevation":"20","dem":"23","timezone":"America/Chicago","modification_date":"2011-05-14"},{"geonameid":"4692962","name":"Garden Ridge","asciiname":"Garden Ridge","alternatenames":"","latitude":"29.63467","longitude":"-98.30529","feature_class":"P","feature_code":"PPL","country_code":"US","cc2":"","admin1_code":"TX","admin2_code":"091","admin3_code":"","admin4_code":"","population":"3259","elevation":"272","dem":"278","timezone":"America/Chicago","modification_date":"2011-05-14"},{"geonameid":"4692983","name":"Gardendale","asciiname":"Gardendale","alternatenames":"","latitude":"28.51693","longitude":"-99.21614","feature_class":"P","feature_code":"PPL","country_code":"US","cc2":"","admin1_code":"TX","admin2_code":"283","admin3_code":"","admin4_code":"","population":"1247","elevation":"180","dem":"177","timezone":"America/Chicago","modification_date":"2010-02-18"},{"geonameid":"4692997","name":"Garfield","asciiname":"Garfield","alternatenames":"","latitude":"30.18744","longitude":"-97.55778","feature_class":"P","feature_code":"PPL","country_code":"US","cc2":"","admin1_code":"TX","admin2_code":"453","admin3_code":"","admin4_code":"","population":"1698","elevation":"146","dem":"152","timezone":"America/Chicago","modification_date":"2011-05-14"},{"geonameid":"4693003","name":"Garland","asciiname":"Garland","alternatenames":"Garland,Garlandas,Garlend,Girljanda,gallaendeu,garando,garlnd  tgzas,gharland,jia lan,Гарланд,Гарленд,Гирлянда,Ґарланд,غارلاند,گارلند، تگزاس,گارلینڈ,گارلینڈ، ٹیکساس,ഗാർലന്റ്,ガーランド,加蘭,갈랜드","latitude":"32.91262","longitude":"-96.63888","feature_class":"P","feature_code":"PPL","country_code":"US","cc2":"","admin1_code":"TX","admin2_code":"113","admin3_code":"","admin4_code":"","population":"226876","elevation":"168","dem":"174","timezone":"America/Chicago","modification_date":"2011-05-14"},{"geonameid":"4693150","name":"Gatesville","asciiname":"Gatesville","alternatenames":"Gejtsvil,gai ci wei er,ghtsfyl,gytswyl  tgzas,Гејтсвил,غتسفيل,گیتسویل، تگزاس,蓋茨維爾","latitude":"31.43516","longitude":"-97.74391","feature_class":"P","feature_code":"PPLA2","country_code":"US","cc2":"","admin1_code":"TX","admin2_code":"099","admin3_code":"","admin4_code":"","population":"15751","elevation":"246","dem":"252","timezone":"America/Chicago","modification_date":"2011-05-14"},{"geonameid":"4693325","name":"George West","asciiname":"George West","alternatenames":"","latitude":"28.3325","longitude":"-98.11751","feature_class":"P","feature_code":"PPLA2","country_code":"US","cc2":"","admin1_code":"TX","admin2_code":"297","admin3_code":"","admin4_code":"","population":"2445","elevation":"48","dem":"51","timezone":"America/Chicago","modification_date":"2011-05-14"},{"geonameid":"4693342","name":"Georgetown","asciiname":"Georgetown","alternatenames":"Dzhordzhtaun,Dzordztaun,Džordžtaun,jrj‌tawn  tgzas,jwrjtawn,Џорџтаун,Джорджтаун,جارج ٹاؤن، ٹیکساس,جرج‌تاون، تگزاس,جورجتاون","latitude":"30.63269","longitude":"-97.67723","feature_class":"P","feature_code":"PPLA2","country_code":"US","cc2":"","admin1_code":"TX","admin2_code":"491","admin3_code":"","admin4_code":"","population":"47400","elevation":"230","dem":"235","timezone":"America/Chicago","modification_date":"2011-05-14"},{"geonameid":"4693389","name":"Geronimo","asciiname":"Geronimo","alternatenames":"","latitude":"29.663","longitude":"-97.96695","feature_class":"P","feature_code":"PPL","country_code":"US","cc2":"","admin1_code":"TX","admin2_code":"187","admin3_code":"","admin4_code":"","population":"1032","elevation":"177","dem":"181","timezone":"America/Chicago","modification_date":"2011-05-14"},{"geonameid":"4693426","name":"Gholson","asciiname":"Gholson","alternatenames":"","latitude":"31.701","longitude":"-97.2164","feature_class":"P","feature_code":"PPL","country_code":"US","cc2":"","admin1_code":"TX","admin2_code":"309","admin3_code":"","admin4_code":"","population":"1061","elevation":"131","dem":"135","timezone":"America/Chicago","modification_date":"2011-05-14"},{"geonameid":"4693472","name":"Giddings","asciiname":"Giddings","alternatenames":"Gidings,ghydynghz,gydyngz  tgzas,ji ding si,Гидингс,غيدينغز,گیدینگز، تگزاس,吉丁斯","latitude":"30.18272","longitude":"-96.93637","feature_class":"P","feature_code":"PPLA2","country_code":"US","cc2":"","admin1_code":"TX","admin2_code":"287","admin3_code":"","admin4_code":"","population":"4881","elevation":"154","dem":"157","timezone":"America/Chicago","modification_date":"2011-05-14"},{"geonameid":"4693569","name":"Gilmer","asciiname":"Gilmer","alternatenames":"Gilmer,ghlmr,gylmr  tgzas,Гилмер,Ґілмер,غلمر,گیلمر، تگزاس","latitude":"32.72875","longitude":"-94.94244","feature_class":"P","feature_code":"PPLA2","country_code":"US","cc2":"","admin1_code":"TX","admin2_code":"459","admin3_code":"","admin4_code":"","population":"4905","elevation":"112","dem":"117","timezone":"America/Chicago","modification_date":"2011-05-14"},{"geonameid":"4693621","name":"Gladewater","asciiname":"Gladewater","alternatenames":"","latitude":"32.53653","longitude":"-94.94272","feature_class":"P","feature_code":"PPL","country_code":"US","cc2":"","admin1_code":"TX","admin2_code":"183","admin3_code":"","admin4_code":"","population":"6441","elevation":"111","dem":"116","timezone":"America/Chicago","modification_date":"2011-05-14"},{"geonameid":"4693696","name":"Glen Rose","asciiname":"Glen Rose","alternatenames":"Glen Rouz,ge lun luo si,ghln rz,gln rz  tgzas,Глен Роуз,غلن رز,گلن رز، تگزاس,格伦罗斯","latitude":"32.23459","longitude":"-97.75531","feature_class":"P","feature_code":"PPLA2","country_code":"US","cc2":"","admin1_code":"TX","admin2_code":"425","admin3_code":"","admin4_code":"","population":"2444","elevation":"189","dem":"191","timezone":"America/Chicago","modification_date":"2011-05-14"},{"geonameid":"4693726","name":"Glenn Heights","asciiname":"Glenn Heights","alternatenames":"","latitude":"32.54875","longitude":"-96.85667","feature_class":"P","feature_code":"PPL","country_code":"US","cc2":"","admin1_code":"TX","admin2_code":"113","admin3_code":"","admin4_code":"","population":"11278","elevation":"206","dem":"206","timezone":"America/Chicago","modification_date":"2011-05-14"},{"geonameid":"4693832","name":"Godley","asciiname":"Godley","alternatenames":"","latitude":"32.44903","longitude":"-97.52669","feature_class":"P","feature_code":"PPL","country_code":"US","cc2":"","admin1_code":"TX","admin2_code":"251","admin3_code":"","admin4_code":"","population":"1009","elevation":"283","dem":"287","timezone":"America/Chicago","modification_date":"2011-05-14"},{"geonameid":"4693906","name":"Goldthwaite","asciiname":"Goldthwaite","alternatenames":"Goltvejt,ghwldthwyt,gldtwayt  tgzas,Голтвејт,غولدثويت,گلدتوایت، تگزاس","latitude":"31.44989","longitude":"-98.57088","feature_class":"P","feature_code":"PPLA2","country_code":"US","cc2":"","admin1_code":"TX","admin2_code":"333","admin3_code":"","admin4_code":"","population":"1878","elevation":"479","dem":"484","timezone":"America/Chicago","modification_date":"2011-05-14"},{"geonameid":"4693921","name":"Goliad","asciiname":"Goliad","alternatenames":"Golijad,ge li ya de,ghwlyd,gwlyad  tgzas,Голијад,غوليد,گولیاد، تگزاس,戈利亚德","latitude":"28.66833","longitude":"-97.38833","feature_class":"P","feature_code":"PPLA2","country_code":"US","cc2":"","admin1_code":"TX","admin2_code":"175","admin3_code":"","admin4_code":"","population":"1908","elevation":"50","dem":"55","timezone":"America/Chicago","modification_date":"2011-05-14"},{"geonameid":"4693940","name":"Gonzales","asciiname":"Gonzales","alternatenames":"Gonzales,Gonzáles,gang sa lei si,ghwnzalys,gonjalleoseu,gwnzals  tgzas,Гонзалес,Ґонзалес,غونزاليس,گونزالس، تگزاس,冈萨雷斯,곤잘러스","latitude":"29.50163","longitude":"-97.45249","feature_class":"P","feature_code":"PPLA2","country_code":"US","cc2":"","admin1_code":"TX","admin2_code":"177","admin3_code":"","admin4_code":"","population":"7237","elevation":"87","dem":"94","timezone":"America/Chicago","modification_date":"2011-05-14"},{"geonameid":"4694156","name":"Gorman","asciiname":"Gorman","alternatenames":"","latitude":"32.21375","longitude":"-98.67061","feature_class":"P","feature_code":"PPL","country_code":"US","cc2":"","admin1_code":"TX","admin2_code":"133","admin3_code":"","admin4_code":"","population":"1083","elevation":"443","dem":"444","timezone":"America/Chicago","modification_date":"2011-05-14"},{"geonameid":"4694420","name":"Graham","asciiname":"Graham","alternatenames":"Grejam,ghraham,graham  tgzas,Грејам,غراهام,گراهام، تگزاس","latitude":"33.10706","longitude":"-98.5895","feature_class":"P","feature_code":"PPLA2","country_code":"US","cc2":"","admin1_code":"TX","admin2_code":"503","admin3_code":"","admin4_code":"","population":"8903","elevation":"319","dem":"327","timezone":"America/Chicago","modification_date":"2011-05-14"},{"geonameid":"4694459","name":"Granbury","asciiname":"Granbury","alternatenames":"Granberi,ghranbwry,granbry  tgzas,Гранбери,غرانبوري,گرانبری، تگزاس","latitude":"32.44208","longitude":"-97.7942","feature_class":"P","feature_code":"PPLA2","country_code":"US","cc2":"","admin1_code":"TX","admin2_code":"221","admin3_code":"","admin4_code":"","population":"7978","elevation":"224","dem":"228","timezone":"America/Chicago","modification_date":"2011-05-14"},{"geonameid":"4694482","name":"Grand Prairie","asciiname":"Grand Prairie","alternatenames":"Grand Prairie,Grand Preri,Grand Preris,Grand-Preri,da cao yuan cheng,geulaendeupeuleli,ghrand brary,grnd pryry  tgzas,gurandopureri,Гранд Прери,Гранд-Прери,Гранд-Прері,غراند براري,گرند پریری، تگزاس,گرینڈ پریری,گرینڈ پریرے,ഗ്രാൻഡ് പ്രയറി,グランドプレーリー,大草原城,그랜드프레리","latitude":"32.74596","longitude":"-96.99778","feature_class":"P","feature_code":"PPL","country_code":"US","cc2":"","admin1_code":"TX","admin2_code":"113","admin3_code":"","admin4_code":"","population":"175396","elevation":"157","dem":"162","timezone":"America/Chicago","modification_date":"2011-05-14"},{"geonameid":"4694488","name":"Grand Saline","asciiname":"Grand Saline","alternatenames":"","latitude":"32.67346","longitude":"-95.70941","feature_class":"P","feature_code":"PPL","country_code":"US","cc2":"","admin1_code":"TX","admin2_code":"467","admin3_code":"","admin4_code":"","population":"3136","elevation":"122","dem":"126","timezone":"America/Chicago","modification_date":"2011-05-14"},{"geonameid":"4694503","name":"Grandview","asciiname":"Grandview","alternatenames":"","latitude":"32.27042","longitude":"-97.17918","feature_class":"P","feature_code":"PPL","country_code":"US","cc2":"","admin1_code":"TX","admin2_code":"251","admin3_code":"","admin4_code":"","population":"1561","elevation":"211","dem":"217","timezone":"America/Chicago","modification_date":"2011-05-14"},{"geonameid":"4694521","name":"Granger","asciiname":"Granger","alternatenames":"","latitude":"30.71769","longitude":"-97.44278","feature_class":"P","feature_code":"PPL","country_code":"US","cc2":"","admin1_code":"TX","admin2_code":"491","admin3_code":"","admin4_code":"","population":"1419","elevation":"176","dem":"179","timezone":"America/Chicago","modification_date":"2011-05-14"},{"geonameid":"4694535","name":"Granite Shoals","asciiname":"Granite Shoals","alternatenames":"","latitude":"30.58908","longitude":"-98.38392","feature_class":"P","feature_code":"PPL","country_code":"US","cc2":"","admin1_code":"TX","admin2_code":"053","admin3_code":"","admin4_code":"","population":"4910","elevation":"268","dem":"271","timezone":"America/Chicago","modification_date":"2011-05-14"},{"geonameid":"4694562","name":"Grapeland","asciiname":"Grapeland","alternatenames":"","latitude":"31.49185","longitude":"-95.47856","feature_class":"P","feature_code":"PPL","country_code":"US","cc2":"","admin1_code":"TX","admin2_code":"225","admin3_code":"","admin4_code":"","population":"1489","elevation":"144","dem":"149","timezone":"America/Chicago","modification_date":"2011-05-14"},{"geonameid":"4694568","name":"Grapevine","asciiname":"Grapevine","alternatenames":"","latitude":"32.93429","longitude":"-97.07807","feature_class":"P","feature_code":"PPL","country_code":"US","cc2":"","admin1_code":"TX","admin2_code":"439","admin3_code":"","admin4_code":"","population":"46334","elevation":"195","dem":"199","timezone":"America/Chicago","modification_date":"2011-05-14"},{"geonameid":"4694896","name":"Greatwood","asciiname":"Greatwood","alternatenames":"","latitude":"29.55413","longitude":"-95.67578","feature_class":"P","feature_code":"PPL","country_code":"US","cc2":"","admin1_code":"TX","admin2_code":"157","admin3_code":"","admin4_code":"","population":"11538","elevation":"21","dem":"25","timezone":"America/Chicago","modification_date":"2011-05-14"},{"geonameid":"4694990","name":"Green Valley Farms","asciiname":"Green Valley Farms","alternatenames":"","latitude":"26.12202","longitude":"-97.56054","feature_class":"P","feature_code":"PPL","country_code":"US","cc2":"","admin1_code":"TX","admin2_code":"061","admin3_code":"","admin4_code":"","population":"1272","elevation":"6","dem":"8","timezone":"America/Chicago","modification_date":"2011-05-14"},{"geonameid":"4695066","name":"Greenville","asciiname":"Greenville","alternatenames":"GVT,Grinvil,Grinvill,ghrynfyl,grynwyl  tgzas,Гринвил,Гринвилл,غرينفيل,گرینویل، تگزاس,گرینویل، ٹیکساس","latitude":"33.13845","longitude":"-96.11081","feature_class":"P","feature_code":"PPLA2","country_code":"US","cc2":"","admin1_code":"TX","admin2_code":"231","admin3_code":"","admin4_code":"","population":"25557","elevation":"165","dem":"169","timezone":"America/Chicago","modification_date":"2011-05-14"},{"geonameid":"4695155","name":"Gregory","asciiname":"Gregory","alternatenames":"","latitude":"27.92224","longitude":"-97.28999","feature_class":"P","feature_code":"PPL","country_code":"US","cc2":"","admin1_code":"TX","admin2_code":"409","admin3_code":"","admin4_code":"","population":"1907","elevation":"9","dem":"14","timezone":"America/Chicago","modification_date":"2011-05-14"},{"geonameid":"4695270","name":"Groesbeck","asciiname":"Groesbeck","alternatenames":"","latitude":"31.52434","longitude":"-96.53387","feature_class":"P","feature_code":"PPLA2","country_code":"US","cc2":"","admin1_code":"TX","admin2_code":"293","admin3_code":"","admin4_code":"","population":"4328","elevation":"146","dem":"152","timezone":"America/Chicago","modification_date":"2011-05-14"},{"geonameid":"4695317","name":"Groves","asciiname":"Groves","alternatenames":"","latitude":"29.94827","longitude":"-93.91712","feature_class":"P","feature_code":"PPL","country_code":"US","cc2":"","admin1_code":"TX","admin2_code":"245","admin3_code":"","admin4_code":"","population":"16144","elevation":"4","dem":"10","timezone":"America/Chicago","modification_date":"2011-05-14"},{"geonameid":"4695325","name":"Groveton","asciiname":"Groveton","alternatenames":"Grovton,ghrwftwn,grwwtwn  tgzas,Гровтон,غروفتون,گرووتون، تگزاس","latitude":"31.05491","longitude":"-95.12577","feature_class":"P","feature_code":"PPLA2","country_code":"US","cc2":"","admin1_code":"TX","admin2_code":"455","admin3_code":"","admin4_code":"","population":"1057","elevation":"100","dem":"102","timezone":"America/Chicago","modification_date":"2011-05-14"},{"geonameid":"4695535","name":"Gun Barrel City","asciiname":"Gun Barrel City","alternatenames":"","latitude":"32.33459","longitude":"-96.15136","feature_class":"P","feature_code":"PPL","country_code":"US","cc2":"","admin1_code":"TX","admin2_code":"213","admin3_code":"","admin4_code":"","population":"5672","elevation":"107","dem":"117","timezone":"America/Chicago","modification_date":"2011-05-14"},{"geonameid":"4695553","name":"Gunter","asciiname":"Gunter","alternatenames":"","latitude":"33.44789","longitude":"-96.74749","feature_class":"P","feature_code":"PPL","country_code":"US","cc2":"","admin1_code":"TX","admin2_code":"181","admin3_code":"","admin4_code":"","population":"1498","elevation":"215","dem":"217","timezone":"America/Chicago","modification_date":"2011-05-14"},{"geonameid":"4695554","name":"Gunter","asciiname":"Gunter","alternatenames":"","latitude":"32.86873","longitude":"-95.62968","feature_class":"P","feature_code":"PPL","country_code":"US","cc2":"","admin1_code":"TX","admin2_code":"499","admin3_code":"","admin4_code":"","population":"1666","elevation":"126","dem":"129","timezone":"America/Chicago","modification_date":"2006-01-17"},{"geonameid":"4695866","name":"Hallettsville","asciiname":"Hallettsville","alternatenames":"Khaletsvil,haltswyl,halytsfyl,Халетсвил,هالتسویل,هاليتسفيل","latitude":"29.44385","longitude":"-96.94109","feature_class":"P","feature_code":"PPLA2","country_code":"US","cc2":"","admin1_code":"TX","admin2_code":"285","admin3_code":"","admin4_code":"","population":"2550","elevation":"71","dem":"76","timezone":"America/Chicago","modification_date":"2011-05-14"},{"geonameid":"4695894","name":"Hallsville","asciiname":"Hallsville","alternatenames":"","latitude":"32.50432","longitude":"-94.57409","feature_class":"P","feature_code":"PPL","country_code":"US","cc2":"","admin1_code":"TX","admin2_code":"203","admin3_code":"","admin4_code":"","population":"3577","elevation":"111","dem":"114","timezone":"America/Chicago","modification_date":"2011-05-14"},{"geonameid":"4695912","name":"Haltom City","asciiname":"Haltom City","alternatenames":"Kholtom Siti,haltwm syty,Холтом Сити,هالتوم سيتي,هالتوم سیتی","latitude":"32.79957","longitude":"-97.26918","feature_class":"P","feature_code":"PPL","country_code":"US","cc2":"","admin1_code":"TX","admin2_code":"439","admin3_code":"","admin4_code":"","population":"42409","elevation":"163","dem":"166","timezone":"America/Chicago","modification_date":"2011-05-14"},{"geonameid":"4695938","name":"Hamilton","asciiname":"Hamilton","alternatenames":"Gamil'ton,Khamilton,hamyltwn,hmyltwn  tgzas,Гамильтон,Хамилтон,هاميلتون,همیلتون، تگزاس,ہیملٹن، ٹیکساس","latitude":"31.70377","longitude":"-98.12392","feature_class":"P","feature_code":"PPLA2","country_code":"US","cc2":"","admin1_code":"TX","admin2_code":"193","admin3_code":"","admin4_code":"","population":"3095","elevation":"356","dem":"357","timezone":"America/Chicago","modification_date":"2011-05-14"},{"geonameid":"4696202","name":"Harker Heights","asciiname":"Harker Heights","alternatenames":"","latitude":"31.08351","longitude":"-97.65974","feature_class":"P","feature_code":"PPL","country_code":"US","cc2":"","admin1_code":"TX","admin2_code":"027","admin3_code":"","admin4_code":"","population":"26700","elevation":"233","dem":"236","timezone":"America/Chicago","modification_date":"2011-05-14"},{"geonameid":"4696233","name":"Harlingen","asciiname":"Harlingen","alternatenames":"Garlingen,HRL,Harlingen,Kharlindzen,Kharlingen,ha ling gen,hallingjeon,harinjen,harlynghn,harlynjn,hrlyngn,Гарлінґен,Харлинген,Харлинџен,הרלינגן,هارلينغن,هارلینجن,ہارلنگین، ٹیکساس,ハーリンジェン,哈靈根,할링전","latitude":"26.19063","longitude":"-97.6961","feature_class":"P","feature_code":"PPL","country_code":"US","cc2":"","admin1_code":"TX","admin2_code":"061","admin3_code":"","admin4_code":"","population":"64849","elevation":"12","dem":"17","timezone":"America/Chicago","modification_date":"2011-05-14"},{"geonameid":"4696310","name":"Harper","asciiname":"Harper","alternatenames":"","latitude":"30.29992","longitude":"-99.24421","feature_class":"P","feature_code":"PPL","country_code":"US","cc2":"","admin1_code":"TX","admin2_code":"171","admin3_code":"","admin4_code":"","population":"1192","elevation":"626","dem":"627","timezone":"America/Chicago","modification_date":"2011-05-14"},{"geonameid":"4696593","name":"Haskell","asciiname":"Haskell","alternatenames":"","latitude":"33.1576","longitude":"-99.7337","feature_class":"P","feature_code":"PPLA2","country_code":"US","cc2":"","admin1_code":"TX","admin2_code":"207","admin3_code":"","admin4_code":"","population":"3322","elevation":"482","dem":"483","timezone":"America/Chicago","modification_date":"2011-05-14"},{"geonameid":"4696605","name":"Haslet","asciiname":"Haslet","alternatenames":"","latitude":"32.97485","longitude":"-97.3478","feature_class":"P","feature_code":"PPL","country_code":"US","cc2":"","admin1_code":"TX","admin2_code":"439","admin3_code":"","admin4_code":"","population":"1517","elevation":"214","dem":"218","timezone":"America/Chicago","modification_date":"2011-05-14"},{"geonameid":"4696686","name":"Hawkins","asciiname":"Hawkins","alternatenames":"","latitude":"32.58847","longitude":"-95.20411","feature_class":"P","feature_code":"PPL","country_code":"US","cc2":"","admin1_code":"TX","admin2_code":"499","admin3_code":"","admin4_code":"","population":"1278","elevation":"124","dem":"127","timezone":"America/Chicago","modification_date":"2011-05-14"},{"geonameid":"4696862","name":"Hearne","asciiname":"Hearne","alternatenames":"Khern,hrnh  tgzas,hyrn,Херн,هرنه، تگزاس,هيرن","latitude":"30.87852","longitude":"-96.59303","feature_class":"P","feature_code":"PPL","country_code":"US","cc2":"","admin1_code":"TX","admin2_code":"395","admin3_code":"","admin4_code":"","population":"4459","elevation":"90","dem":"92","timezone":"America/Chicago","modification_date":"2011-05-14"},{"geonameid":"4696876","name":"Heath","asciiname":"Heath","alternatenames":"","latitude":"32.83651","longitude":"-96.47499","feature_class":"P","feature_code":"PPL","country_code":"US","cc2":"","admin1_code":"TX","admin2_code":"397","admin3_code":"","admin4_code":"","population":"6921","elevation":"153","dem":"157","timezone":"America/Chicago","modification_date":"2011-05-14"},{"geonameid":"4696922","name":"Hebbronville","asciiname":"Hebbronville","alternatenames":"","latitude":"27.30688","longitude":"-98.68032","feature_class":"P","feature_code":"PPLA2","country_code":"US","cc2":"","admin1_code":"TX","admin2_code":"247","admin3_code":"","admin4_code":"","population":"4558","elevation":"167","dem":"174","timezone":"America/Chicago","modification_date":"2014-09-05"},{"geonameid":"4696924","name":"Hedwig Village","asciiname":"Hedwig Village","alternatenames":"","latitude":"29.77745","longitude":"-95.51716","feature_class":"P","feature_code":"PPL","country_code":"US","cc2":"","admin1_code":"TX","admin2_code":"201","admin3_code":"","admin4_code":"","population":"2557","elevation":"23","dem":"31","timezone":"America/Chicago","modification_date":"2011-05-14"},{"geonameid":"4696953","name":"Heidelberg","asciiname":"Heidelberg","alternatenames":"","latitude":"26.19702","longitude":"-97.88028","feature_class":"P","feature_code":"PPL","country_code":"US","cc2":"","admin1_code":"TX","admin2_code":"215","admin3_code":"","admin4_code":"","population":"1725","elevation":"18","dem":"23","timezone":"America/Chicago","modification_date":"2011-05-14"},{"geonameid":"4697038","name":"Helotes","asciiname":"Helotes","alternatenames":"","latitude":"29.57801","longitude":"-98.68975","feature_class":"P","feature_code":"PPL","country_code":"US","cc2":"","admin1_code":"TX","admin2_code":"029","admin3_code":"","admin4_code":"","population":"7341","elevation":"316","dem":"319","timezone":"America/Chicago","modification_date":"2011-05-14"},{"geonameid":"4697054","name":"Hemphill","asciiname":"Hemphill","alternatenames":"","latitude":"31.34074","longitude":"-93.84685","feature_class":"P","feature_code":"PPLA2","country_code":"US","cc2":"","admin1_code":"TX","admin2_code":"403","admin3_code":"","admin4_code":"","population":"1198","elevation":"85","dem":"93","timezone":"America/Chicago","modification_date":"2011-05-14"},{"geonameid":"4697060","name":"Hempstead","asciiname":"Hempstead","alternatenames":"Khempsted,hmpstyd  tgzas,hymbstyd,Хемпстед,همپستید، تگزاس,هيمبستيد","latitude":"30.09744","longitude":"-96.07829","feature_class":"P","feature_code":"PPLA2","country_code":"US","cc2":"","admin1_code":"TX","admin2_code":"473","admin3_code":"","admin4_code":"","population":"5770","elevation":"74","dem":"77","timezone":"America/Chicago","modification_date":"2011-05-14"},{"geonameid":"4697128","name":"Henrietta","asciiname":"Henrietta","alternatenames":"Khenrijeta,hnryta,hnryta  tgzas,Хенријета,هنريتا,هنریتا، تگزاس","latitude":"33.81732","longitude":"-98.19532","feature_class":"P","feature_code":"PPLA2","country_code":"US","cc2":"","admin1_code":"TX","admin2_code":"077","admin3_code":"","admin4_code":"","population":"3141","elevation":"278","dem":"283","timezone":"America/Chicago","modification_date":"2011-05-14"},{"geonameid":"4697330","name":"Hewitt","asciiname":"Hewitt","alternatenames":"","latitude":"31.46239","longitude":"-97.19584","feature_class":"P","feature_code":"PPL","country_code":"US","cc2":"","admin1_code":"TX","admin2_code":"309","admin3_code":"","admin4_code":"","population":"13549","elevation":"197","dem":"202","timezone":"America/Chicago","modification_date":"2011-05-14"},{"geonameid":"4697379","name":"Hickory Creek","asciiname":"Hickory Creek","alternatenames":"","latitude":"31.37879","longitude":"-95.32133","feature_class":"P","feature_code":"PPL","country_code":"US","cc2":"","admin1_code":"TX","admin2_code":"225","admin3_code":"","admin4_code":"","population":"3066","elevation":"120","dem":"126","timezone":"America/Chicago","modification_date":"2006-01-17"},{"geonameid":"4697440","name":"Hico","asciiname":"Hico","alternatenames":"","latitude":"31.98293","longitude":"-98.03365","feature_class":"P","feature_code":"PPL","country_code":"US","cc2":"","admin1_code":"TX","admin2_code":"193","admin3_code":"","admin4_code":"","population":"1379","elevation":"313","dem":"319","timezone":"America/Chicago","modification_date":"2011-05-14"},{"geonameid":"4697442","name":"Hidalgo","asciiname":"Hidalgo","alternatenames":"Khidalgo,hydalghw,hydalgw  tgzas,Хидалго,هيدالغو,هیدالگو، تگزاس","latitude":"26.10035","longitude":"-98.26307","feature_class":"P","feature_code":"PPL","country_code":"US","cc2":"","admin1_code":"TX","admin2_code":"215","admin3_code":"","admin4_code":"","population":"11198","elevation":"31","dem":"36","timezone":"America/Chicago","modification_date":"2011-05-14"},{"geonameid":"4697485","name":"Hideaway","asciiname":"Hideaway","alternatenames":"","latitude":"32.49042","longitude":"-95.45746","feature_class":"P","feature_code":"PPL","country_code":"US","cc2":"","admin1_code":"TX","admin2_code":"423","admin3_code":"","admin4_code":"","population":"3083","elevation":"137","dem":"148","timezone":"America/Chicago","modification_date":"2011-05-14"},{"geonameid":"4697616","name":"Highland Park","asciiname":"Highland Park","alternatenames":"Khajlend Park,Хайленд Парк","latitude":"32.83346","longitude":"-96.79195","feature_class":"P","feature_code":"PPL","country_code":"US","cc2":"","admin1_code":"TX","admin2_code":"113","admin3_code":"","admin4_code":"","population":"8564","elevation":"161","dem":"169","timezone":"America/Chicago","modification_date":"2011-05-14"},{"geonameid":"4697645","name":"Highland Village","asciiname":"Highland Village","alternatenames":"","latitude":"33.09179","longitude":"-97.04668","feature_class":"P","feature_code":"PPL","country_code":"US","cc2":"","admin1_code":"TX","admin2_code":"121","admin3_code":"","admin4_code":"","population":"15056","elevation":"169","dem":"174","timezone":"America/Chicago","modification_date":"2011-05-14"},{"geonameid":"4697652","name":"Highlands","asciiname":"Highlands","alternatenames":"","latitude":"29.81884","longitude":"-95.05604","feature_class":"P","feature_code":"PPL","country_code":"US","cc2":"","admin1_code":"TX","admin2_code":"201","admin3_code":"","admin4_code":"","population":"7522","elevation":"11","dem":"15","timezone":"America/Chicago","modification_date":"2011-05-14"},{"geonameid":"4697867","name":"Hillsboro","asciiname":"Hillsboro","alternatenames":"Khillsboro,Хиллсборо","latitude":"32.01099","longitude":"-97.13001","feature_class":"P","feature_code":"PPLA2","country_code":"US","cc2":"","admin1_code":"TX","admin2_code":"217","admin3_code":"","admin4_code":"","population":"8456","elevation":"193","dem":"197","timezone":"America/Chicago","modification_date":"2011-05-14"},{"geonameid":"4697909","name":"Hilltop Lakes","asciiname":"Hilltop Lakes","alternatenames":"","latitude":"31.07935","longitude":"-96.20385","feature_class":"P","feature_code":"PPL","country_code":"US","cc2":"","admin1_code":"TX","admin2_code":"289","admin3_code":"","admin4_code":"","population":"1101","elevation":"142","dem":"146","timezone":"America/Chicago","modification_date":"2011-05-14"},{"geonameid":"4697988","name":"Hitchcock","asciiname":"Hitchcock","alternatenames":"","latitude":"29.34829","longitude":"-95.01604","feature_class":"P","feature_code":"PPL","country_code":"US","cc2":"","admin1_code":"TX","admin2_code":"167","admin3_code":"","admin4_code":"","population":"6961","elevation":"5","dem":"10","timezone":"America/Chicago","modification_date":"2011-05-14"},{"geonameid":"4698241","name":"Holiday Lakes","asciiname":"Holiday Lakes","alternatenames":"","latitude":"29.20969","longitude":"-95.51689","feature_class":"P","feature_code":"PPL","country_code":"US","cc2":"","admin1_code":"TX","admin2_code":"039","admin3_code":"","admin4_code":"","population":"1107","elevation":"11","dem":"15","timezone":"America/Chicago","modification_date":"2011-05-14"},{"geonameid":"4698254","name":"Holland","asciiname":"Holland","alternatenames":"Gollandija,Голландия","latitude":"30.87824","longitude":"-97.40167","feature_class":"P","feature_code":"PPL","country_code":"US","cc2":"","admin1_code":"TX","admin2_code":"027","admin3_code":"","admin4_code":"","population":"1121","elevation":"160","dem":"163","timezone":"America/Chicago","modification_date":"2011-05-14"},{"geonameid":"4698296","name":"Holliday","asciiname":"Holliday","alternatenames":"","latitude":"33.81621","longitude":"-98.69506","feature_class":"P","feature_code":"PPL","country_code":"US","cc2":"","admin1_code":"TX","admin2_code":"009","admin3_code":"","admin4_code":"","population":"1758","elevation":"321","dem":"325","timezone":"America/Chicago","modification_date":"2011-05-14"},{"geonameid":"4698384","name":"Hollywood Park","asciiname":"Hollywood Park","alternatenames":"","latitude":"29.6005","longitude":"-98.48724","feature_class":"P","feature_code":"PPL","country_code":"US","cc2":"","admin1_code":"TX","admin2_code":"029","admin3_code":"","admin4_code":"","population":"3062","elevation":"293","dem":"301","timezone":"America/Chicago","modification_date":"2011-05-14"},{"geonameid":"4698562","name":"Hondo","asciiname":"Hondo","alternatenames":"Khondo,handw,hwndw,Хондо,هاندو,هوندو","latitude":"29.34746","longitude":"-99.14142","feature_class":"P","feature_code":"PPLA2","country_code":"US","cc2":"","admin1_code":"TX","admin2_code":"325","admin3_code":"","admin4_code":"","population":"8803","elevation":"272","dem":"274","timezone":"America/Chicago","modification_date":"2011-05-14"},{"geonameid":"4698610","name":"Honey Grove","asciiname":"Honey Grove","alternatenames":"","latitude":"33.58344","longitude":"-95.90997","feature_class":"P","feature_code":"PPL","country_code":"US","cc2":"","admin1_code":"TX","admin2_code":"147","admin3_code":"","admin4_code":"","population":"1746","elevation":"205","dem":"209","timezone":"America/Chicago","modification_date":"2012-05-09"},{"geonameid":"4698646","name":"Hooks","asciiname":"Hooks","alternatenames":"","latitude":"33.46623","longitude":"-94.28853","feature_class":"P","feature_code":"PPL","country_code":"US","cc2":"","admin1_code":"TX","admin2_code":"037","admin3_code":"","admin4_code":"","population":"2769","elevation":"114","dem":"116","timezone":"America/Chicago","modification_date":"2011-05-14"},{"geonameid":"4698809","name":"Hornsby Bend","asciiname":"Hornsby Bend","alternatenames":"","latitude":"30.24743","longitude":"-97.58333","feature_class":"P","feature_code":"PPL","country_code":"US","cc2":"","admin1_code":"TX","admin2_code":"453","admin3_code":"","admin4_code":"","population":"6791","elevation":"135","dem":"139","timezone":"America/Chicago","modification_date":"2011-05-14"},{"geonameid":"4698864","name":"Horseshoe Bay","asciiname":"Horseshoe Bay","alternatenames":"","latitude":"30.54429","longitude":"-98.37394","feature_class":"P","feature_code":"PPL","country_code":"US","cc2":"","admin1_code":"TX","admin2_code":"299","admin3_code":"","admin4_code":"","population":"3418","elevation":"258","dem":"275","timezone":"America/Chicago","modification_date":"2015-08-05"},{"geonameid":"4699066","name":"Houston","asciiname":"Houston","alternatenames":"Chiouston,Gorad Khjustan,HOU,Hiu-su-tun,Hiustonas,Hiû-sṳ̂-tûn,Hjuston,Hjustona,Hjūstona,Houston,Hustonia,Hyuston,Kh'juston,Khjust\"n,Khjuston,hi'ustana,hiustʼoni,hiws tan,hiyustan,hou si dun,husatana,hyuseuteon,hyustan,hyustana,hyusuton,hywstn,hywstwn,xiu si dun,ywstwn,Χιούστον,Горад Хюстан,Хьюстон,Хюстон,Хюстън,Хјустон,Հյուստոն,היוסטן,יוסטון,هيوستن,هیوستون,ھیووستن,ہywsٹn,ہیوسٹن,ह्युस्टन,হিউস্টন,ਹੂਸਟਨ,હ્યુસ્ટન,ஹியூஸ்டன்,హ్యూస్టన్,ഹ്യൂസ്റ്റൺ,ฮิวสตัน,ဟူစတန်မြို့,ჰიუსტონი,ሂውስተን,ヒューストン,休斯敦,休斯頓,侯斯頓,휴스턴","latitude":"29.76328","longitude":"-95.36327","feature_class":"P","feature_code":"PPLA2","country_code":"US","cc2":"","admin1_code":"TX","admin2_code":"201","admin3_code":"","admin4_code":"","population":"2099451","elevation":"12","dem":"30","timezone":"America/Chicago","modification_date":"2014-10-27"},{"geonameid":"4699204","name":"Howe","asciiname":"Howe","alternatenames":"","latitude":"33.50872","longitude":"-96.61221","feature_class":"P","feature_code":"PPL","country_code":"US","cc2":"","admin1_code":"TX","admin2_code":"181","admin3_code":"","admin4_code":"","population":"2600","elevation":"256","dem":"260","timezone":"America/Chicago","modification_date":"2011-05-14"},{"geonameid":"4699235","name":"Hubbard","asciiname":"Hubbard","alternatenames":"","latitude":"31.84849","longitude":"-96.79721","feature_class":"P","feature_code":"PPL","country_code":"US","cc2":"","admin1_code":"TX","admin2_code":"217","admin3_code":"","admin4_code":"","population":"1423","elevation":"198","dem":"200","timezone":"America/Chicago","modification_date":"2011-05-14"},{"geonameid":"4699302","name":"Hudson","asciiname":"Hudson","alternatenames":"Gudzon,Гудзон","latitude":"31.32268","longitude":"-94.77826","feature_class":"P","feature_code":"PPL","country_code":"US","cc2":"","admin1_code":"TX","admin2_code":"005","admin3_code":"","admin4_code":"","population":"4731","elevation":"102","dem":"107","timezone":"America/Chicago","modification_date":"2011-05-14"},{"geonameid":"4699303","name":"Hudson","asciiname":"Hudson","alternatenames":"","latitude":"29.90245","longitude":"-95.50244","feature_class":"P","feature_code":"PPL","country_code":"US","cc2":"","admin1_code":"TX","admin2_code":"201","admin3_code":"","admin4_code":"","population":"4058","elevation":"33","dem":"33","timezone":"America/Chicago","modification_date":"2006-01-17"},{"geonameid":"4699304","name":"Hudson Bend","asciiname":"Hudson Bend","alternatenames":"","latitude":"30.41714","longitude":"-97.92918","feature_class":"P","feature_code":"PPL","country_code":"US","cc2":"","admin1_code":"TX","admin2_code":"453","admin3_code":"","admin4_code":"","population":"2981","elevation":"230","dem":"237","timezone":"America/Chicago","modification_date":"2011-05-14"},{"geonameid":"4699323","name":"Hudson Oaks","asciiname":"Hudson Oaks","alternatenames":"","latitude":"32.75707","longitude":"-97.7067","feature_class":"P","feature_code":"PPL","country_code":"US","cc2":"","admin1_code":"TX","admin2_code":"367","admin3_code":"","admin4_code":"","population":"1662","elevation":"318","dem":"320","timezone":"America/Chicago","modification_date":"2011-05-14"},{"geonameid":"4699392","name":"Hughes Springs","asciiname":"Hughes Springs","alternatenames":"","latitude":"32.99846","longitude":"-94.63076","feature_class":"P","feature_code":"PPL","country_code":"US","cc2":"","admin1_code":"TX","admin2_code":"067","admin3_code":"","admin4_code":"","population":"1760","elevation":"115","dem":"118","timezone":"America/Chicago","modification_date":"2011-05-14"},{"geonameid":"4699442","name":"Humble","asciiname":"Humble","alternatenames":"Ambl,hambl,hambl  tksas,Амбл,هامبل,هامبل، تكساس","latitude":"29.99883","longitude":"-95.26216","feature_class":"P","feature_code":"PPL","country_code":"US","cc2":"","admin1_code":"TX","admin2_code":"201","admin3_code":"","admin4_code":"","population":"15133","elevation":"29","dem":"34","timezone":"America/Chicago","modification_date":"2011-05-14"},{"geonameid":"4699531","name":"Hunters Creek Village","asciiname":"Hunters Creek Village","alternatenames":"","latitude":"29.77051","longitude":"-95.4955","feature_class":"P","feature_code":"PPL","country_code":"US","cc2":"","admin1_code":"TX","admin2_code":"201","admin3_code":"","admin4_code":"","population":"4367","elevation":"20","dem":"28","timezone":"America/Chicago","modification_date":"2011-05-14"},{"geonameid":"4699533","name":"Huntington","asciiname":"Huntington","alternatenames":"Khantington,Хантингтон","latitude":"31.27769","longitude":"-94.57659","feature_class":"P","feature_code":"PPL","country_code":"US","cc2":"","admin1_code":"TX","admin2_code":"005","admin3_code":"","admin4_code":"","population":"2118","elevation":"99","dem":"103","timezone":"America/Chicago","modification_date":"2011-05-14"},{"geonameid":"4699540","name":"Huntsville","asciiname":"Huntsville","alternatenames":"Gantsvil',HTV,Khantsvil,Khantsvill,hantsavhila,hantsfyl,hantswyl,heoncheubil,Гантсвіль,Хантсвил,Хантсвилл,هانتسفيل,هانتسویل,हंट्सव्हिल,헌츠빌","latitude":"30.72353","longitude":"-95.55078","feature_class":"P","feature_code":"PPLA2","country_code":"US","cc2":"","admin1_code":"TX","admin2_code":"471","admin3_code":"","admin4_code":"","population":"38548","elevation":"113","dem":"116","timezone":"America/Chicago","modification_date":"2013-04-06"},{"geonameid":"4699575","name":"Hurst","asciiname":"Hurst","alternatenames":"Kherst,hrst  tgzas,hwrst,Херст,هرست، تگزاس,هورست","latitude":"32.82346","longitude":"-97.17057","feature_class":"P","feature_code":"PPL","country_code":"US","cc2":"","admin1_code":"TX","admin2_code":"439","admin3_code":"","admin4_code":"","population":"37337","elevation":"169","dem":"174","timezone":"America/Chicago","modification_date":"2011-05-14"},{"geonameid":"4699608","name":"Hutchins","asciiname":"Hutchins","alternatenames":"Khachins,hachynz  tgzas,hatshynz,Хачинс,هاتشينز,هاچینز، تگزاس,ഹച്ചിൻസ്","latitude":"32.6493","longitude":"-96.71305","feature_class":"P","feature_code":"PPL","country_code":"US","cc2":"","admin1_code":"TX","admin2_code":"113","admin3_code":"","admin4_code":"","population":"5338","elevation":"142","dem":"146","timezone":"America/Chicago","modification_date":"2011-05-14"},{"geonameid":"4699626","name":"Hutto","asciiname":"Hutto","alternatenames":"","latitude":"30.5427","longitude":"-97.54667","feature_class":"P","feature_code":"PPL","country_code":"US","cc2":"","admin1_code":"TX","admin2_code":"491","admin3_code":"","admin4_code":"","population":"14698","elevation":"202","dem":"203","timezone":"America/Chicago","modification_date":"2011-05-14"},{"geonameid":"4699938","name":"Indian Hills","asciiname":"Indian Hills","alternatenames":"","latitude":"26.21285","longitude":"-97.91639","feature_class":"P","feature_code":"PPL","country_code":"US","cc2":"","admin1_code":"TX","admin2_code":"215","admin3_code":"","admin4_code":"","population":"2591","elevation":"20","dem":"26","timezone":"America/Chicago","modification_date":"2011-05-14"},{"geonameid":"4700024","name":"Inez","asciiname":"Inez","alternatenames":"","latitude":"28.90388","longitude":"-96.78804","feature_class":"P","feature_code":"PPL","country_code":"US","cc2":"","admin1_code":"TX","admin2_code":"469","admin3_code":"","admin4_code":"","population":"2098","elevation":"20","dem":"22","timezone":"America/Chicago","modification_date":"2011-05-14"},{"geonameid":"4700033","name":"Ingleside","asciiname":"Ingleside","alternatenames":"Inglsajd,anghlsayd,aynglsayd  tgzas,Инглсајд,إنغلسايد,اینگلساید، تگزاس","latitude":"27.8778","longitude":"-97.21166","feature_class":"P","feature_code":"PPL","country_code":"US","cc2":"","admin1_code":"TX","admin2_code":"409","admin3_code":"","admin4_code":"","population":"9387","elevation":"4","dem":"7","timezone":"America/Chicago","modification_date":"2011-05-14"},{"geonameid":"4700044","name":"Ingram","asciiname":"Ingram","alternatenames":"","latitude":"30.07743","longitude":"-99.24032","feature_class":"P","feature_code":"PPL","country_code":"US","cc2":"","admin1_code":"TX","admin2_code":"265","admin3_code":"","admin4_code":"","population":"1804","elevation":"528","dem":"528","timezone":"America/Chicago","modification_date":"2011-05-14"},{"geonameid":"4700120","name":"Iowa Colony","asciiname":"Iowa Colony","alternatenames":"","latitude":"29.48246","longitude":"-95.4155","feature_class":"P","feature_code":"PPL","country_code":"US","cc2":"","admin1_code":"TX","admin2_code":"039","admin3_code":"","admin4_code":"","population":"1170","elevation":"18","dem":"20","timezone":"America/Chicago","modification_date":"2011-05-14"},{"geonameid":"4700122","name":"Iowa Park","asciiname":"Iowa Park","alternatenames":"","latitude":"33.95148","longitude":"-98.66867","feature_class":"P","feature_code":"PPL","country_code":"US","cc2":"","admin1_code":"TX","admin2_code":"485","admin3_code":"","admin4_code":"","population":"6355","elevation":"316","dem":"319","timezone":"America/Chicago","modification_date":"2011-05-14"},{"geonameid":"4700168","name":"Irving","asciiname":"Irving","alternatenames":"\"rving,Erving,Irving,Irvingas,abingu,ayrfyngh,ayrwyng  tgzas,eobing,ou wen,Ірвінг,Ервинг,Ирвинг,Ървинг,ارونگ، ٹیکساس,ايرفينغ,ایروینگ، تگزاس,എർവിങ്,アービング,歐文,어빙","latitude":"32.81402","longitude":"-96.94889","feature_class":"P","feature_code":"PPL","country_code":"US","cc2":"","admin1_code":"TX","admin2_code":"113","admin3_code":"","admin4_code":"","population":"216290","elevation":"147","dem":"151","timezone":"America/Chicago","modification_date":"2014-03-07"},{"geonameid":"4700234","name":"Italy","asciiname":"Italy","alternatenames":"","latitude":"32.18404","longitude":"-96.88472","feature_class":"P","feature_code":"PPL","country_code":"US","cc2":"","admin1_code":"TX","admin2_code":"139","admin3_code":"","admin4_code":"","population":"1863","elevation":"174","dem":"175","timezone":"America/Chicago","modification_date":"2011-05-14"},{"geonameid":"4700235","name":"Itasca","asciiname":"Itasca","alternatenames":"","latitude":"32.15959","longitude":"-97.15001","feature_class":"P","feature_code":"PPL","country_code":"US","cc2":"","admin1_code":"TX","admin2_code":"217","admin3_code":"","admin4_code":"","population":"1644","elevation":"214","dem":"218","timezone":"America/Chicago","modification_date":"2011-05-14"},{"geonameid":"4700401","name":"Jacinto City","asciiname":"Jacinto City","alternatenames":"","latitude":"29.76745","longitude":"-95.23382","feature_class":"P","feature_code":"PPL","country_code":"US","cc2":"","admin1_code":"TX","admin2_code":"201","admin3_code":"","admin4_code":"","population":"10553","elevation":"9","dem":"11","timezone":"America/Chicago","modification_date":"2011-05-14"},{"geonameid":"4700455","name":"Jacksboro","asciiname":"Jacksboro","alternatenames":"Dzeksboro,jaksbwrw,jksbwrw  tgzas,Џексборо,جاكسبورو,جکسبورو، تگزاس,جککسبورو، ٹیکساس","latitude":"33.21845","longitude":"-98.15866","feature_class":"P","feature_code":"PPLA2","country_code":"US","cc2":"","admin1_code":"TX","admin2_code":"237","admin3_code":"","admin4_code":"","population":"4511","elevation":"330","dem":"336","timezone":"America/Chicago","modification_date":"2011-05-14"},{"geonameid":"4700550","name":"Jacksonville","asciiname":"Jacksonville","alternatenames":"Dzeksonvil,Dzheksonvill,JKV,jaegseunbil,jakswnfyl,jkswnwyl  tgzas,Џексонвил,Джексонвилл,جاكسونفيل,جکسونویل، تگزاس,جککسونویل، ٹیکساس,잭슨빌","latitude":"31.96378","longitude":"-95.2705","feature_class":"P","feature_code":"PPL","country_code":"US","cc2":"","admin1_code":"TX","admin2_code":"073","admin3_code":"","admin4_code":"","population":"14544","elevation":"159","dem":"160","timezone":"America/Chicago","modification_date":"2011-05-14"},{"geonameid":"4700731","name":"Jasper","asciiname":"Jasper","alternatenames":"Dzasper,jasbr,jspr  tgzas,Џаспер,جاسبر,جسپر، تگزاس,جسپر، ٹیکساس","latitude":"30.9202","longitude":"-93.99658","feature_class":"P","feature_code":"PPLA2","country_code":"US","cc2":"","admin1_code":"TX","admin2_code":"241","admin3_code":"","admin4_code":"","population":"7590","elevation":"62","dem":"65","timezone":"America/Chicago","modification_date":"2011-05-14"},{"geonameid":"4700817","name":"Jefferson","asciiname":"Jefferson","alternatenames":"Dzeferson,Dzhefferson,jfrswn  tgzas,jyfyrswn,Џеферсон,Джефферсон,جفرسون، تگزاس,جيفيرسون","latitude":"32.75736","longitude":"-94.34519","feature_class":"P","feature_code":"PPLA2","country_code":"US","cc2":"","admin1_code":"TX","admin2_code":"315","admin3_code":"","admin4_code":"","population":"2106","elevation":"59","dem":"63","timezone":"America/Chicago","modification_date":"2011-05-14"},{"geonameid":"4700967","name":"Jersey Village","asciiname":"Jersey Village","alternatenames":"","latitude":"29.88772","longitude":"-95.563","feature_class":"P","feature_code":"PPL","country_code":"US","cc2":"","admin1_code":"TX","admin2_code":"201","admin3_code":"","admin4_code":"","population":"7620","elevation":"32","dem":"36","timezone":"America/Chicago","modification_date":"2011-05-14"},{"geonameid":"4701046","name":"Jewett","asciiname":"Jewett","alternatenames":"","latitude":"31.36157","longitude":"-96.14413","feature_class":"P","feature_code":"PPL","country_code":"US","cc2":"","admin1_code":"TX","admin2_code":"289","admin3_code":"","admin4_code":"","population":"1167","elevation":"150","dem":"152","timezone":"America/Chicago","modification_date":"2011-05-14"},{"geonameid":"4701346","name":"Johnson City","asciiname":"Johnson City","alternatenames":"Dzhonson Siti,Dzonson Siti,Kota Johnson,janswn syty  tgzas,jonseunsiti,jwnswn syty,yue han xun cheng,Џонсон Сити,Джонсон Сити,جانسن سٹی، ٹیکساس,جانسون سیتی، تگزاس,جونسون سيتي,约翰逊城,존슨시티","latitude":"30.27687","longitude":"-98.41197","feature_class":"P","feature_code":"PPLA2","country_code":"US","cc2":"","admin1_code":"TX","admin2_code":"031","admin3_code":"","admin4_code":"","population":"1656","elevation":"365","dem":"369","timezone":"America/Chicago","modification_date":"2011-05-14"},{"geonameid":"4701458","name":"Jollyville","asciiname":"Jollyville","alternatenames":"","latitude":"30.4427","longitude":"-97.77501","feature_class":"P","feature_code":"PPL","country_code":"US","cc2":"","admin1_code":"TX","admin2_code":"491","admin3_code":"","admin4_code":"","population":"16151","elevation":"286","dem":"291","timezone":"America/Chicago","modification_date":"2011-05-14"},{"geonameid":"4701510","name":"Jones Creek","asciiname":"Jones Creek","alternatenames":"","latitude":"28.96858","longitude":"-95.45522","feature_class":"P","feature_code":"PPL","country_code":"US","cc2":"","admin1_code":"TX","admin2_code":"039","admin3_code":"","admin4_code":"","population":"2020","elevation":"4","dem":"8","timezone":"America/Chicago","modification_date":"2011-05-14"},{"geonameid":"4701592","name":"Jonestown","asciiname":"Jonestown","alternatenames":"","latitude":"30.49547","longitude":"-97.92335","feature_class":"P","feature_code":"PPL","country_code":"US","cc2":"","admin1_code":"TX","admin2_code":"453","admin3_code":"","admin4_code":"","population":"1834","elevation":"248","dem":"253","timezone":"America/Chicago","modification_date":"2011-05-14"},{"geonameid":"4701659","name":"Joshua","asciiname":"Joshua","alternatenames":"","latitude":"32.46153","longitude":"-97.38807","feature_class":"P","feature_code":"PPL","country_code":"US","cc2":"","admin1_code":"TX","admin2_code":"251","admin3_code":"","admin4_code":"","population":"5910","elevation":"283","dem":"289","timezone":"America/Chicago","modification_date":"2011-05-14"},{"geonameid":"4701686","name":"Jourdanton","asciiname":"Jourdanton","alternatenames":"Dzordanton,jwrdantwn,qiao dan dun,Џордантон,جردن‌تاون، تگزاس,جوردانتون,乔丹顿","latitude":"28.91803","longitude":"-98.54641","feature_class":"P","feature_code":"PPLA2","country_code":"US","cc2":"","admin1_code":"TX","admin2_code":"013","admin3_code":"","admin4_code":"","population":"3871","elevation":"140","dem":"143","timezone":"America/Chicago","modification_date":"2011-05-14"},{"geonameid":"4701791","name":"Junction","asciiname":"Junction","alternatenames":"Dzankshon,Dzhankshen,jankshn  tgzas,jnkshn,Џанкшон,Джанкшен,جانکشن، تگزاس,جنكشن","latitude":"30.48936","longitude":"-99.77201","feature_class":"P","feature_code":"PPLA2","country_code":"US","cc2":"","admin1_code":"TX","admin2_code":"267","admin3_code":"","admin4_code":"","population":"2574","elevation":"519","dem":"522","timezone":"America/Chicago","modification_date":"2011-05-14"},{"geonameid":"4701814","name":"Justin","asciiname":"Justin","alternatenames":"","latitude":"33.08484","longitude":"-97.29613","feature_class":"P","feature_code":"PPL","country_code":"US","cc2":"","admin1_code":"TX","admin2_code":"121","admin3_code":"","admin4_code":"","population":"3246","elevation":"196","dem":"200","timezone":"America/Chicago","modification_date":"2011-05-14"},{"geonameid":"4702664","name":"Karnes City","asciiname":"Karnes City","alternatenames":"Karns Siti,Karns-Siti,karnz syty  tgzas,kyrnz syty,Карнс Сити,Карнс-Сити,Карнс-Сіті,كيرنز سيتي,کارنز سیتی، تگزاس","latitude":"28.88498","longitude":"-97.90084","feature_class":"P","feature_code":"PPLA2","country_code":"US","cc2":"","admin1_code":"TX","admin2_code":"255","admin3_code":"","admin4_code":"","population":"3042","elevation":"131","dem":"133","timezone":"America/Chicago","modification_date":"2011-05-14"},{"geonameid":"4702728","name":"Kaufman","asciiname":"Kaufman","alternatenames":"Kofman,kafmn  tgzas,kwfman,Кофман,كوفمان,کافمن، تگزاس","latitude":"32.58902","longitude":"-96.30887","feature_class":"P","feature_code":"PPLA2","country_code":"US","cc2":"","admin1_code":"TX","admin2_code":"257","admin3_code":"","admin4_code":"","population":"6703","elevation":"140","dem":"145","timezone":"America/Chicago","modification_date":"2011-05-14"},{"geonameid":"4702732","name":"Katy","asciiname":"Katy","alternatenames":"Kejti,katy,kyty  tgzas,Кејти,كاتي,کیتی، تگزاس","latitude":"29.78579","longitude":"-95.8244","feature_class":"P","feature_code":"PPL","country_code":"US","cc2":"","admin1_code":"TX","admin2_code":"201","admin3_code":"","admin4_code":"","population":"14102","elevation":"42","dem":"44","timezone":"America/Chicago","modification_date":"2011-05-14"},{"geonameid":"4702785","name":"Keene","asciiname":"Keene","alternatenames":"","latitude":"32.39681","longitude":"-97.3239","feature_class":"P","feature_code":"PPL","country_code":"US","cc2":"","admin1_code":"TX","admin2_code":"251","admin3_code":"","admin4_code":"","population":"6106","elevation":"272","dem":"279","timezone":"America/Chicago","modification_date":"2011-05-14"},{"geonameid":"4702828","name":"Keller","asciiname":"Keller","alternatenames":"Keller,Келлер","latitude":"32.93457","longitude":"-97.25168","feature_class":"P","feature_code":"PPL","country_code":"US","cc2":"","admin1_code":"TX","admin2_code":"439","admin3_code":"","admin4_code":"","population":"39627","elevation":"216","dem":"220","timezone":"America/Chicago","modification_date":"2011-05-14"},{"geonameid":"4702913","name":"Kemah","asciiname":"Kemah","alternatenames":"Kima,kyma,kyma  tgzas,Кима,كيما,کیما، تگزاس","latitude":"29.54273","longitude":"-95.02048","feature_class":"P","feature_code":"PPL","country_code":"US","cc2":"","admin1_code":"TX","admin2_code":"167","admin3_code":"","admin4_code":"","population":"1773","elevation":"2","dem":"5","timezone":"America/Chicago","modification_date":"2011-05-14"},{"geonameid":"4702914","name":"Kemp","asciiname":"Kemp","alternatenames":"","latitude":"32.44264","longitude":"-96.22998","feature_class":"P","feature_code":"PPL","country_code":"US","cc2":"","admin1_code":"TX","admin2_code":"257","admin3_code":"","admin4_code":"","population":"1154","elevation":"116","dem":"121","timezone":"America/Chicago","modification_date":"2011-05-14"},{"geonameid":"4702965","name":"Kenedy","asciiname":"Kenedy","alternatenames":"","latitude":"28.81915","longitude":"-97.84861","feature_class":"P","feature_code":"PPL","country_code":"US","cc2":"","admin1_code":"TX","admin2_code":"255","admin3_code":"","admin4_code":"","population":"3296","elevation":"81","dem":"85","timezone":"America/Chicago","modification_date":"2011-05-14"},{"geonameid":"4702986","name":"Kennedale","asciiname":"Kennedale","alternatenames":"","latitude":"32.6468","longitude":"-97.22585","feature_class":"P","feature_code":"PPL","country_code":"US","cc2":"","admin1_code":"TX","admin2_code":"439","admin3_code":"","admin4_code":"","population":"6763","elevation":"192","dem":"197","timezone":"America/Chicago","modification_date":"2011-05-14"},{"geonameid":"4702998","name":"Kempner","asciiname":"Kempner","alternatenames":"","latitude":"31.08101","longitude":"-98.00252","feature_class":"P","feature_code":"PPL","country_code":"US","cc2":"","admin1_code":"TX","admin2_code":"281","admin3_code":"","admin4_code":"","population":"1089","elevation":"264","dem":"269","timezone":"America/Chicago","modification_date":"2011-05-14"},{"geonameid":"4703063","name":"Kerens","asciiname":"Kerens","alternatenames":"","latitude":"32.13321","longitude":"-96.22775","feature_class":"P","feature_code":"PPL","country_code":"US","cc2":"","admin1_code":"TX","admin2_code":"349","admin3_code":"","admin4_code":"","population":"1573","elevation":"113","dem":"115","timezone":"America/Chicago","modification_date":"2011-05-14"},{"geonameid":"4703078","name":"Kerrville","asciiname":"Kerrville","alternatenames":"ERV,Kervil,krwyl  tgzas,kyrfyl,Кервил,كيرفيل,کرویل، تگزاس","latitude":"30.04743","longitude":"-99.14032","feature_class":"P","feature_code":"PPLA2","country_code":"US","cc2":"","admin1_code":"TX","admin2_code":"265","admin3_code":"","admin4_code":"","population":"22347","elevation":"499","dem":"501","timezone":"America/Chicago","modification_date":"2011-05-14"},{"geonameid":"4703199","name":"Kilgore","asciiname":"Kilgore","alternatenames":"Kilgor,kylghwr,kylgwr  tgzas,Килгор,كيلغور,کیلگور، تگزاس","latitude":"32.38626","longitude":"-94.87577","feature_class":"P","feature_code":"PPL","country_code":"US","cc2":"","admin1_code":"TX","admin2_code":"183","admin3_code":"","admin4_code":"","population":"12975","elevation":"109","dem":"116","timezone":"America/Chicago","modification_date":"2011-05-14"},{"geonameid":"4703223","name":"Killeen","asciiname":"Killeen","alternatenames":"ILE,Kilin,Kilinas,Killeen,Killin,ji lin,kaylyn  tgzas,killin,kirin,klyn,kylyn,Килин,Киллин,Кіллін,كيلين,کایلین، تگزاس,کلین,کیلین، ٹیکساس,キリーン,基林,킬린","latitude":"31.11712","longitude":"-97.7278","feature_class":"P","feature_code":"PPL","country_code":"US","cc2":"","admin1_code":"TX","admin2_code":"027","admin3_code":"","admin4_code":"","population":"127921","elevation":"252","dem":"254","timezone":"America/Chicago","modification_date":"2013-07-17"},{"geonameid":"4703372","name":"Kingsland","asciiname":"Kingsland","alternatenames":"","latitude":"30.65824","longitude":"-98.44058","feature_class":"P","feature_code":"PPL","country_code":"US","cc2":"","admin1_code":"TX","admin2_code":"299","admin3_code":"","admin4_code":"","population":"6030","elevation":"255","dem":"258","timezone":"America/Chicago","modification_date":"2011-05-14"},{"geonameid":"4703384","name":"Kingsville","asciiname":"Kingsville","alternatenames":"Kingsvil,NQI,kingseubil,kynghzfyl,kyngzwyl  tgzas,Кингсвил,كينغزفيل,کینگزویل، تگزاس,킹스빌","latitude":"27.51587","longitude":"-97.85611","feature_class":"P","feature_code":"PPLA2","country_code":"US","cc2":"","admin1_code":"TX","admin2_code":"273","admin3_code":"","admin4_code":"","population":"26213","elevation":"18","dem":"21","timezone":"America/Chicago","modification_date":"2011-05-14"},{"geonameid":"4703415","name":"Kirby","asciiname":"Kirby","alternatenames":"","latitude":"29.46329","longitude":"-98.38557","feature_class":"P","feature_code":"PPL","country_code":"US","cc2":"","admin1_code":"TX","admin2_code":"029","admin3_code":"","admin4_code":"","population":"8000","elevation":"209","dem":"214","timezone":"America/Chicago","modification_date":"2011-05-14"},{"geonameid":"4703438","name":"Kirbyville","asciiname":"Kirbyville","alternatenames":"","latitude":"30.66048","longitude":"-93.89268","feature_class":"P","feature_code":"PPL","country_code":"US","cc2":"","admin1_code":"TX","admin2_code":"241","admin3_code":"","admin4_code":"","population":"2142","elevation":"34","dem":"40","timezone":"America/Chicago","modification_date":"2011-05-14"},{"geonameid":"4703578","name":"Knox City","asciiname":"Knox City","alternatenames":"","latitude":"33.41815","longitude":"-99.81898","feature_class":"P","feature_code":"PPL","country_code":"US","cc2":"","admin1_code":"TX","admin2_code":"275","admin3_code":"","admin4_code":"","population":"1130","elevation":"466","dem":"467","timezone":"America/Chicago","modification_date":"2011-05-14"},{"geonameid":"4703726","name":"Kountze","asciiname":"Kountze","alternatenames":"","latitude":"30.3716","longitude":"-94.31241","feature_class":"P","feature_code":"PPLA2","country_code":"US","cc2":"","admin1_code":"TX","admin2_code":"199","admin3_code":"","admin4_code":"","population":"2123","elevation":"26","dem":"32","timezone":"America/Chicago","modification_date":"2011-05-14"},{"geonameid":"4703759","name":"Krugerville","asciiname":"Krugerville","alternatenames":"","latitude":"33.28151","longitude":"-96.99056","feature_class":"P","feature_code":"PPL","country_code":"US","cc2":"","admin1_code":"TX","admin2_code":"121","admin3_code":"","admin4_code":"","population":"1662","elevation":"211","dem":"220","timezone":"America/Chicago","modification_date":"2011-05-14"},{"geonameid":"4703760","name":"Krum","asciiname":"Krum","alternatenames":"","latitude":"33.26151","longitude":"-97.23807","feature_class":"P","feature_code":"PPL","country_code":"US","cc2":"","admin1_code":"TX","admin2_code":"121","admin3_code":"","admin4_code":"","population":"4157","elevation":"225","dem":"229","timezone":"America/Chicago","modification_date":"2011-05-14"},{"geonameid":"4703811","name":"Kyle","asciiname":"Kyle","alternatenames":"Kajl,kayl  tgzas,kyly,Кајл,كيلي,کایل، تگزاس","latitude":"29.98911","longitude":"-97.87723","feature_class":"P","feature_code":"PPL","country_code":"US","cc2":"","admin1_code":"TX","admin2_code":"209","admin3_code":"","admin4_code":"","population":"28016","elevation":"222","dem":"224","timezone":"America/Chicago","modification_date":"2014-10-08"},{"geonameid":"4703882","name":"La Blanca","asciiname":"La Blanca","alternatenames":"","latitude":"26.29285","longitude":"-98.03778","feature_class":"P","feature_code":"PPL","country_code":"US","cc2":"","admin1_code":"TX","admin2_code":"215","admin3_code":"","admin4_code":"","population":"2488","elevation":"21","dem":"25","timezone":"America/Chicago","modification_date":"2011-05-14"},{"geonameid":"4703925","name":"La Coste","asciiname":"La Coste","alternatenames":"","latitude":"29.31079","longitude":"-98.81003","feature_class":"P","feature_code":"PPL","country_code":"US","cc2":"","admin1_code":"TX","admin2_code":"325","admin3_code":"","admin4_code":"","population":"1119","elevation":"217","dem":"222","timezone":"America/Chicago","modification_date":"2011-05-14"},{"geonameid":"4703938","name":"La Feria","asciiname":"La Feria","alternatenames":"Arroyo Alto,La Ferija,la fyrya,la fyrya  tgzas,Ла Ферија,لا فيريا,لا فیریا، تگزاس,لا فیریا، ٹیکساس","latitude":"26.15896","longitude":"-97.82389","feature_class":"P","feature_code":"PPL","country_code":"US","cc2":"","admin1_code":"TX","admin2_code":"061","admin3_code":"","admin4_code":"","population":"7302","elevation":"17","dem":"21","timezone":"America/Chicago","modification_date":"2011-05-14"},{"geonameid":"4703958","name":"La Grange","asciiname":"La Grange","alternatenames":"","latitude":"29.9055","longitude":"-96.87665","feature_class":"P","feature_code":"PPLA2","country_code":"US","cc2":"","admin1_code":"TX","admin2_code":"149","admin3_code":"","admin4_code":"","population":"4641","elevation":"81","dem":"83","timezone":"America/Chicago","modification_date":"2011-05-14"},{"geonameid":"4703965","name":"La Grulla","asciiname":"La Grulla","alternatenames":"","latitude":"26.26951","longitude":"-98.64725","feature_class":"P","feature_code":"PPL","country_code":"US","cc2":"","admin1_code":"TX","admin2_code":"427","admin3_code":"","admin4_code":"","population":"1622","elevation":"43","dem":"46","timezone":"America/Chicago","modification_date":"2011-05-14"},{"geonameid":"4703972","name":"La Homa","asciiname":"La Homa","alternatenames":"","latitude":"26.25007","longitude":"-98.36363","feature_class":"P","feature_code":"PPL","country_code":"US","cc2":"","admin1_code":"TX","admin2_code":"215","admin3_code":"","admin4_code":"","population":"11985","elevation":"50","dem":"51","timezone":"America/Chicago","modification_date":"2011-05-14"},{"geonameid":"4703997","name":"La Joya","asciiname":"La Joya","alternatenames":"","latitude":"26.24702","longitude":"-98.48141","feature_class":"P","feature_code":"PPL","country_code":"US","cc2":"","admin1_code":"TX","admin2_code":"215","admin3_code":"","admin4_code":"","population":"3985","elevation":"53","dem":"57","timezone":"America/Chicago","modification_date":"2011-05-14"},{"geonameid":"4704027","name":"La Marque","asciiname":"La Marque","alternatenames":"","latitude":"29.36857","longitude":"-94.97131","feature_class":"P","feature_code":"PPL","country_code":"US","cc2":"","admin1_code":"TX","admin2_code":"167","admin3_code":"","admin4_code":"","population":"14509","elevation":"5","dem":"7","timezone":"America/Chicago","modification_date":"2011-05-14"},{"geonameid":"4704067","name":"La Paloma","asciiname":"La Paloma","alternatenames":"","latitude":"26.04591","longitude":"-97.66749","feature_class":"P","feature_code":"PPL","country_code":"US","cc2":"","admin1_code":"TX","admin2_code":"061","admin3_code":"","admin4_code":"","population":"2903","elevation":"15","dem":"20","timezone":"America/Chicago","modification_date":"2011-05-14"},{"geonameid":"4704108","name":"La Porte","asciiname":"La Porte","alternatenames":"La Port,la bwrt,la pwrth  tgzas,Ла Порт,لا بورت,لا پورت، ٹیکساس,لا پورته، تگزاس","latitude":"29.66578","longitude":"-95.01937","feature_class":"P","feature_code":"PPL","country_code":"US","cc2":"","admin1_code":"TX","admin2_code":"201","admin3_code":"","admin4_code":"","population":"33800","elevation":"6","dem":"6","timezone":"America/Chicago","modification_date":"2011-05-14"},{"geonameid":"4704131","name":"La Pryor","asciiname":"La Pryor","alternatenames":"","latitude":"28.94108","longitude":"-99.84978","feature_class":"P","feature_code":"PPL","country_code":"US","cc2":"","admin1_code":"TX","admin2_code":"507","admin3_code":"","admin4_code":"","population":"1643","elevation":"227","dem":"228","timezone":"America/Chicago","modification_date":"2011-05-14"},{"geonameid":"4704180","name":"La Vernia","asciiname":"La Vernia","alternatenames":"","latitude":"29.35635","longitude":"-98.11556","feature_class":"P","feature_code":"PPL","country_code":"US","cc2":"","admin1_code":"TX","admin2_code":"493","admin3_code":"","admin4_code":"","population":"1034","elevation":"149","dem":"153","timezone":"America/Chicago","modification_date":"2011-05-14"},{"geonameid":"4704188","name":"La Villa","asciiname":"La Villa","alternatenames":"","latitude":"26.29868","longitude":"-97.92861","feature_class":"P","feature_code":"PPL","country_code":"US","cc2":"","admin1_code":"TX","admin2_code":"215","admin3_code":"","admin4_code":"","population":"1957","elevation":"17","dem":"22","timezone":"America/Chicago","modification_date":"2011-05-14"},{"geonameid":"4704238","name":"Lacy-Lakeview","asciiname":"Lacy-Lakeview","alternatenames":"","latitude":"31.62933","longitude":"-97.10278","feature_class":"P","feature_code":"PPL","country_code":"US","cc2":"","admin1_code":"TX","admin2_code":"309","admin3_code":"","admin4_code":"","population":"6489","elevation":"148","dem":"154","timezone":"America/Chicago","modification_date":"2011-05-14"},{"geonameid":"4704276","name":"Lago Vista","asciiname":"Lago Vista","alternatenames":"","latitude":"30.4602","longitude":"-97.98835","feature_class":"P","feature_code":"PPL","country_code":"US","cc2":"","admin1_code":"TX","admin2_code":"453","admin3_code":"","admin4_code":"","population":"6041","elevation":"236","dem":"245","timezone":"America/Chicago","modification_date":"2011-05-14"},{"geonameid":"4704298","name":"Laguna Heights","asciiname":"Laguna Heights","alternatenames":"","latitude":"26.08008","longitude":"-97.25386","feature_class":"P","feature_code":"PPL","country_code":"US","cc2":"","admin1_code":"TX","admin2_code":"061","admin3_code":"","admin4_code":"","population":"3488","elevation":"3","dem":"6","timezone":"America/Chicago","modification_date":"2011-05-14"},{"geonameid":"4704303","name":"Laguna Park","asciiname":"Laguna Park","alternatenames":"","latitude":"31.85932","longitude":"-97.37974","feature_class":"P","feature_code":"PPL","country_code":"US","cc2":"","admin1_code":"TX","admin2_code":"035","admin3_code":"","admin4_code":"","population":"1276","elevation":"184","dem":"188","timezone":"America/Chicago","modification_date":"2011-05-14"},{"geonameid":"4704307","name":"Laguna Vista","asciiname":"Laguna Vista","alternatenames":"","latitude":"26.10091","longitude":"-97.29025","feature_class":"P","feature_code":"PPL","country_code":"US","cc2":"","admin1_code":"TX","admin2_code":"061","admin3_code":"","admin4_code":"","population":"3117","elevation":"3","dem":"8","timezone":"America/Chicago","modification_date":"2011-05-14"},{"geonameid":"4704395","name":"Lake Brownwood","asciiname":"Lake Brownwood","alternatenames":"","latitude":"31.8357","longitude":"-99.00783","feature_class":"P","feature_code":"PPL","country_code":"US","cc2":"","admin1_code":"TX","admin2_code":"049","admin3_code":"","admin4_code":"","population":"1532","elevation":"440","dem":"446","timezone":"America/Chicago","modification_date":"2011-05-14"},{"geonameid":"4704482","name":"Lake Dallas","asciiname":"Lake Dallas","alternatenames":"Lejk Dalas,layk dalas,lyk dalas  tgzas,Лејк Далас,لايك دالاس,لیک دالاس، تگزاس,لیک ڈیلاس، ٹیکساس","latitude":"33.11929","longitude":"-97.02556","feature_class":"P","feature_code":"PPL","country_code":"US","cc2":"","admin1_code":"TX","admin2_code":"121","admin3_code":"","admin4_code":"","population":"7105","elevation":"175","dem":"181","timezone":"America/Chicago","modification_date":"2011-05-14"},{"geonameid":"4704628","name":"Lake Jackson","asciiname":"Lake Jackson","alternatenames":"Lejk DZekson,layk jakswn,lyk jkswn  tgzas,Лејк Џексон,لايك جاكسون,لیک جکسون، تگزاس,لیک جیکسن، ٹیکساس","latitude":"29.03386","longitude":"-95.43439","feature_class":"P","feature_code":"PPL","country_code":"US","cc2":"","admin1_code":"TX","admin2_code":"039","admin3_code":"","admin4_code":"","population":"26849","elevation":"4","dem":"11","timezone":"America/Chicago","modification_date":"2011-05-14"},{"geonameid":"4704655","name":"Lake Kiowa","asciiname":"Lake Kiowa","alternatenames":"","latitude":"33.57705","longitude":"-97.01306","feature_class":"P","feature_code":"PPL","country_code":"US","cc2":"","admin1_code":"TX","admin2_code":"097","admin3_code":"","admin4_code":"","population":"1906","elevation":"216","dem":"218","timezone":"America/Chicago","modification_date":"2011-05-14"},{"geonameid":"4704829","name":"Lake Dunlap","asciiname":"Lake Dunlap","alternatenames":"","latitude":"29.67578","longitude":"-98.07223","feature_class":"P","feature_code":"PPL","country_code":"US","cc2":"","admin1_code":"TX","admin2_code":"187","admin3_code":"","admin4_code":"","population":"1934","elevation":"180","dem":"182","timezone":"America/Chicago","modification_date":"2011-05-14"},{"geonameid":"4704931","name":"Lake Worth","asciiname":"Lake Worth","alternatenames":"","latitude":"32.80485","longitude":"-97.44502","feature_class":"P","feature_code":"PPL","country_code":"US","cc2":"","admin1_code":"TX","admin2_code":"439","admin3_code":"","admin4_code":"","population":"4584","elevation":"196","dem":"201","timezone":"America/Chicago","modification_date":"2011-05-14"},{"geonameid":"4704940","name":"Lakehills","asciiname":"Lakehills","alternatenames":"","latitude":"29.60467","longitude":"-98.94309","feature_class":"P","feature_code":"PPL","country_code":"US","cc2":"","admin1_code":"TX","admin2_code":"019","admin3_code":"","admin4_code":"","population":"5150","elevation":"374","dem":"376","timezone":"America/Chicago","modification_date":"2011-05-14"},{"geonameid":"4704970","name":"Lakeside","asciiname":"Lakeside","alternatenames":"","latitude":"32.82235","longitude":"-97.49335","feature_class":"P","feature_code":"PPL","country_code":"US","cc2":"","admin1_code":"TX","admin2_code":"439","admin3_code":"","admin4_code":"","population":"1307","elevation":"217","dem":"226","timezone":"America/Chicago","modification_date":"2011-05-14"},{"geonameid":"4705041","name":"Lakeway","asciiname":"Lakeway","alternatenames":"","latitude":"30.36377","longitude":"-97.97959","feature_class":"P","feature_code":"PPL","country_code":"US","cc2":"","admin1_code":"TX","admin2_code":"453","admin3_code":"","admin4_code":"","population":"11391","elevation":"251","dem":"236","timezone":"America/Chicago","modification_date":"2011-05-14"},{"geonameid":"4705176","name":"Lampasas","asciiname":"Lampasas","alternatenames":"Lampasas,lambsas,lmpss  tgzas,Лампасас,لامبساس,لمپسس، تگزاس,لیمپاساس، ٹیکساس","latitude":"31.06378","longitude":"-98.1817","feature_class":"P","feature_code":"PPLA2","country_code":"US","cc2":"","admin1_code":"TX","admin2_code":"281","admin3_code":"","admin4_code":"","population":"6681","elevation":"313","dem":"315","timezone":"America/Chicago","modification_date":"2011-05-14"},{"geonameid":"4705191","name":"Lancaster","asciiname":"Lancaster","alternatenames":"Lankaster,lankstr,lnkstr  tgzas,Ланкастер,لانكستر,لانکیسٹر، ٹیکساس,لنکستر، تگزاس,ലങ്കാസ്റ്റർ","latitude":"32.59208","longitude":"-96.75611","feature_class":"P","feature_code":"PPL","country_code":"US","cc2":"","admin1_code":"TX","admin2_code":"113","admin3_code":"","admin4_code":"","population":"36361","elevation":"159","dem":"161","timezone":"America/Chicago","modification_date":"2011-05-14"},{"geonameid":"4705349","name":"Laredo","asciiname":"Laredo","alternatenames":"LRD,Laredo,Laredum,la lei duo,larydw,larydw  tgzas,leoleido,raredo,Ларедо,לארדו,لاريدو,لاریدو، تگزاس,لاریڈو، ٹیکساس,لریڈو,ラレド,拉雷多,러레이도","latitude":"27.50641","longitude":"-99.50754","feature_class":"P","feature_code":"PPLA2","country_code":"US","cc2":"","admin1_code":"TX","admin2_code":"479","admin3_code":"","admin4_code":"","population":"236091","elevation":"126","dem":"132","timezone":"America/Chicago","modification_date":"2011-05-14"},{"geonameid":"4705417","name":"Las Lomas","asciiname":"Las Lomas","alternatenames":"","latitude":"26.36479","longitude":"-98.7753","feature_class":"P","feature_code":"PPL","country_code":"US","cc2":"","admin1_code":"TX","admin2_code":"427","admin3_code":"","admin4_code":"","population":"3147","elevation":"57","dem":"59","timezone":"America/Chicago","modification_date":"2011-05-14"},{"geonameid":"4705494","name":"Lasara","asciiname":"Lasara","alternatenames":"","latitude":"26.46479","longitude":"-97.91111","feature_class":"P","feature_code":"PPL","country_code":"US","cc2":"","admin1_code":"TX","admin2_code":"489","admin3_code":"","admin4_code":"","population":"1039","elevation":"13","dem":"17","timezone":"America/Chicago","modification_date":"2011-05-14"},{"geonameid":"4705564","name":"Laureles","asciiname":"Laureles","alternatenames":"","latitude":"26.10924","longitude":"-97.49415","feature_class":"P","feature_code":"PPL","country_code":"US","cc2":"","admin1_code":"TX","admin2_code":"061","admin3_code":"","admin4_code":"","population":"3692","elevation":"6","dem":"10","timezone":"America/Chicago","modification_date":"2011-05-14"},{"geonameid":"4705584","name":"Lavon","asciiname":"Lavon","alternatenames":"","latitude":"33.02762","longitude":"-96.43415","feature_class":"P","feature_code":"PPL","country_code":"US","cc2":"","admin1_code":"TX","admin2_code":"085","admin3_code":"","admin4_code":"","population":"2219","elevation":"160","dem":"163","timezone":"America/Chicago","modification_date":"2011-05-14"},{"geonameid":"4705692","name":"League City","asciiname":"League City","alternatenames":"League City,Lig Siti,lyg syty  tgzas,lygh syty,Лиг Сити,ليغ سيتي,لیگ سٹی، ٹیکساس,لیگ سیتی، تگزاس","latitude":"29.50745","longitude":"-95.09493","feature_class":"P","feature_code":"PPL","country_code":"US","cc2":"","admin1_code":"TX","admin2_code":"167","admin3_code":"","admin4_code":"","population":"83560","elevation":"6","dem":"9","timezone":"America/Chicago","modification_date":"2011-05-14"},{"geonameid":"4705702","name":"Leakey","asciiname":"Leakey","alternatenames":"","latitude":"29.72884","longitude":"-99.76145","feature_class":"P","feature_code":"PPLA2","country_code":"US","cc2":"","admin1_code":"TX","admin2_code":"385","admin3_code":"","admin4_code":"","population":"425","elevation":"489","dem":"494","timezone":"America/Chicago","modification_date":"2011-05-14"},{"geonameid":"4705708","name":"Leander","asciiname":"Leander","alternatenames":"","latitude":"30.57881","longitude":"-97.85307","feature_class":"P","feature_code":"PPL","country_code":"US","cc2":"","admin1_code":"TX","admin2_code":"491","admin3_code":"","admin4_code":"","population":"26521","elevation":"298","dem":"301","timezone":"America/Chicago","modification_date":"2011-05-14"},{"geonameid":"4705923","name":"Leon Valley","asciiname":"Leon Valley","alternatenames":"","latitude":"29.49523","longitude":"-98.61863","feature_class":"P","feature_code":"PPL","country_code":"US","cc2":"","admin1_code":"TX","admin2_code":"029","admin3_code":"","admin4_code":"","population":"10151","elevation":"252","dem":"252","timezone":"America/Chicago","modification_date":"2011-05-14"},{"geonameid":"4705943","name":"Leonard","asciiname":"Leonard","alternatenames":"","latitude":"33.37955","longitude":"-96.24748","feature_class":"P","feature_code":"PPL","country_code":"US","cc2":"","admin1_code":"TX","admin2_code":"147","admin3_code":"","admin4_code":"","population":"1990","elevation":"219","dem":"221","timezone":"America/Chicago","modification_date":"2011-05-14"},{"geonameid":"4706057","name":"Lewisville","asciiname":"Lewisville","alternatenames":"L'juisvill,Lewisville,Luisvil,liu yi si wei er,lu-iseubil,lwysfyl,lwyzwl,ruisubiru,Луисвил,Льюисвилл,لوئیس‌ویل، تگزاس,لويسفيل,لویزول,لیوسویل، ٹیکساس,ലൂയിസ്‌വിൽ,ルイスビル,刘易斯维尔,루이스빌","latitude":"33.04623","longitude":"-96.99417","feature_class":"P","feature_code":"PPL","country_code":"US","cc2":"","admin1_code":"TX","admin2_code":"121","admin3_code":"","admin4_code":"","population":"95290","elevation":"160","dem":"161","timezone":"America/Chicago","modification_date":"2011-05-14"},{"geonameid":"4706068","name":"Lexington","asciiname":"Lexington","alternatenames":"Leksington,Лексингтон","latitude":"30.4191","longitude":"-97.01165","feature_class":"P","feature_code":"PPL","country_code":"US","cc2":"","admin1_code":"TX","admin2_code":"287","admin3_code":"","admin4_code":"","population":"1177","elevation":"139","dem":"141","timezone":"America/Chicago","modification_date":"2011-05-14"},{"geonameid":"4706088","name":"Liberty","asciiname":"Liberty","alternatenames":"Liberti,Liberty City,lybrty,lybrty  tgzas,Либерти,ليبرتي,لیبرتی، تگزاس","latitude":"30.05799","longitude":"-94.79548","feature_class":"P","feature_code":"PPLA2","country_code":"US","cc2":"","admin1_code":"TX","admin2_code":"291","admin3_code":"","admin4_code":"","population":"8397","elevation":"9","dem":"13","timezone":"America/Chicago","modification_date":"2011-05-14"},{"geonameid":"4706141","name":"Liberty City","asciiname":"Liberty City","alternatenames":"","latitude":"32.44543","longitude":"-94.94855","feature_class":"P","feature_code":"PPL","country_code":"US","cc2":"","admin1_code":"TX","admin2_code":"183","admin3_code":"","admin4_code":"","population":"2351","elevation":"119","dem":"123","timezone":"America/Chicago","modification_date":"2011-05-14"},{"geonameid":"4706386","name":"Lindale","asciiname":"Lindale","alternatenames":"","latitude":"32.5157","longitude":"-95.4094","feature_class":"P","feature_code":"PPL","country_code":"US","cc2":"","admin1_code":"TX","admin2_code":"423","admin3_code":"","admin4_code":"","population":"4818","elevation":"168","dem":"174","timezone":"America/Chicago","modification_date":"2011-05-14"},{"geonameid":"4706404","name":"Linden","asciiname":"Linden","alternatenames":"Linden,lyndn,lyndn  tgzas,Линден,ليندن,لیندن، تگزاس","latitude":"33.01235","longitude":"-94.36547","feature_class":"P","feature_code":"PPLA2","country_code":"US","cc2":"","admin1_code":"TX","admin2_code":"067","admin3_code":"","admin4_code":"","population":"1988","elevation":"116","dem":"119","timezone":"America/Chicago","modification_date":"2011-05-14"},{"geonameid":"4706431","name":"Lindsay","asciiname":"Lindsay","alternatenames":"","latitude":"33.63594","longitude":"-97.22279","feature_class":"P","feature_code":"PPL","country_code":"US","cc2":"","admin1_code":"TX","admin2_code":"097","admin3_code":"","admin4_code":"","population":"1018","elevation":"242","dem":"244","timezone":"America/Chicago","modification_date":"2011-05-14"},{"geonameid":"4706736","name":"Little Elm","asciiname":"Little Elm","alternatenames":"Litl Elm,lytl alm,lytl alm  tgzas,Литл Елм,ليتل إلم,لیتل الم، تگزاس,ലിറ്റിൽ എൽമ്","latitude":"33.16262","longitude":"-96.93751","feature_class":"P","feature_code":"PPL","country_code":"US","cc2":"","admin1_code":"TX","admin2_code":"121","admin3_code":"","admin4_code":"","population":"25898","elevation":"166","dem":"169","timezone":"America/Chicago","modification_date":"2011-05-14"},{"geonameid":"4706919","name":"Little River-Academy","asciiname":"Little River-Academy","alternatenames":"","latitude":"30.98629","longitude":"-97.35861","feature_class":"P","feature_code":"PPL","country_code":"US","cc2":"","admin1_code":"TX","admin2_code":"027","admin3_code":"","admin4_code":"","population":"1961","elevation":"148","dem":"149","timezone":"America/Chicago","modification_date":"2011-05-14"},{"geonameid":"4707055","name":"Live Oak","asciiname":"Live Oak","alternatenames":"","latitude":"29.56523","longitude":"-98.3364","feature_class":"P","feature_code":"PPL","country_code":"US","cc2":"","admin1_code":"TX","admin2_code":"029","admin3_code":"","admin4_code":"","population":"13131","elevation":"278","dem":"278","timezone":"America/Chicago","modification_date":"2011-05-14"},{"geonameid":"4707173","name":"Livingston","asciiname":"Livingston","alternatenames":"Livingston,lyfynghstn,lywyngstn  tgzas,rivu~ingusuton,Ливингстон,ليفينغستن,لیونگسٹن، ٹیکساس,لیوینگستن، تگزاس,リヴィングストン","latitude":"30.71103","longitude":"-94.93299","feature_class":"P","feature_code":"PPLA2","country_code":"US","cc2":"","admin1_code":"TX","admin2_code":"373","admin3_code":"","admin4_code":"","population":"5335","elevation":"51","dem":"58","timezone":"America/Chicago","modification_date":"2011-05-14"},{"geonameid":"4707191","name":"Llano","asciiname":"Llano","alternatenames":"Lano,lanw,lanw  tgzas,Лано,لانو,لانو، تگزاس","latitude":"30.75935","longitude":"-98.67504","feature_class":"P","feature_code":"PPLA2","country_code":"US","cc2":"","admin1_code":"TX","admin2_code":"299","admin3_code":"","admin4_code":"","population":"3232","elevation":"314","dem":"316","timezone":"America/Chicago","modification_date":"2011-05-14"},{"geonameid":"4707203","name":"Llano Grande","asciiname":"Llano Grande","alternatenames":"","latitude":"26.1298","longitude":"-97.96806","feature_class":"P","feature_code":"PPL","country_code":"US","cc2":"","admin1_code":"TX","admin2_code":"215","admin3_code":"","admin4_code":"","population":"3008","elevation":"22","dem":"28","timezone":"America/Chicago","modification_date":"2011-05-14"},{"geonameid":"4707295","name":"Lockhart","asciiname":"Lockhart","alternatenames":"Lokkhart,lakhart  tgzas,lwkhart,Локхарт,لاکهارت، تگزاس,لوكهارت","latitude":"29.88494","longitude":"-97.67","feature_class":"P","feature_code":"PPLA2","country_code":"US","cc2":"","admin1_code":"TX","admin2_code":"055","admin3_code":"","admin4_code":"","population":"12698","elevation":"157","dem":"160","timezone":"America/Chicago","modification_date":"2011-05-14"},{"geonameid":"4707478","name":"Lone Star","asciiname":"Lone Star","alternatenames":"","latitude":"33.78566","longitude":"-95.38773","feature_class":"P","feature_code":"PPL","country_code":"US","cc2":"","admin1_code":"TX","admin2_code":"277","admin3_code":"","admin4_code":"","population":"1631","elevation":"106","dem":"158","timezone":"America/Chicago","modification_date":"2012-05-08"},{"geonameid":"4707479","name":"Lone Star","asciiname":"Lone Star","alternatenames":"","latitude":"32.94402","longitude":"-94.70715","feature_class":"P","feature_code":"PPL","country_code":"US","cc2":"","admin1_code":"TX","admin2_code":"343","admin3_code":"","admin4_code":"","population":"1581","elevation":"106","dem":"112","timezone":"America/Chicago","modification_date":"2011-05-14"},{"geonameid":"4707814","name":"Longview","asciiname":"Longview","alternatenames":"GGG,Longv'ju,Longview,Longvju,lang wei you,langwyw  tgzas,longbyu,lwnghfyw,lwngwyw,rongubyu,Лонгвью,Лонгвю,Лонгвју,لانگویو، تگزاس,لونغفيو,لونگویئو، ٹیکساس,لونگویو,ロングビュー,朗維尤,롱뷰","latitude":"32.5007","longitude":"-94.74049","feature_class":"P","feature_code":"PPLA2","country_code":"US","cc2":"","admin1_code":"TX","admin2_code":"183","admin3_code":"","admin4_code":"","population":"80455","elevation":"113","dem":"119","timezone":"America/Chicago","modification_date":"2011-05-14"},{"geonameid":"4707859","name":"Lopezville","asciiname":"Lopezville","alternatenames":"","latitude":"26.23813","longitude":"-98.15973","feature_class":"P","feature_code":"PPL","country_code":"US","cc2":"","admin1_code":"TX","admin2_code":"215","admin3_code":"","admin4_code":"","population":"4333","elevation":"32","dem":"36","timezone":"America/Chicago","modification_date":"2011-05-14"},{"geonameid":"4707868","name":"Lorena","asciiname":"Lorena","alternatenames":"","latitude":"31.38656","longitude":"-97.21556","feature_class":"P","feature_code":"PPL","country_code":"US","cc2":"","admin1_code":"TX","admin2_code":"309","admin3_code":"","admin4_code":"","population":"1691","elevation":"184","dem":"190","timezone":"America/Chicago","modification_date":"2011-05-14"},{"geonameid":"4707932","name":"Los Fresnos","asciiname":"Los Fresnos","alternatenames":"","latitude":"26.07174","longitude":"-97.47637","feature_class":"P","feature_code":"PPL","country_code":"US","cc2":"","admin1_code":"TX","admin2_code":"061","admin3_code":"","admin4_code":"","population":"5542","elevation":"7","dem":"12","timezone":"America/Chicago","modification_date":"2011-05-14"},{"geonameid":"4707945","name":"Los Indios","asciiname":"Los Indios","alternatenames":"","latitude":"26.04924","longitude":"-97.74499","feature_class":"P","feature_code":"PPL","country_code":"US","cc2":"","admin1_code":"TX","admin2_code":"061","admin3_code":"","admin4_code":"","population":"1083","elevation":"17","dem":"22","timezone":"America/Chicago","modification_date":"2011-05-14"},{"geonameid":"4708016","name":"Lost Creek","asciiname":"Lost Creek","alternatenames":"","latitude":"30.29548","longitude":"-97.84445","feature_class":"P","feature_code":"PPL","country_code":"US","cc2":"","admin1_code":"TX","admin2_code":"453","admin3_code":"","admin4_code":"","population":"4509","elevation":"251","dem":"257","timezone":"America/Chicago","modification_date":"2011-05-14"},{"geonameid":"4708236","name":"Lowry Crossing","asciiname":"Lowry Crossing","alternatenames":"","latitude":"33.15484","longitude":"-96.54721","feature_class":"P","feature_code":"PPL","country_code":"US","cc2":"","admin1_code":"TX","admin2_code":"085","admin3_code":"","admin4_code":"","population":"1711","elevation":"156","dem":"160","timezone":"America/Chicago","modification_date":"2011-05-14"},{"geonameid":"4708255","name":"Lucas","asciiname":"Lucas","alternatenames":"","latitude":"33.08429","longitude":"-96.57666","feature_class":"P","feature_code":"PPL","country_code":"US","cc2":"","admin1_code":"TX","admin2_code":"085","admin3_code":"","admin4_code":"","population":"5166","elevation":"173","dem":"179","timezone":"America/Chicago","modification_date":"2011-05-14"},{"geonameid":"4708308","name":"Lufkin","asciiname":"Lufkin","alternatenames":"LFK,Lafkin,la fu jin,lwfkyn,lwfkyn  tgzas,Лафкин,لوفكين,لوفکین، تگزاس,拉夫金","latitude":"31.33824","longitude":"-94.7291","feature_class":"P","feature_code":"PPLA2","country_code":"US","cc2":"","admin1_code":"TX","admin2_code":"005","admin3_code":"","admin4_code":"","population":"35067","elevation":"95","dem":"99","timezone":"America/Chicago","modification_date":"2011-05-14"},{"geonameid":"4708320","name":"Luling","asciiname":"Luling","alternatenames":"Luling,lwlyng  tgzas,lwlyngh,Лулинг,لولينغ,لولینگ، تگزاس","latitude":"29.68051","longitude":"-97.6475","feature_class":"P","feature_code":"PPL","country_code":"US","cc2":"","admin1_code":"TX","admin2_code":"055","admin3_code":"","admin4_code":"","population":"5411","elevation":"125","dem":"129","timezone":"America/Chicago","modification_date":"2011-05-14"},{"geonameid":"4708328","name":"Lumberton","asciiname":"Lumberton","alternatenames":"","latitude":"30.26577","longitude":"-94.19963","feature_class":"P","feature_code":"PPL","country_code":"US","cc2":"","admin1_code":"TX","admin2_code":"199","admin3_code":"","admin4_code":"","population":"11943","elevation":"18","dem":"18","timezone":"America/Chicago","modification_date":"2011-05-14"},{"geonameid":"4708403","name":"Lyford","asciiname":"Lyford","alternatenames":"","latitude":"26.41229","longitude":"-97.78972","feature_class":"P","feature_code":"PPL","country_code":"US","cc2":"","admin1_code":"TX","admin2_code":"489","admin3_code":"","admin4_code":"","population":"2611","elevation":"11","dem":"15","timezone":"America/Chicago","modification_date":"2011-05-14"},{"geonameid":"4708477","name":"Lytle","asciiname":"Lytle","alternatenames":"","latitude":"29.23329","longitude":"-98.79641","feature_class":"P","feature_code":"PPL","country_code":"US","cc2":"","admin1_code":"TX","admin2_code":"013","admin3_code":"","admin4_code":"","population":"2492","elevation":"220","dem":"223","timezone":"America/Chicago","modification_date":"2011-05-14"},{"geonameid":"4708535","name":"Mabank","asciiname":"Mabank","alternatenames":"","latitude":"32.36653","longitude":"-96.10081","feature_class":"P","feature_code":"PPL","country_code":"US","cc2":"","admin1_code":"TX","admin2_code":"257","admin3_code":"","admin4_code":"","population":"3035","elevation":"120","dem":"123","timezone":"America/Chicago","modification_date":"2011-05-14"},{"geonameid":"4708703","name":"Madisonville","asciiname":"Madisonville","alternatenames":"","latitude":"30.94991","longitude":"-95.91162","feature_class":"P","feature_code":"PPLA2","country_code":"US","cc2":"","admin1_code":"TX","admin2_code":"313","admin3_code":"","admin4_code":"","population":"4396","elevation":"76","dem":"78","timezone":"America/Chicago","modification_date":"2011-05-14"},{"geonameid":"4708747","name":"Magnolia","asciiname":"Magnolia","alternatenames":"","latitude":"30.20938","longitude":"-95.75078","feature_class":"P","feature_code":"PPL","country_code":"US","cc2":"","admin1_code":"TX","admin2_code":"339","admin3_code":"","admin4_code":"","population":"1393","elevation":"82","dem":"84","timezone":"America/Chicago","modification_date":"2011-05-14"},{"geonameid":"4708877","name":"Malakoff","asciiname":"Malakoff","alternatenames":"","latitude":"32.1696","longitude":"-96.01247","feature_class":"P","feature_code":"PPL","country_code":"US","cc2":"","admin1_code":"TX","admin2_code":"213","admin3_code":"","admin4_code":"","population":"2324","elevation":"114","dem":"119","timezone":"America/Chicago","modification_date":"2011-05-14"},{"geonameid":"4708936","name":"Manchaca","asciiname":"Manchaca","alternatenames":"","latitude":"30.14077","longitude":"-97.83306","feature_class":"P","feature_code":"PPL","country_code":"US","cc2":"","admin1_code":"TX","admin2_code":"453","admin3_code":"","admin4_code":"","population":"1133","elevation":"214","dem":"220","timezone":"America/Chicago","modification_date":"2011-05-14"},{"geonameid":"4708989","name":"Manor","asciiname":"Manor","alternatenames":"","latitude":"30.34076","longitude":"-97.55695","feature_class":"P","feature_code":"PPL","country_code":"US","cc2":"","admin1_code":"TX","admin2_code":"453","admin3_code":"","admin4_code":"","population":"5037","elevation":"162","dem":"165","timezone":"America/Chicago","modification_date":"2011-05-14"},{"geonameid":"4709013","name":"Mansfield","asciiname":"Mansfield","alternatenames":"Mehnsfild,Mensfild,mansfyld,mnsfyld  tgzas,Менсфилд,Мэнсфилд,مانسفيلد,منسفیلد، تگزاس,مینسفیلڈ، ٹیکساس","latitude":"32.56319","longitude":"-97.14168","feature_class":"P","feature_code":"PPL","country_code":"US","cc2":"","admin1_code":"TX","admin2_code":"439","admin3_code":"","admin4_code":"","population":"56368","elevation":"184","dem":"188","timezone":"America/Chicago","modification_date":"2011-05-14"},{"geonameid":"4709027","name":"Manvel","asciiname":"Manvel","alternatenames":"","latitude":"29.46274","longitude":"-95.35799","feature_class":"P","feature_code":"PPL","country_code":"US","cc2":"","admin1_code":"TX","admin2_code":"039","admin3_code":"","admin4_code":"","population":"5179","elevation":"16","dem":"21","timezone":"America/Chicago","modification_date":"2011-05-14"},{"geonameid":"4709090","name":"Marble Falls","asciiname":"Marble Falls","alternatenames":"Marbl Fols,marbl fals  tgzas,marbl fwlz,Марбл Фолс,ماربل فالس، تگزاس,ماربل فولز","latitude":"30.57841","longitude":"-98.27507","feature_class":"P","feature_code":"PPL","country_code":"US","cc2":"","admin1_code":"TX","admin2_code":"053","admin3_code":"","admin4_code":"","population":"6077","elevation":"251","dem":"248","timezone":"America/Chicago","modification_date":"2015-06-09"},{"geonameid":"4709161","name":"Marion","asciiname":"Marion","alternatenames":"Mehrion,Мэрион","latitude":"29.57134","longitude":"-98.14029","feature_class":"P","feature_code":"PPL","country_code":"US","cc2":"","admin1_code":"TX","admin2_code":"187","admin3_code":"","admin4_code":"","population":"1066","elevation":"197","dem":"199","timezone":"America/Chicago","modification_date":"2011-05-14"},{"geonameid":"4709193","name":"Markham","asciiname":"Markham","alternatenames":"","latitude":"28.96026","longitude":"-96.06524","feature_class":"P","feature_code":"PPL","country_code":"US","cc2":"","admin1_code":"TX","admin2_code":"321","admin3_code":"","admin4_code":"","population":"1082","elevation":"17","dem":"20","timezone":"America/Chicago","modification_date":"2011-05-14"},{"geonameid":"4709215","name":"Marlin","asciiname":"Marlin","alternatenames":"Marlin,marlyn,marlyn  tgzas,Марлин,مارلين,مارلین، تگزاس","latitude":"31.30629","longitude":"-96.89804","feature_class":"P","feature_code":"PPLA2","country_code":"US","cc2":"","admin1_code":"TX","admin2_code":"145","admin3_code":"","admin4_code":"","population":"5967","elevation":"119","dem":"126","timezone":"America/Chicago","modification_date":"2011-05-14"},{"geonameid":"4709272","name":"Marshall","asciiname":"Marshall","alternatenames":"ASL,Marshal,Marshall,ma xie er,marshal,marshal  tgzas,masharu,masyeol,Маршал,Маршалл,مارشال,مارشال، تگزاس,مارشل، ٹیکساس,マーシャル,马歇尔,마셜","latitude":"32.54487","longitude":"-94.36742","feature_class":"P","feature_code":"PPLA2","country_code":"US","cc2":"","admin1_code":"TX","admin2_code":"203","admin3_code":"","admin4_code":"","population":"23523","elevation":"126","dem":"129","timezone":"America/Chicago","modification_date":"2011-05-14"},{"geonameid":"4709320","name":"Mart","asciiname":"Mart","alternatenames":"","latitude":"31.54239","longitude":"-96.8336","feature_class":"P","feature_code":"PPL","country_code":"US","cc2":"","admin1_code":"TX","admin2_code":"309","admin3_code":"","admin4_code":"","population":"2209","elevation":"160","dem":"164","timezone":"America/Chicago","modification_date":"2011-05-14"},{"geonameid":"4709410","name":"Martindale","asciiname":"Martindale","alternatenames":"","latitude":"29.8455","longitude":"-97.84084","feature_class":"P","feature_code":"PPL","country_code":"US","cc2":"","admin1_code":"TX","admin2_code":"055","admin3_code":"","admin4_code":"","population":"1116","elevation":"160","dem":"166","timezone":"America/Chicago","modification_date":"2011-05-14"},{"geonameid":"4709501","name":"Mason","asciiname":"Mason","alternatenames":"Mejson,maswn,mysn  tgzas,Мейсон,Мејсон,ماسون,میسن، تگزاس,میسن، ٹیکساس","latitude":"30.74879","longitude":"-99.23061","feature_class":"P","feature_code":"PPLA2","country_code":"US","cc2":"","admin1_code":"TX","admin2_code":"319","admin3_code":"","admin4_code":"","population":"2114","elevation":"469","dem":"472","timezone":"America/Chicago","modification_date":"2011-05-14"},{"geonameid":"4709615","name":"Mathis","asciiname":"Mathis","alternatenames":"","latitude":"28.09446","longitude":"-97.82805","feature_class":"P","feature_code":"PPL","country_code":"US","cc2":"","admin1_code":"TX","admin2_code":"409","admin3_code":"","admin4_code":"","population":"4942","elevation":"49","dem":"53","timezone":"America/Chicago","modification_date":"2011-05-14"},{"geonameid":"4709652","name":"Maud","asciiname":"Maud","alternatenames":"","latitude":"33.3329","longitude":"-94.3427","feature_class":"P","feature_code":"PPL","country_code":"US","cc2":"","admin1_code":"TX","admin2_code":"037","admin3_code":"","admin4_code":"","population":"1056","elevation":"88","dem":"93","timezone":"America/Chicago","modification_date":"2011-05-14"},{"geonameid":"4709663","name":"Mauriceville","asciiname":"Mauriceville","alternatenames":"","latitude":"30.20354","longitude":"-93.86628","feature_class":"P","feature_code":"PPL","country_code":"US","cc2":"","admin1_code":"TX","admin2_code":"361","admin3_code":"","admin4_code":"","population":"3252","elevation":"8","dem":"13","timezone":"America/Chicago","modification_date":"2011-05-14"},{"geonameid":"4709796","name":"McAllen","asciiname":"McAllen","alternatenames":"MFE,Mak-Allen,Makalen,McAllen,maekaelleon,mai ka lun,makalyn,makkaren,Мак-Аллен,Макален,מקאלן,ماكالين,مک ایلن، ٹیکساس,مک‌آلن,マッカレン,麦卡伦,매캘런","latitude":"26.20341","longitude":"-98.23001","feature_class":"P","feature_code":"PPL","country_code":"US","cc2":"","admin1_code":"TX","admin2_code":"215","admin3_code":"","admin4_code":"","population":"129877","elevation":"37","dem":"42","timezone":"America/Chicago","modification_date":"2013-03-25"},{"geonameid":"4710129","name":"McGregor","asciiname":"McGregor","alternatenames":"","latitude":"31.44406","longitude":"-97.40918","feature_class":"P","feature_code":"PPL","country_code":"US","cc2":"","admin1_code":"TX","admin2_code":"309","admin3_code":"","admin4_code":"","population":"4987","elevation":"211","dem":"218","timezone":"America/Chicago","modification_date":"2011-05-14"},{"geonameid":"4710178","name":"McKinney","asciiname":"McKinney","alternatenames":"Mak-Kinni,Makini,McKinney,maekini,mai jin ni,makkini,makkinni,makkyny,Мак-Кинни,Мак-Кінні,Макини,ماككيني,مک کینی، ٹیکساس,مک‌کینی، تگزاس,മക്കിന്നി,マッキニー,麥金尼,매키니","latitude":"33.19762","longitude":"-96.61527","feature_class":"P","feature_code":"PPLA2","country_code":"US","cc2":"","admin1_code":"TX","admin2_code":"085","admin3_code":"","admin4_code":"","population":"131117","elevation":"192","dem":"197","timezone":"America/Chicago","modification_date":"2011-05-14"},{"geonameid":"4710227","name":"McLendon-Chisholm","asciiname":"McLendon-Chisholm","alternatenames":"","latitude":"32.84235","longitude":"-96.38054","feature_class":"P","feature_code":"PPL","country_code":"US","cc2":"","admin1_code":"TX","admin2_code":"397","admin3_code":"","admin4_code":"","population":"1373","elevation":"154","dem":"158","timezone":"America/Chicago","modification_date":"2011-05-14"},