{"nextFile":"cities.84.json","rows":[{"geonameid":"3175976","name":"Gorzegno","asciiname":"Gorzegno","alternatenames":"Gorzegno","latitude":"44.51236","longitude":"8.1348","feature_class":"P","feature_code":"PPLA3","country_code":"IT","cc2":"","admin1_code":"12","admin2_code":"CN","admin3_code":"004097","admin4_code":"","population":"153","elevation":"319","dem":"331","timezone":"Europe/Rome","modification_date":"2014-04-13"},{"geonameid":"3175978","name":"Gorreto","asciiname":"Gorreto","alternatenames":"Goreio,Gorreto","latitude":"44.60485","longitude":"9.29126","feature_class":"P","feature_code":"PPLA3","country_code":"IT","cc2":"","admin1_code":"08","admin2_code":"GE","admin3_code":"010026","admin4_code":"","population":"52","elevation":"533","dem":"528","timezone":"Europe/Rome","modification_date":"2014-01-19"},{"geonameid":"3175980","name":"Goro","asciiname":"Goro","alternatenames":"Goro","latitude":"44.8515","longitude":"12.29651","feature_class":"P","feature_code":"PPLA3","country_code":"IT","cc2":"","admin1_code":"05","admin2_code":"FE","admin3_code":"038025","admin4_code":"","population":"3101","elevation":"1","dem":"-2","timezone":"Europe/Rome","modification_date":"2014-04-13"},{"geonameid":"3175981","name":"Gorno","asciiname":"Gorno","alternatenames":"Gorno","latitude":"45.86249","longitude":"9.84155","feature_class":"P","feature_code":"PPLA3","country_code":"IT","cc2":"","admin1_code":"09","admin2_code":"BG","admin3_code":"016116","admin4_code":"","population":"1778","elevation":"","dem":"683","timezone":"Europe/Rome","modification_date":"2012-02-15"},{"geonameid":"3175983","name":"Gorle","asciiname":"Gorle","alternatenames":"Gorle","latitude":"45.70127","longitude":"9.71382","feature_class":"P","feature_code":"PPLA3","country_code":"IT","cc2":"","admin1_code":"09","admin2_code":"BG","admin3_code":"016115","admin4_code":"","population":"6441","elevation":"268","dem":"270","timezone":"Europe/Rome","modification_date":"2014-04-13"},{"geonameid":"3175984","name":"Gorla Maggiore","asciiname":"Gorla Maggiore","alternatenames":"","latitude":"45.66388","longitude":"8.89537","feature_class":"P","feature_code":"PPLA3","country_code":"IT","cc2":"","admin1_code":"09","admin2_code":"VA","admin3_code":"012078","admin4_code":"","population":"5043","elevation":"258","dem":"259","timezone":"Europe/Rome","modification_date":"2014-04-13"},{"geonameid":"3175986","name":"Gorizia","asciiname":"Gorizia","alternatenames":"Goerz,Gorica,Goricija,Gorizia,Gorycja,Gurize,Gurizze,Görz,QGO,goritsu~ia,Гориция,ゴリツィア","latitude":"45.94088","longitude":"13.62167","feature_class":"P","feature_code":"PPLA2","country_code":"IT","cc2":"","admin1_code":"06","admin2_code":"GO","admin3_code":"031007","admin4_code":"","population":"34646","elevation":"84","dem":"84","timezone":"Europe/Rome","modification_date":"2014-01-11"},{"geonameid":"3175988","name":"Goriano Sicoli","asciiname":"Goriano Sicoli","alternatenames":"Goriano Sicoli","latitude":"42.08011","longitude":"13.77459","feature_class":"P","feature_code":"PPLA3","country_code":"IT","cc2":"","admin1_code":"01","admin2_code":"AQ","admin3_code":"066047","admin4_code":"","population":"597","elevation":"720","dem":"713","timezone":"Europe/Rome","modification_date":"2014-04-13"},{"geonameid":"3175990","name":"Gorgonzola","asciiname":"Gorgonzola","alternatenames":"Gorgonzola,gorugonzora,ゴルゴンゾーラ","latitude":"45.53069","longitude":"9.40531","feature_class":"P","feature_code":"PPLA3","country_code":"IT","cc2":"","admin1_code":"09","admin2_code":"MI","admin3_code":"015108","admin4_code":"","population":"18979","elevation":"133","dem":"138","timezone":"Europe/Rome","modification_date":"2014-04-13"},{"geonameid":"3175994","name":"Gorgoglione","asciiname":"Gorgoglione","alternatenames":"Gorgoglione","latitude":"40.39532","longitude":"16.14456","feature_class":"P","feature_code":"PPLA3","country_code":"IT","cc2":"","admin1_code":"02","admin2_code":"MT","admin3_code":"077010","admin4_code":"","population":"1033","elevation":"800","dem":"821","timezone":"Europe/Rome","modification_date":"2014-04-13"},{"geonameid":"3175997","name":"Gorga","asciiname":"Gorga","alternatenames":"Gorga,ge er jia,goleuga,goruga,Горга,Գորգա,ゴルガ,戈尔加,고르가","latitude":"41.65468","longitude":"13.10663","feature_class":"P","feature_code":"PPLA3","country_code":"IT","cc2":"","admin1_code":"07","admin2_code":"RM","admin3_code":"058045","admin4_code":"","population":"472","elevation":"766","dem":"760","timezone":"Europe/Rome","modification_date":"2014-04-13"},{"geonameid":"3176000","name":"Gordona","asciiname":"Gordona","alternatenames":"Gardona,Gordona,Gurduna,ge er duo na,gorudona,Гордона,Գոռդոնա,ゴルドーナ,戈尔多纳","latitude":"46.29176","longitude":"9.367","feature_class":"P","feature_code":"PPLA3","country_code":"IT","cc2":"","admin1_code":"09","admin2_code":"SO","admin3_code":"014032","admin4_code":"","population":"1423","elevation":"283","dem":"299","timezone":"Europe/Rome","modification_date":"2014-04-13"},{"geonameid":"3176002","name":"Gonzaga","asciiname":"Gonzaga","alternatenames":"Gonzaga,gondzaga,gonzaga,გონძაგა,ゴンザーガ","latitude":"44.95193","longitude":"10.81913","feature_class":"P","feature_code":"PPLA3","country_code":"IT","cc2":"","admin1_code":"09","admin2_code":"MN","admin3_code":"020027","admin4_code":"","population":"5230","elevation":"22","dem":"19","timezone":"Europe/Rome","modification_date":"2014-04-13"},{"geonameid":"3176003","name":"Gonars","asciiname":"Gonars","alternatenames":"Gonars","latitude":"45.8974","longitude":"13.24402","feature_class":"P","feature_code":"PPLA3","country_code":"IT","cc2":"","admin1_code":"06","admin2_code":"UD","admin3_code":"030044","admin4_code":"","population":"3938","elevation":"21","dem":"22","timezone":"Europe/Rome","modification_date":"2014-04-13"},{"geonameid":"3176009","name":"Golfo Arnaci","asciiname":"Golfo Arnaci","alternatenames":"Golfo Arnaci,Golfo degli Aranci","latitude":"40.98333","longitude":"9.63333","feature_class":"P","feature_code":"PPL","country_code":"IT","cc2":"","admin1_code":"14","admin2_code":"OT","admin3_code":"","admin4_code":"","population":"2006","elevation":"","dem":"-9999","timezone":"Europe/Rome","modification_date":"2012-01-19"},{"geonameid":"3176012","name":"Golasecca","asciiname":"Golasecca","alternatenames":"Golasecca","latitude":"45.69821","longitude":"8.66112","feature_class":"P","feature_code":"PPLA3","country_code":"IT","cc2":"","admin1_code":"09","admin2_code":"VA","admin3_code":"012077","admin4_code":"","population":"2404","elevation":"280","dem":"278","timezone":"Europe/Rome","modification_date":"2014-04-13"},{"geonameid":"3176014","name":"Goito","asciiname":"Goito","alternatenames":"Goito,goito,ゴーイト","latitude":"45.25076","longitude":"10.66121","feature_class":"P","feature_code":"PPLA3","country_code":"IT","cc2":"","admin1_code":"09","admin2_code":"MN","admin3_code":"020026","admin4_code":"","population":"5538","elevation":"33","dem":"38","timezone":"Europe/Rome","modification_date":"2014-04-13"},{"geonameid":"3176018","name":"Godo","asciiname":"Godo","alternatenames":"","latitude":"44.39173","longitude":"12.07495","feature_class":"P","feature_code":"PPL","country_code":"IT","cc2":"","admin1_code":"05","admin2_code":"RA","admin3_code":"039016","admin4_code":"","population":"1579","elevation":"7","dem":"5","timezone":"Europe/Rome","modification_date":"2014-01-11"},{"geonameid":"3176019","name":"Godiasco","asciiname":"Godiasco","alternatenames":"Godiasco","latitude":"44.89645","longitude":"9.05667","feature_class":"P","feature_code":"PPLA3","country_code":"IT","cc2":"","admin1_code":"09","admin2_code":"PV","admin3_code":"018073","admin4_code":"","population":"1043","elevation":"196","dem":"201","timezone":"Europe/Rome","modification_date":"2014-04-13"},{"geonameid":"3176023","name":"Godega","asciiname":"Godega","alternatenames":"Godega,Godega Sant Urbano,Godega di Sant'Urbano,Godeno di Sant'Urbano","latitude":"45.92859","longitude":"12.39687","feature_class":"P","feature_code":"PPLA3","country_code":"IT","cc2":"","admin1_code":"20","admin2_code":"TV","admin3_code":"026033","admin4_code":"","population":"3506","elevation":"52","dem":"53","timezone":"Europe/Rome","modification_date":"2014-05-01"},{"geonameid":"3176031","name":"Glorenza","asciiname":"Glorenza","alternatenames":"Clornum,Glarehnca,Glorenca,Glorenza,Glurns,ge luo lun zha,gurorentsu~a,Гларэнца,Глоренца,Գլորենցա,グロレンツァ,格洛伦扎","latitude":"46.67105","longitude":"10.55684","feature_class":"P","feature_code":"PPLA3","country_code":"IT","cc2":"","admin1_code":"17","admin2_code":"BZ","admin3_code":"021036","admin4_code":"","population":"835","elevation":"907","dem":"911","timezone":"Europe/Rome","modification_date":"2014-04-13"},{"geonameid":"3176041","name":"Giussano","asciiname":"Giussano","alternatenames":"Giuessan,Giussano,Giüssàn,Gluxianum,jussano,ジュッサーノ","latitude":"45.70004","longitude":"9.2089","feature_class":"P","feature_code":"PPLA3","country_code":"IT","cc2":"","admin1_code":"09","admin2_code":"MB","admin3_code":"108024","admin4_code":"","population":"24357","elevation":"260","dem":"273","timezone":"Europe/Rome","modification_date":"2015-08-06"},{"geonameid":"3176043","name":"Giussago","asciiname":"Giussago","alternatenames":"Giussago","latitude":"45.28417","longitude":"9.13996","feature_class":"P","feature_code":"PPLA3","country_code":"IT","cc2":"","admin1_code":"09","admin2_code":"PV","admin3_code":"018072","admin4_code":"","population":"1427","elevation":"93","dem":"90","timezone":"Europe/Rome","modification_date":"2014-04-13"},{"geonameid":"3176044","name":"Giurdignano","asciiname":"Giurdignano","alternatenames":"Giurdignano","latitude":"40.12367","longitude":"18.43155","feature_class":"P","feature_code":"PPLA3","country_code":"IT","cc2":"","admin1_code":"13","admin2_code":"LE","admin3_code":"075033","admin4_code":"","population":"1836","elevation":"78","dem":"76","timezone":"Europe/Rome","modification_date":"2014-04-13"},{"geonameid":"3176046","name":"Giungano","asciiname":"Giungano","alternatenames":"Giungano","latitude":"40.3945","longitude":"15.10792","feature_class":"P","feature_code":"PPLA3","country_code":"IT","cc2":"","admin1_code":"04","admin2_code":"SA","admin3_code":"065058","admin4_code":"","population":"399","elevation":"250","dem":"232","timezone":"Europe/Rome","modification_date":"2014-04-13"},{"geonameid":"3176053","name":"Giulianova","asciiname":"Giulianova","alternatenames":"Giulianova","latitude":"42.75381","longitude":"13.9665","feature_class":"P","feature_code":"PPLA3","country_code":"IT","cc2":"","admin1_code":"01","admin2_code":"TE","admin3_code":"067025","admin4_code":"","population":"20490","elevation":"68","dem":"2","timezone":"Europe/Rome","modification_date":"2014-01-11"},{"geonameid":"3176054","name":"Giuliano Teatino","asciiname":"Giuliano Teatino","alternatenames":"Giuliano Teanno,Giuliano Teatino","latitude":"42.3122","longitude":"14.28082","feature_class":"P","feature_code":"PPLA3","country_code":"IT","cc2":"","admin1_code":"01","admin2_code":"CH","admin3_code":"069042","admin4_code":"","population":"908","elevation":"272","dem":"238","timezone":"Europe/Rome","modification_date":"2014-04-13"},{"geonameid":"3176055","name":"Giuliano di Roma","asciiname":"Giuliano di Roma","alternatenames":"Giuliano di Roma","latitude":"41.53933","longitude":"13.28028","feature_class":"P","feature_code":"PPLA3","country_code":"IT","cc2":"","admin1_code":"07","admin2_code":"FR","admin3_code":"060041","admin4_code":"","population":"900","elevation":"363","dem":"358","timezone":"Europe/Rome","modification_date":"2014-04-13"},{"geonameid":"3176057","name":"Giulianello","asciiname":"Giulianello","alternatenames":"","latitude":"41.6861","longitude":"12.87917","feature_class":"P","feature_code":"PPL","country_code":"IT","cc2":"","admin1_code":"07","admin2_code":"LT","admin3_code":"059006","admin4_code":"","population":"2519","elevation":"225","dem":"233","timezone":"Europe/Rome","modification_date":"2014-01-19"},{"geonameid":"3176059","name":"Giugliano in Campania","asciiname":"Giugliano in Campania","alternatenames":"Giuglian,Giugliano,Giugliano in Campania,Giugliàn,ジュリアーノ・イン・カンパーニア","latitude":"40.92849","longitude":"14.20197","feature_class":"P","feature_code":"PPLA3","country_code":"IT","cc2":"","admin1_code":"04","admin2_code":"NA","admin3_code":"063034","admin4_code":"","population":"80269","elevation":"97","dem":"103","timezone":"Europe/Rome","modification_date":"2015-10-19"},{"geonameid":"3176060","name":"Giuggianello","asciiname":"Giuggianello","alternatenames":"Giuggianello","latitude":"40.09383","longitude":"18.36894","feature_class":"P","feature_code":"PPLA3","country_code":"IT","cc2":"","admin1_code":"13","admin2_code":"LE","admin3_code":"075032","admin4_code":"","population":"1249","elevation":"79","dem":"80","timezone":"Europe/Rome","modification_date":"2014-04-13"},{"geonameid":"3176064","name":"Gissi","asciiname":"Gissi","alternatenames":"Gissi","latitude":"42.01803","longitude":"14.54484","feature_class":"P","feature_code":"PPLA3","country_code":"IT","cc2":"","admin1_code":"01","admin2_code":"CH","admin3_code":"069041","admin4_code":"","population":"1881","elevation":"499","dem":"489","timezone":"Europe/Rome","modification_date":"2014-04-13"},{"geonameid":"3176072","name":"Giovinazzo","asciiname":"Giovinazzo","alternatenames":"Dzhovinacco,Giovinazzo,Джовинаццо","latitude":"41.185","longitude":"16.67054","feature_class":"P","feature_code":"PPLA3","country_code":"IT","cc2":"","admin1_code":"13","admin2_code":"BA","admin3_code":"072022","admin4_code":"","population":"19186","elevation":"7","dem":"17","timezone":"Europe/Rome","modification_date":"2014-04-13"},{"geonameid":"3176082","name":"Giove","asciiname":"Giove","alternatenames":"Giove","latitude":"42.50988","longitude":"12.33015","feature_class":"P","feature_code":"PPLA3","country_code":"IT","cc2":"","admin1_code":"18","admin2_code":"TR","admin3_code":"055014","admin4_code":"","population":"1238","elevation":"292","dem":"296","timezone":"Europe/Rome","modification_date":"2014-04-13"},{"geonameid":"3176089","name":"Gioia Sannitica","asciiname":"Gioia Sannitica","alternatenames":"Gioia Sannitica","latitude":"41.29965","longitude":"14.44381","feature_class":"P","feature_code":"PPLA3","country_code":"IT","cc2":"","admin1_code":"04","admin2_code":"CE","admin3_code":"061041","admin4_code":"","population":"814","elevation":"275","dem":"251","timezone":"Europe/Rome","modification_date":"2014-04-13"},{"geonameid":"3176090","name":"Gioia del Colle","asciiname":"Gioia del Colle","alternatenames":"Dzhoja-del'-Kolle,Gioia del Colle,Gioja del Colle,Джоя-дель-Колле","latitude":"40.79968","longitude":"16.92298","feature_class":"P","feature_code":"PPLA3","country_code":"IT","cc2":"","admin1_code":"13","admin2_code":"BA","admin3_code":"072021","admin4_code":"","population":"24184","elevation":"360","dem":"362","timezone":"Europe/Rome","modification_date":"2015-06-02"},{"geonameid":"3176091","name":"Gioia dei Marsi","asciiname":"Gioia dei Marsi","alternatenames":"Gioia de' Marsi,Gioia dei Marsi","latitude":"41.95697","longitude":"13.69057","feature_class":"P","feature_code":"PPLA3","country_code":"IT","cc2":"","admin1_code":"01","admin2_code":"AQ","admin3_code":"066046","admin4_code":"","population":"2099","elevation":"725","dem":"697","timezone":"Europe/Rome","modification_date":"2014-04-13"},{"geonameid":"3176092","name":"Gioi","asciiname":"Gioi","alternatenames":"Gioi","latitude":"40.2897","longitude":"15.21806","feature_class":"P","feature_code":"PPLA3","country_code":"IT","cc2":"","admin1_code":"04","admin2_code":"SA","admin3_code":"065057","admin4_code":"","population":"696","elevation":"680","dem":"688","timezone":"Europe/Rome","modification_date":"2014-01-16"},{"geonameid":"3176096","name":"Marina di Ginosa","asciiname":"Marina di Ginosa","alternatenames":"Ginosa Marina,Marina di Ginosa","latitude":"40.42833","longitude":"16.88003","feature_class":"P","feature_code":"PPL","country_code":"IT","cc2":"IT","admin1_code":"13","admin2_code":"TA","admin3_code":"073007","admin4_code":"","population":"4989","elevation":"3","dem":"2","timezone":"Europe/Rome","modification_date":"2014-04-13"},{"geonameid":"3176097","name":"Ginosa","asciiname":"Ginosa","alternatenames":"Ginosa","latitude":"40.5769","longitude":"16.75655","feature_class":"P","feature_code":"PPLA3","country_code":"IT","cc2":"","admin1_code":"13","admin2_code":"TA","admin3_code":"073007","admin4_code":"","population":"16151","elevation":"240","dem":"254","timezone":"Europe/Rome","modification_date":"2014-04-13"},{"geonameid":"3176101","name":"Ginestra degli Schiavoni","asciiname":"Ginestra degli Schiavoni","alternatenames":"Ginestra degli Schiavoni","latitude":"41.27992","longitude":"15.04374","feature_class":"P","feature_code":"PPLA3","country_code":"IT","cc2":"","admin1_code":"04","admin2_code":"BN","admin3_code":"062036","admin4_code":"","population":"468","elevation":"540","dem":"533","timezone":"Europe/Rome","modification_date":"2014-01-16"},{"geonameid":"3176103","name":"Ginestra Fiorentina","asciiname":"Ginestra Fiorentina","alternatenames":"","latitude":"43.70939","longitude":"11.07384","feature_class":"P","feature_code":"PPL","country_code":"IT","cc2":"","admin1_code":"16","admin2_code":"FI","admin3_code":"048024","admin4_code":"","population":"1489","elevation":"56","dem":"72","timezone":"Europe/Rome","modification_date":"2014-01-19"},{"geonameid":"3176105","name":"Ginestra","asciiname":"Ginestra","alternatenames":"Dzhinestra,Genestrum,Ginestra,Jinestra,Xhinestra,Zhura,ji nei si te la,jinesutora,jynstra,Джинестра,Ջինեստրա,جينسترا,ジネストラ,吉内斯特拉","latitude":"40.93092","longitude":"15.73497","feature_class":"P","feature_code":"PPLA3","country_code":"IT","cc2":"","admin1_code":"02","admin2_code":"PZ","admin3_code":"076099","admin4_code":"","population":"707","elevation":"564","dem":"572","timezone":"Europe/Rome","modification_date":"2014-04-13"},{"geonameid":"3176114","name":"Gildone","asciiname":"Gildone","alternatenames":"Gildone","latitude":"41.50901","longitude":"14.7402","feature_class":"P","feature_code":"PPLA3","country_code":"IT","cc2":"","admin1_code":"11","admin2_code":"CB","admin3_code":"070026","admin4_code":"","population":"400","elevation":"608","dem":"622","timezone":"Europe/Rome","modification_date":"2014-04-13"},{"geonameid":"3176116","name":"Gignese","asciiname":"Gignese","alternatenames":"","latitude":"45.86396","longitude":"8.50943","feature_class":"P","feature_code":"PPLA3","country_code":"IT","cc2":"","admin1_code":"12","admin2_code":"VB","admin3_code":"103034","admin4_code":"","population":"457","elevation":"705","dem":"697","timezone":"Europe/Rome","modification_date":"2014-04-13"},{"geonameid":"3176120","name":"Giglio Castello","asciiname":"Giglio Castello","alternatenames":"Giglio,Giglio Castello","latitude":"42.36486","longitude":"10.9014","feature_class":"P","feature_code":"PPLA3","country_code":"IT","cc2":"IT","admin1_code":"16","admin2_code":"GR","admin3_code":"053012","admin4_code":"","population":"557","elevation":"405","dem":"375","timezone":"Europe/Rome","modification_date":"2014-04-13"},{"geonameid":"3176125","name":"Giffoni Valle Piana","asciiname":"Giffoni Valle Piana","alternatenames":"Giffoni Valle Piana","latitude":"40.71811","longitude":"14.94235","feature_class":"P","feature_code":"PPLA3","country_code":"IT","cc2":"","admin1_code":"04","admin2_code":"SA","admin3_code":"065056","admin4_code":"","population":"10992","elevation":"","dem":"205","timezone":"Europe/Rome","modification_date":"2012-02-15"},{"geonameid":"3176129","name":"Giavera del Montello","asciiname":"Giavera del Montello","alternatenames":"Giavera,Giavera del Montello","latitude":"45.79374","longitude":"12.16667","feature_class":"P","feature_code":"PPLA3","country_code":"IT","cc2":"","admin1_code":"20","admin2_code":"TV","admin3_code":"026032","admin4_code":"","population":"3462","elevation":"78","dem":"73","timezone":"Europe/Rome","modification_date":"2014-01-11"},{"geonameid":"3176130","name":"Giaveno","asciiname":"Giaveno","alternatenames":"Giaven,Giaveno,javu~eno,ジャヴェーノ","latitude":"45.04435","longitude":"7.34722","feature_class":"P","feature_code":"PPLA3","country_code":"IT","cc2":"","admin1_code":"12","admin2_code":"TO","admin3_code":"001115","admin4_code":"","population":"11540","elevation":"506","dem":"538","timezone":"Europe/Rome","modification_date":"2014-04-13"},{"geonameid":"3176131","name":"Giave","asciiname":"Giave","alternatenames":"Giave","latitude":"40.45224","longitude":"8.75175","feature_class":"P","feature_code":"PPLA3","country_code":"IT","cc2":"","admin1_code":"14","admin2_code":"SS","admin3_code":"090030","admin4_code":"","population":"527","elevation":"595","dem":"587","timezone":"Europe/Rome","modification_date":"2014-04-13"},{"geonameid":"3176137","name":"Giarole","asciiname":"Giarole","alternatenames":"Giarole","latitude":"45.06148","longitude":"8.5673","feature_class":"P","feature_code":"PPLA3","country_code":"IT","cc2":"","admin1_code":"12","admin2_code":"AL","admin3_code":"006082","admin4_code":"","population":"702","elevation":"98","dem":"102","timezone":"Europe/Rome","modification_date":"2014-04-13"},{"geonameid":"3176143","name":"Giano Vetusto","asciiname":"Giano Vetusto","alternatenames":"Giano Vetusto","latitude":"41.20272","longitude":"14.19342","feature_class":"P","feature_code":"PPLA3","country_code":"IT","cc2":"","admin1_code":"04","admin2_code":"CE","admin3_code":"061040","admin4_code":"","population":"653","elevation":"","dem":"203","timezone":"Europe/Rome","modification_date":"2012-02-15"},{"geonameid":"3176145","name":"Giano dell'Umbria","asciiname":"Giano dell'Umbria","alternatenames":"Giano dell'Umbria","latitude":"42.83384","longitude":"12.57777","feature_class":"P","feature_code":"PPLA3","country_code":"IT","cc2":"","admin1_code":"18","admin2_code":"PG","admin3_code":"054021","admin4_code":"","population":"3383","elevation":"","dem":"531","timezone":"Europe/Rome","modification_date":"2012-02-15"},{"geonameid":"3176158","name":"Piano di Coreglia-Ghivizzano","asciiname":"Piano di Coreglia-Ghivizzano","alternatenames":"","latitude":"44.03333","longitude":"10.51667","feature_class":"P","feature_code":"PPL","country_code":"IT","cc2":"","admin1_code":"16","admin2_code":"LU","admin3_code":"046011","admin4_code":"","population":"3447","elevation":"","dem":"206","timezone":"Europe/Rome","modification_date":"2014-05-04"},{"geonameid":"3176159","name":"Ghislarengo","asciiname":"Ghislarengo","alternatenames":"Ghislarengo","latitude":"45.52856","longitude":"8.38514","feature_class":"P","feature_code":"PPLA3","country_code":"IT","cc2":"","admin1_code":"12","admin2_code":"VC","admin3_code":"002062","admin4_code":"","population":"781","elevation":"206","dem":"204","timezone":"Europe/Rome","modification_date":"2014-04-13"},{"geonameid":"3176163","name":"Ghisalba","asciiname":"Ghisalba","alternatenames":"Ghisalba","latitude":"45.59354","longitude":"9.75765","feature_class":"P","feature_code":"PPLA3","country_code":"IT","cc2":"","admin1_code":"09","admin2_code":"BG","admin3_code":"016113","admin4_code":"","population":"5786","elevation":"170","dem":"166","timezone":"Europe/Rome","modification_date":"2014-04-13"},{"geonameid":"3176167","name":"Ghilarza","asciiname":"Ghilarza","alternatenames":"Ghilarza","latitude":"40.12119","longitude":"8.83612","feature_class":"P","feature_code":"PPLA3","country_code":"IT","cc2":"","admin1_code":"14","admin2_code":"OR","admin3_code":"095021","admin4_code":"","population":"4467","elevation":"290","dem":"292","timezone":"Europe/Rome","modification_date":"2014-04-13"},{"geonameid":"3176170","name":"Ghiffa","asciiname":"Ghiffa","alternatenames":"Ghiffa,giffa,ギッファ","latitude":"45.95298","longitude":"8.6043","feature_class":"P","feature_code":"PPLA3","country_code":"IT","cc2":"","admin1_code":"12","admin2_code":"VB","admin3_code":"103033","admin4_code":"","population":"2241","elevation":"262","dem":"335","timezone":"Europe/Rome","modification_date":"2014-04-13"},{"geonameid":"3176176","name":"Ghemme","asciiname":"Ghemme","alternatenames":"","latitude":"45.59863","longitude":"8.42013","feature_class":"P","feature_code":"PPLA3","country_code":"IT","cc2":"","admin1_code":"12","admin2_code":"NO","admin3_code":"003073","admin4_code":"","population":"3499","elevation":"241","dem":"245","timezone":"Europe/Rome","modification_date":"2014-04-13"},{"geonameid":"3176177","name":"Ghedi","asciiname":"Ghedi","alternatenames":"Gedi,Ghedi,gedi,Геди,ゲーディ","latitude":"45.40204","longitude":"10.27681","feature_class":"P","feature_code":"PPLA3","country_code":"IT","cc2":"","admin1_code":"09","admin2_code":"BS","admin3_code":"017078","admin4_code":"","population":"16351","elevation":"85","dem":"85","timezone":"Europe/Rome","modification_date":"2015-07-20"},{"geonameid":"3176178","name":"Gesualdo","asciiname":"Gesualdo","alternatenames":"Dzezualdo,Dzhezual'do,Dzhezualdo,Gesualdo,Gesualdu,Iesualdum,Jezualdo,jesualdo,jezuarudo,Џезуалдо,Джезуалдо,Джезуальдо,Ջեզուալդո,ジェズアルド,제수알도","latitude":"41.00554","longitude":"15.07262","feature_class":"P","feature_code":"PPLA3","country_code":"IT","cc2":"","admin1_code":"04","admin2_code":"AV","admin3_code":"064036","admin4_code":"","population":"2004","elevation":"676","dem":"683","timezone":"Europe/Rome","modification_date":"2014-04-13"},{"geonameid":"3176179","name":"Gessopalena","asciiname":"Gessopalena","alternatenames":"Gessopalena","latitude":"42.05521","longitude":"14.27367","feature_class":"P","feature_code":"PPLA3","country_code":"IT","cc2":"","admin1_code":"01","admin2_code":"CH","admin3_code":"069040","admin4_code":"","population":"1013","elevation":"644","dem":"648","timezone":"Europe/Rome","modification_date":"2014-04-13"},{"geonameid":"3176185","name":"Quartiano","asciiname":"Quartiano","alternatenames":"","latitude":"45.358","longitude":"9.4176","feature_class":"P","feature_code":"PPL","country_code":"IT","cc2":"","admin1_code":"09","admin2_code":"LO","admin3_code":"098041","admin4_code":"","population":"1389","elevation":"86","dem":"87","timezone":"Europe/Rome","modification_date":"2014-01-19"},{"geonameid":"3176186","name":"Gerosa","asciiname":"Gerosa","alternatenames":"Dzhehroza,Dzheroza,Gerosa,Gerusa,Jeroza,jeroza,jie luo sa,Джероза,Джэроза,Ջերոզա,ジェローザ,杰罗萨","latitude":"45.8498","longitude":"9.57161","feature_class":"P","feature_code":"PPLA3","country_code":"IT","cc2":"","admin1_code":"09","admin2_code":"BG","admin3_code":"016112","admin4_code":"","population":"254","elevation":"760","dem":"765","timezone":"Europe/Rome","modification_date":"2014-04-13"},{"geonameid":"3176188","name":"Gerola Alta","asciiname":"Gerola Alta","alternatenames":"Gerola,Gerola Alta","latitude":"46.06003","longitude":"9.55025","feature_class":"P","feature_code":"PPLA3","country_code":"IT","cc2":"IT","admin1_code":"09","admin2_code":"SO","admin3_code":"014031","admin4_code":"","population":"152","elevation":"1050","dem":"1058","timezone":"Europe/Rome","modification_date":"2014-04-13"},{"geonameid":"3176193","name":"Germagnano","asciiname":"Germagnano","alternatenames":"Dzhehrman'jana,Dzherman'jano,Gerinagnano,Germagnan,Germagnano,Germanianum,Jermaniano,jerumanyano,jie er ma ni ya nuo,Джерманьяно,Джэрманьяна,Ջերմանիանո,ジェルマニャーノ,杰尔马尼亚诺","latitude":"45.26317","longitude":"7.46886","feature_class":"P","feature_code":"PPLA3","country_code":"IT","cc2":"","admin1_code":"12","admin2_code":"TO","admin3_code":"001113","admin4_code":"","population":"913","elevation":"485","dem":"484","timezone":"Europe/Rome","modification_date":"2014-04-13"},{"geonameid":"3176196","name":"Gerenzago","asciiname":"Gerenzago","alternatenames":"Gerenzago","latitude":"45.20633","longitude":"9.36137","feature_class":"P","feature_code":"PPLA3","country_code":"IT","cc2":"","admin1_code":"09","admin2_code":"PV","admin3_code":"018071","admin4_code":"","population":"1367","elevation":"74","dem":"72","timezone":"Europe/Rome","modification_date":"2014-04-13"},{"geonameid":"3176198","name":"Gerano","asciiname":"Gerano","alternatenames":"Gerano,jerano,ジェラーノ","latitude":"41.93474","longitude":"12.99034","feature_class":"P","feature_code":"PPLA3","country_code":"IT","cc2":"","admin1_code":"07","admin2_code":"RM","admin3_code":"058044","admin4_code":"","population":"1049","elevation":"502","dem":"411","timezone":"Europe/Rome","modification_date":"2014-04-13"},{"geonameid":"3176199","name":"Gera Lario","asciiname":"Gera Lario","alternatenames":"Gera","latitude":"46.17003","longitude":"9.36736","feature_class":"P","feature_code":"PPLA3","country_code":"IT","cc2":"IT","admin1_code":"09","admin2_code":"CO","admin3_code":"013107","admin4_code":"","population":"667","elevation":"201","dem":"224","timezone":"Europe/Rome","modification_date":"2014-04-13"},{"geonameid":"3176201","name":"Genzone","asciiname":"Genzone","alternatenames":"Genzone","latitude":"45.17962","longitude":"9.34829","feature_class":"P","feature_code":"PPLA3","country_code":"IT","cc2":"","admin1_code":"09","admin2_code":"PV","admin3_code":"018070","admin4_code":"","population":"358","elevation":"72","dem":"71","timezone":"Europe/Rome","modification_date":"2014-04-13"},{"geonameid":"3176203","name":"Genzano di Roma","asciiname":"Genzano di Roma","alternatenames":"Dzhencano-di-Roma,Genzano,Genzano di Roma,Дженцано-ди-Рома,ジェンツァーノ・ディ・ローマ","latitude":"41.70706","longitude":"12.68904","feature_class":"P","feature_code":"PPLA3","country_code":"IT","cc2":"","admin1_code":"07","admin2_code":"RM","admin3_code":"058043","admin4_code":"","population":"20582","elevation":"435","dem":"442","timezone":"Europe/Rome","modification_date":"2015-08-01"},{"geonameid":"3176204","name":"Genzano di Lucania","asciiname":"Genzano di Lucania","alternatenames":"Genzano,Genzano di Lucania","latitude":"40.84589","longitude":"16.03124","feature_class":"P","feature_code":"PPLA3","country_code":"IT","cc2":"","admin1_code":"02","admin2_code":"PZ","admin3_code":"076036","admin4_code":"","population":"5736","elevation":"587","dem":"595","timezone":"Europe/Rome","modification_date":"2014-04-13"},{"geonameid":"3176219","name":"Genoa","asciiname":"Genoa","alternatenames":"Cenova,Dzenova,Dženova,GOA,Genes,Genoa,Genova,Genovo,Genua,Genuja,Genès,Genúa,Gènova,Génova,Gênes,Janov,Xenova - Genova,Xénova - Genova,Zena,genua,jeno'a,jenoba,jenovu~a,jnwa,jnwt,re na ya,Ĝenovo,Ђенова,Генуа,Генуя,גנואה,جنوا,جنوة,जेनोआ,გენუა,ジェノヴァ,热那亚,제노바","latitude":"44.4264","longitude":"8.91519","feature_class":"P","feature_code":"PPLA","country_code":"IT","cc2":"","admin1_code":"08","admin2_code":"GE","admin3_code":"010025","admin4_code":"","population":"580223","elevation":"19","dem":"126","timezone":"Europe/Rome","modification_date":"2014-05-17"},{"geonameid":"3176220","name":"Genola","asciiname":"Genola","alternatenames":"Genola","latitude":"44.59053","longitude":"7.66114","feature_class":"P","feature_code":"PPLA3","country_code":"IT","cc2":"","admin1_code":"12","admin2_code":"CN","admin3_code":"004096","admin4_code":"","population":"2186","elevation":"345","dem":"342","timezone":"Europe/Rome","modification_date":"2014-04-13"},{"geonameid":"3176226","name":"Genivolta","asciiname":"Genivolta","alternatenames":"Genivolta","latitude":"45.33257","longitude":"9.87726","feature_class":"P","feature_code":"PPLA3","country_code":"IT","cc2":"","admin1_code":"09","admin2_code":"CR","admin3_code":"019047","admin4_code":"","population":"1065","elevation":"70","dem":"64","timezone":"Europe/Rome","modification_date":"2014-01-16"},{"geonameid":"3176228","name":"Genga","asciiname":"Genga","alternatenames":"Genga,jenga,ジェンガ","latitude":"43.43032","longitude":"12.93549","feature_class":"P","feature_code":"PPLA3","country_code":"IT","cc2":"","admin1_code":"10","admin2_code":"AN","admin3_code":"042020","admin4_code":"","population":"108","elevation":"322","dem":"303","timezone":"Europe/Rome","modification_date":"2014-04-13"},{"geonameid":"3176230","name":"Genazzano","asciiname":"Genazzano","alternatenames":"Genazzano,jenattsu~ano,ジェナッツァーノ","latitude":"41.82807","longitude":"12.97196","feature_class":"P","feature_code":"PPLA3","country_code":"IT","cc2":"","admin1_code":"07","admin2_code":"RM","admin3_code":"058042","admin4_code":"","population":"4599","elevation":"375","dem":"315","timezone":"Europe/Rome","modification_date":"2014-04-13"},{"geonameid":"3176233","name":"Gemonio","asciiname":"Gemonio","alternatenames":"","latitude":"45.87878","longitude":"8.67478","feature_class":"P","feature_code":"PPLA3","country_code":"IT","cc2":"","admin1_code":"09","admin2_code":"VA","admin3_code":"012074","admin4_code":"","population":"2661","elevation":"303","dem":"309","timezone":"Europe/Rome","modification_date":"2014-04-13"},{"geonameid":"3176234","name":"Gemona","asciiname":"Gemona","alternatenames":"Gemona,Gemona del Friuli,Glemone","latitude":"46.27405","longitude":"13.12237","feature_class":"P","feature_code":"PPLA3","country_code":"IT","cc2":"","admin1_code":"06","admin2_code":"UD","admin3_code":"030043","admin4_code":"","population":"11141","elevation":"272","dem":"190","timezone":"Europe/Rome","modification_date":"2014-04-13"},{"geonameid":"3176236","name":"Gemmano","asciiname":"Gemmano","alternatenames":"Gemmano,Germmano","latitude":"43.90393","longitude":"12.58091","feature_class":"P","feature_code":"PPLA3","country_code":"IT","cc2":"","admin1_code":"05","admin2_code":"RN","admin3_code":"099004","admin4_code":"","population":"360","elevation":"404","dem":"380","timezone":"Europe/Rome","modification_date":"2014-04-13"},{"geonameid":"3176243","name":"Gazzuolo","asciiname":"Gazzuolo","alternatenames":"Gazzuolo","latitude":"45.06238","longitude":"10.57161","feature_class":"P","feature_code":"PPLA3","country_code":"IT","cc2":"","admin1_code":"09","admin2_code":"MN","admin3_code":"020025","admin4_code":"","population":"997","elevation":"25","dem":"23","timezone":"Europe/Rome","modification_date":"2014-04-13"},{"geonameid":"3176246","name":"Gazzo","asciiname":"Gazzo","alternatenames":"","latitude":"45.58241","longitude":"11.70724","feature_class":"P","feature_code":"PPLA3","country_code":"IT","cc2":"","admin1_code":"20","admin2_code":"PD","admin3_code":"028041","admin4_code":"","population":"1191","elevation":"36","dem":"34","timezone":"Europe/Rome","modification_date":"2014-04-13"},{"geonameid":"3176247","name":"Gazzo","asciiname":"Gazzo","alternatenames":"","latitude":"45.17968","longitude":"10.89706","feature_class":"P","feature_code":"PPLA3","country_code":"IT","cc2":"","admin1_code":"09","admin2_code":"MN","admin3_code":"020004","admin4_code":"","population":"666","elevation":"23","dem":"26","timezone":"Europe/Rome","modification_date":"2014-01-16"},{"geonameid":"3176254","name":"Gazzaniga","asciiname":"Gazzaniga","alternatenames":"Gazzaniga","latitude":"45.79339","longitude":"9.82976","feature_class":"P","feature_code":"PPLA3","country_code":"IT","cc2":"","admin1_code":"09","admin2_code":"BG","admin3_code":"016111","admin4_code":"","population":"3788","elevation":"386","dem":"372","timezone":"Europe/Rome","modification_date":"2014-01-16"},{"geonameid":"3176257","name":"Gazoldo degli Ippoliti","asciiname":"Gazoldo degli Ippoliti","alternatenames":"Gazoldo,Gazoldo degli Ippoliti,Gazzoldo d'Ippoliti","latitude":"45.19999","longitude":"10.57839","feature_class":"P","feature_code":"PPLA3","country_code":"IT","cc2":"","admin1_code":"09","admin2_code":"MN","admin3_code":"020024","admin4_code":"","population":"2738","elevation":"35","dem":"36","timezone":"Europe/Rome","modification_date":"2014-04-13"},{"geonameid":"3176259","name":"Gavorrano","asciiname":"Gavorrano","alternatenames":"Gavorrano","latitude":"42.92526","longitude":"10.90681","feature_class":"P","feature_code":"PPLA3","country_code":"IT","cc2":"","admin1_code":"16","admin2_code":"GR","admin3_code":"053010","admin4_code":"","population":"742","elevation":"273","dem":"262","timezone":"Europe/Rome","modification_date":"2014-01-11"},{"geonameid":"3176260","name":"Gavoi","asciiname":"Gavoi","alternatenames":"Gavoi","latitude":"40.1613","longitude":"9.19462","feature_class":"P","feature_code":"PPLA3","country_code":"IT","cc2":"","admin1_code":"14","admin2_code":"NU","admin3_code":"091028","admin4_code":"","population":"2733","elevation":"790","dem":"770","timezone":"Europe/Rome","modification_date":"2014-04-13"},{"geonameid":"3176261","name":"Gavirate","asciiname":"Gavirate","alternatenames":"","latitude":"45.83707","longitude":"8.72619","feature_class":"P","feature_code":"PPLA3","country_code":"IT","cc2":"","admin1_code":"09","admin2_code":"VA","admin3_code":"012072","admin4_code":"","population":"9206","elevation":"261","dem":"242","timezone":"Europe/Rome","modification_date":"2014-04-13"},{"geonameid":"3176266","name":"Gavignano","asciiname":"Gavignano","alternatenames":"Gavignano,gavu~inyano,ガヴィニャーノ","latitude":"41.69891","longitude":"13.05032","feature_class":"P","feature_code":"PPLA3","country_code":"IT","cc2":"","admin1_code":"07","admin2_code":"RM","admin3_code":"058041","admin4_code":"","population":"815","elevation":"404","dem":"377","timezone":"Europe/Rome","modification_date":"2014-04-13"},{"geonameid":"3176269","name":"Gavi","asciiname":"Gavi","alternatenames":"Gavi,gavu~i,ガーヴィ","latitude":"44.68627","longitude":"8.80717","feature_class":"P","feature_code":"PPLA3","country_code":"IT","cc2":"","admin1_code":"12","admin2_code":"AL","admin3_code":"006081","admin4_code":"","population":"2317","elevation":"233","dem":"220","timezone":"Europe/Rome","modification_date":"2014-04-13"},{"geonameid":"3176272","name":"Gavello","asciiname":"Gavello","alternatenames":"Gavello","latitude":"45.02469","longitude":"11.91368","feature_class":"P","feature_code":"PPLA3","country_code":"IT","cc2":"","admin1_code":"20","admin2_code":"RO","admin3_code":"029026","admin4_code":"","population":"966","elevation":"4","dem":"0","timezone":"Europe/Rome","modification_date":"2014-04-13"},{"geonameid":"3176277","name":"Gavardo-Sopraponte","asciiname":"Gavardo-Sopraponte","alternatenames":"Gavardo,gavu~arudo,ガヴァルド","latitude":"45.58939","longitude":"10.44257","feature_class":"P","feature_code":"PPLA3","country_code":"IT","cc2":"","admin1_code":"09","admin2_code":"BS","admin3_code":"017077","admin4_code":"","population":"8323","elevation":"","dem":"204","timezone":"Europe/Rome","modification_date":"2014-05-01"},{"geonameid":"3176282","name":"Gattinara","asciiname":"Gattinara","alternatenames":"Gacinara,Gatinaria,Gatinera,Gatinèra,Gattinara,gattinara,jia di na la,Гаттинара,Гаттінара,Гацінара,ガッティナーラ,加蒂纳拉","latitude":"45.61309","longitude":"8.36463","feature_class":"P","feature_code":"PPLA3","country_code":"IT","cc2":"","admin1_code":"12","admin2_code":"VC","admin3_code":"002061","admin4_code":"","population":"8001","elevation":"263","dem":"264","timezone":"Europe/Rome","modification_date":"2014-04-13"},{"geonameid":"3176285","name":"Gassino Torinese","asciiname":"Gassino Torinese","alternatenames":"Gassino,Gassino Torinese,Gasso,Gássino,ガッシーノ・トリネーゼ","latitude":"45.12907","longitude":"7.82934","feature_class":"P","feature_code":"PPLA3","country_code":"IT","cc2":"","admin1_code":"12","admin2_code":"TO","admin3_code":"001112","admin4_code":"","population":"8211","elevation":"230","dem":"207","timezone":"Europe/Rome","modification_date":"2014-04-13"},{"geonameid":"3176287","name":"Garzeno","asciiname":"Garzeno","alternatenames":"","latitude":"46.13409","longitude":"9.24964","feature_class":"P","feature_code":"PPLA3","country_code":"IT","cc2":"","admin1_code":"09","admin2_code":"CO","admin3_code":"013106","admin4_code":"","population":"658","elevation":"662","dem":"646","timezone":"Europe/Rome","modification_date":"2014-01-16"},{"geonameid":"3176297","name":"Garlenda","asciiname":"Garlenda","alternatenames":"Garlenda","latitude":"44.03325","longitude":"8.09546","feature_class":"P","feature_code":"PPLA3","country_code":"IT","cc2":"","admin1_code":"08","admin2_code":"SV","admin3_code":"009030","admin4_code":"","population":"957","elevation":"","dem":"64","timezone":"Europe/Rome","modification_date":"2012-02-15"},{"geonameid":"3176299","name":"Garlasco","asciiname":"Garlasco","alternatenames":"Garlasch,Garlasco,Garlascum,Garlasko,garurasuko,gharlaskw,jia er la si ke,Гарласко,Գարլասկո,غارلاسكو,ガルラスコ,加尔拉斯科","latitude":"45.1954","longitude":"8.92314","feature_class":"P","feature_code":"PPLA3","country_code":"IT","cc2":"","admin1_code":"09","admin2_code":"PV","admin3_code":"018069","admin4_code":"","population":"8607","elevation":"93","dem":"95","timezone":"Europe/Rome","modification_date":"2014-04-13"},{"geonameid":"3176304","name":"Gargnano","asciiname":"Gargnano","alternatenames":"Gargnano,garunyano,ガルニャーノ","latitude":"45.68586","longitude":"10.65869","feature_class":"P","feature_code":"PPLA3","country_code":"IT","cc2":"","admin1_code":"09","admin2_code":"BS","admin3_code":"017076","admin4_code":"","population":"2221","elevation":"66","dem":"107","timezone":"Europe/Rome","modification_date":"2014-04-13"},{"geonameid":"3176305","name":"Gargazzone","asciiname":"Gargazzone","alternatenames":"Gargaccone,Gargacconeh,Gargacone,Gargazon,Gargazzone,Gargezanum,garugattsu~one,jia er jia zuo nei,Гаргацоне,Гаргаццоне,Гаргаццонэ,Գարգացոնե,ガルガッツォーネ,加尔加佐内","latitude":"46.58456","longitude":"11.20156","feature_class":"P","feature_code":"PPLA3","country_code":"IT","cc2":"","admin1_code":"17","admin2_code":"BZ","admin3_code":"021035","admin4_code":"","population":"1441","elevation":"267","dem":"266","timezone":"Europe/Rome","modification_date":"2014-04-13"},{"geonameid":"3176309","name":"Garessio","asciiname":"Garessio","alternatenames":"Garessio","latitude":"44.20705","longitude":"8.01778","feature_class":"P","feature_code":"PPLA3","country_code":"IT","cc2":"","admin1_code":"12","admin2_code":"CN","admin3_code":"004095","admin4_code":"","population":"2612","elevation":"621","dem":"578","timezone":"Europe/Rome","modification_date":"2014-04-13"},{"geonameid":"3176311","name":"Gardone Val Trompia","asciiname":"Gardone Val Trompia","alternatenames":"Gardone Val Trompia,ガルドーネ・ヴァル・トロンピア","latitude":"45.69137","longitude":"10.18635","feature_class":"P","feature_code":"PPLA3","country_code":"IT","cc2":"","admin1_code":"09","admin2_code":"BS","admin3_code":"017075","admin4_code":"","population":"10113","elevation":"332","dem":"324","timezone":"Europe/Rome","modification_date":"2014-04-13"},{"geonameid":"3176312","name":"Gardone Riviera","asciiname":"Gardone Riviera","alternatenames":"Gardone Riviera,ガルドーネ・リヴィエーラ","latitude":"45.62396","longitude":"10.56682","feature_class":"P","feature_code":"PPLA3","country_code":"IT","cc2":"","admin1_code":"09","admin2_code":"BS","admin3_code":"017074","admin4_code":"","population":"2059","elevation":"71","dem":"120","timezone":"Europe/Rome","modification_date":"2014-04-13"},{"geonameid":"3176320","name":"Garda","asciiname":"Garda","alternatenames":"Garda,garuda,Гарда,ガルダ","latitude":"45.57889","longitude":"10.71763","feature_class":"P","feature_code":"PPLA3","country_code":"IT","cc2":"","admin1_code":"20","admin2_code":"VR","admin3_code":"023036","admin4_code":"","population":"3611","elevation":"67","dem":"92","timezone":"Europe/Rome","modification_date":"2014-04-13"},{"geonameid":"3176322","name":"Garbagnate Milanese","asciiname":"Garbagnate Milanese","alternatenames":"Garbagnate Milanese,ガルバニャーテ・ミラネーゼ","latitude":"45.57438","longitude":"9.07537","feature_class":"P","feature_code":"PPLA3","country_code":"IT","cc2":"","admin1_code":"09","admin2_code":"MI","admin3_code":"015105","admin4_code":"","population":"25974","elevation":"179","dem":"179","timezone":"Europe/Rome","modification_date":"2014-04-13"},{"geonameid":"3176324","name":"Garaguso","asciiname":"Garaguso","alternatenames":"Garaguso","latitude":"40.54866","longitude":"16.22827","feature_class":"P","feature_code":"PPLA3","country_code":"IT","cc2":"","admin1_code":"02","admin2_code":"MT","admin3_code":"077009","admin4_code":"","population":"951","elevation":"492","dem":"484","timezone":"Europe/Rome","modification_date":"2014-04-13"},{"geonameid":"3176326","name":"Garadassi","asciiname":"Garadassi","alternatenames":"Brintazzi","latitude":"44.75429","longitude":"9.15393","feature_class":"P","feature_code":"PPLA3","country_code":"IT","cc2":"IT","admin1_code":"12","admin2_code":"AL","admin3_code":"006067","admin4_code":"","population":"29","elevation":"712","dem":"712","timezone":"Europe/Rome","modification_date":"2014-01-19"},{"geonameid":"3176328","name":"Ganna","asciiname":"Ganna","alternatenames":"","latitude":"45.90212","longitude":"8.82606","feature_class":"P","feature_code":"PPLA3","country_code":"IT","cc2":"","admin1_code":"09","admin2_code":"VA","admin3_code":"012131","admin4_code":"","population":"661","elevation":"460","dem":"468","timezone":"Europe/Rome","modification_date":"2014-05-20"},{"geonameid":"3176330","name":"Gandino","asciiname":"Gandino","alternatenames":"Gandino","latitude":"45.81088","longitude":"9.89767","feature_class":"P","feature_code":"PPLA3","country_code":"IT","cc2":"","admin1_code":"09","admin2_code":"BG","admin3_code":"016108","admin4_code":"","population":"5541","elevation":"552","dem":"530","timezone":"Europe/Rome","modification_date":"2014-04-13"},{"geonameid":"3176331","name":"Ganda","asciiname":"Ganda","alternatenames":"Enetal,Ganda,Ganda in Val Martello,Granda di Martello,Martell,Martello,maruterro,マルテッロ","latitude":"46.55459","longitude":"10.78042","feature_class":"P","feature_code":"PPLA3","country_code":"IT","cc2":"","admin1_code":"17","admin2_code":"BZ","admin3_code":"021049","admin4_code":"","population":"183","elevation":"1265","dem":"1268","timezone":"Europe/Rome","modification_date":"2014-04-13"},{"geonameid":"3176333","name":"Gambolò","asciiname":"Gambolo","alternatenames":"Gambolo,Gambolò","latitude":"45.26209","longitude":"8.8582","feature_class":"P","feature_code":"PPLA3","country_code":"IT","cc2":"","admin1_code":"09","admin2_code":"PV","admin3_code":"018068","admin4_code":"","population":"7939","elevation":"106","dem":"104","timezone":"Europe/Rome","modification_date":"2014-04-13"},{"geonameid":"3176334","name":"Gambettola","asciiname":"Gambettola","alternatenames":"Gambettola","latitude":"44.11748","longitude":"12.33705","feature_class":"P","feature_code":"PPLA3","country_code":"IT","cc2":"","admin1_code":"05","admin2_code":"FC","admin3_code":"040015","admin4_code":"","population":"10034","elevation":"31","dem":"28","timezone":"Europe/Rome","modification_date":"2014-01-11"},{"geonameid":"3176335","name":"Gamberale","asciiname":"Gamberale","alternatenames":"Gamberale","latitude":"41.90529","longitude":"14.20845","feature_class":"P","feature_code":"PPLA3","country_code":"IT","cc2":"","admin1_code":"01","admin2_code":"CH","admin3_code":"069039","admin4_code":"","population":"112","elevation":"1343","dem":"1318","timezone":"Europe/Rome","modification_date":"2014-01-19"},{"geonameid":"3176338","name":"Gambatesa","asciiname":"Gambatesa","alternatenames":"Gambalesa,Gambatesa","latitude":"41.50861","longitude":"14.9124","feature_class":"P","feature_code":"PPLA3","country_code":"IT","cc2":"","admin1_code":"11","admin2_code":"CB","admin3_code":"070025","admin4_code":"","population":"1241","elevation":"468","dem":"477","timezone":"Europe/Rome","modification_date":"2014-04-13"},{"geonameid":"3176339","name":"Gambassi Terme","asciiname":"Gambassi Terme","alternatenames":"","latitude":"43.53576","longitude":"10.95161","feature_class":"P","feature_code":"PPLA3","country_code":"IT","cc2":"","admin1_code":"16","admin2_code":"FI","admin3_code":"048020","admin4_code":"","population":"2061","elevation":"332","dem":"359","timezone":"Europe/Rome","modification_date":"2014-04-13"},{"geonameid":"3176340","name":"Gambasca","asciiname":"Gambasca","alternatenames":"Gambasca","latitude":"44.6295","longitude":"7.34686","feature_class":"P","feature_code":"PPLA3","country_code":"IT","cc2":"","admin1_code":"12","admin2_code":"CN","admin3_code":"004094","admin4_code":"","population":"147","elevation":"478","dem":"490","timezone":"Europe/Rome","modification_date":"2014-04-13"},{"geonameid":"3176342","name":"Gambarana","asciiname":"Gambarana","alternatenames":"Gambarana","latitude":"45.02874","longitude":"8.76282","feature_class":"P","feature_code":"PPLA3","country_code":"IT","cc2":"","admin1_code":"09","admin2_code":"PV","admin3_code":"018067","admin4_code":"","population":"195","elevation":"83","dem":"84","timezone":"Europe/Rome","modification_date":"2014-04-13"},{"geonameid":"3176343","name":"Gambara","asciiname":"Gambara","alternatenames":"Gambara,ganbara,ガンバラ","latitude":"45.25366","longitude":"10.29434","feature_class":"P","feature_code":"PPLA3","country_code":"IT","cc2":"","admin1_code":"09","admin2_code":"BS","admin3_code":"017073","admin4_code":"","population":"4099","elevation":"51","dem":"48","timezone":"Europe/Rome","modification_date":"2014-04-13"},{"geonameid":"3176344","name":"Gamalero","asciiname":"Gamalero","alternatenames":"Gamaleri,Gamalero","latitude":"44.8085","longitude":"8.54116","feature_class":"P","feature_code":"PPLA3","country_code":"IT","cc2":"","admin1_code":"12","admin2_code":"AL","admin3_code":"006078","admin4_code":"","population":"432","elevation":"142","dem":"144","timezone":"Europe/Rome","modification_date":"2014-04-13"},{"geonameid":"3176346","name":"Galzignano","asciiname":"Galzignano","alternatenames":"","latitude":"45.30798","longitude":"11.73134","feature_class":"P","feature_code":"PPLA3","country_code":"IT","cc2":"","admin1_code":"20","admin2_code":"PD","admin3_code":"028040","admin4_code":"","population":"2782","elevation":"","dem":"17","timezone":"Europe/Rome","modification_date":"2014-05-04"},{"geonameid":"3176348","name":"Galugnano","asciiname":"Galugnano","alternatenames":"","latitude":"40.25601","longitude":"18.21473","feature_class":"P","feature_code":"PPL","country_code":"IT","cc2":"","admin1_code":"13","admin2_code":"LE","admin3_code":"075069","admin4_code":"","population":"1060","elevation":"86","dem":"84","timezone":"Europe/Rome","modification_date":"2014-01-16"},{"geonameid":"3176349","name":"Galtellì","asciiname":"Galtelli","alternatenames":"Galtelli,Galtellì","latitude":"40.38451","longitude":"9.61241","feature_class":"P","feature_code":"PPLA3","country_code":"IT","cc2":"","admin1_code":"14","admin2_code":"NU","admin3_code":"091027","admin4_code":"","population":"2266","elevation":"35","dem":"19","timezone":"Europe/Rome","modification_date":"2014-04-13"},{"geonameid":"3176353","name":"Galluccio","asciiname":"Galluccio","alternatenames":"Galluccio,Galluccio vald,Gallucciu,Galluchcho,Gallutium,Galucho,gallucho,garrutcho,jia lu qiao,Галлуччо,Галучо,Գալուչո,ガッルッチョ,加卢乔,갈루초","latitude":"41.35232","longitude":"13.95372","feature_class":"P","feature_code":"PPLA3","country_code":"IT","cc2":"","admin1_code":"04","admin2_code":"CE","admin3_code":"061039","admin4_code":"","population":"52","elevation":"309","dem":"296","timezone":"Europe/Rome","modification_date":"2014-01-19"},{"geonameid":"3176359","name":"Gallo","asciiname":"Gallo","alternatenames":"","latitude":"44.73144","longitude":"11.55284","feature_class":"P","feature_code":"PPL","country_code":"IT","cc2":"","admin1_code":"05","admin2_code":"FE","admin3_code":"038018","admin4_code":"","population":"1680","elevation":"10","dem":"11","timezone":"Europe/Rome","modification_date":"2014-04-13"},{"geonameid":"3176363","name":"Gallo Matese","asciiname":"Gallo Matese","alternatenames":"","latitude":"41.46452","longitude":"14.22502","feature_class":"P","feature_code":"PPLA3","country_code":"IT","cc2":"","admin1_code":"04","admin2_code":"CE","admin3_code":"061038","admin4_code":"","population":"761","elevation":"","dem":"854","timezone":"Europe/Rome","modification_date":"2012-03-09"},{"geonameid":"3176366","name":"Gallipoli","asciiname":"Gallipoli","alternatenames":"Gallipoli,Kaddhipuli,Галлиполи","latitude":"40.05594","longitude":"17.99088","feature_class":"P","feature_code":"PPLA3","country_code":"IT","cc2":"","admin1_code":"13","admin2_code":"LE","admin3_code":"075031","admin4_code":"","population":"19176","elevation":"12","dem":"16","timezone":"Europe/Rome","modification_date":"2015-07-23"},{"geonameid":"3176367","name":"Gallio","asciiname":"Gallio","alternatenames":"Galeum,Galio,Gallio,Gałio,garrio,jia liao,Галлио,Галліо,Գալիո,ガッリオ,加廖","latitude":"45.88506","longitude":"11.53417","feature_class":"P","feature_code":"PPLA3","country_code":"IT","cc2":"","admin1_code":"20","admin2_code":"VI","admin3_code":"024042","admin4_code":"","population":"1460","elevation":"1090","dem":"1065","timezone":"Europe/Rome","modification_date":"2014-04-13"},{"geonameid":"3176369","name":"Gallinaro","asciiname":"Gallinaro","alternatenames":"Gallinaro","latitude":"41.65502","longitude":"13.79799","feature_class":"P","feature_code":"PPLA3","country_code":"IT","cc2":"","admin1_code":"07","admin2_code":"FR","admin3_code":"060040","admin4_code":"","population":"231","elevation":"558","dem":"524","timezone":"Europe/Rome","modification_date":"2014-01-19"},{"geonameid":"3176373","name":"Galliera Veneta","asciiname":"Galliera Veneta","alternatenames":"Galliera Veneta","latitude":"45.6675","longitude":"11.82217","feature_class":"P","feature_code":"PPLA3","country_code":"IT","cc2":"","admin1_code":"20","admin2_code":"PD","admin3_code":"028039","admin4_code":"","population":"6729","elevation":"49","dem":"53","timezone":"Europe/Rome","modification_date":"2014-04-13"},{"geonameid":"3176376","name":"Gallicchio","asciiname":"Gallicchio","alternatenames":"Gallicchio","latitude":"40.29232","longitude":"16.13561","feature_class":"P","feature_code":"PPLA3","country_code":"IT","cc2":"","admin1_code":"02","admin2_code":"PZ","admin3_code":"076035","admin4_code":"","population":"829","elevation":"730","dem":"764","timezone":"Europe/Rome","modification_date":"2014-04-13"},{"geonameid":"3176377","name":"Gallicano nel Lazio","asciiname":"Gallicano nel Lazio","alternatenames":"Gallicano nel Lazio,ガッリカーノ・ネル・ラーツィオ","latitude":"41.86433","longitude":"12.83543","feature_class":"P","feature_code":"PPLA3","country_code":"IT","cc2":"","admin1_code":"07","admin2_code":"RM","admin3_code":"058040","admin4_code":"","population":"3776","elevation":"214","dem":"304","timezone":"Europe/Rome","modification_date":"2014-04-13"},{"geonameid":"3176378","name":"Gallicano","asciiname":"Gallicano","alternatenames":"Gallicano","latitude":"44.05833","longitude":"10.44209","feature_class":"P","feature_code":"PPLA3","country_code":"IT","cc2":"","admin1_code":"16","admin2_code":"LU","admin3_code":"046015","admin4_code":"","population":"2556","elevation":"186","dem":"181","timezone":"Europe/Rome","modification_date":"2014-04-13"},{"geonameid":"3176379","name":"Galliate","asciiname":"Galliate","alternatenames":"Galliate","latitude":"45.47942","longitude":"8.69815","feature_class":"P","feature_code":"PPLA3","country_code":"IT","cc2":"","admin1_code":"12","admin2_code":"NO","admin3_code":"003068","admin4_code":"","population":"14649","elevation":"153","dem":"156","timezone":"Europe/Rome","modification_date":"2014-04-13"},{"geonameid":"3176384","name":"Gallese","asciiname":"Gallese","alternatenames":"Gallese","latitude":"42.37376","longitude":"12.39646","feature_class":"P","feature_code":"PPLA3","country_code":"IT","cc2":"","admin1_code":"07","admin2_code":"VT","admin3_code":"056027","admin4_code":"","population":"1542","elevation":"135","dem":"149","timezone":"Europe/Rome","modification_date":"2014-04-13"},{"geonameid":"3176391","name":"Gallarate","asciiname":"Gallarate","alternatenames":"Gallarate,Галларате","latitude":"45.66019","longitude":"8.79164","feature_class":"P","feature_code":"PPLA3","country_code":"IT","cc2":"","admin1_code":"09","admin2_code":"VA","admin3_code":"012070","admin4_code":"","population":"50439","elevation":"238","dem":"245","timezone":"Europe/Rome","modification_date":"2014-01-16"},{"geonameid":"3176400","name":"Galeata","asciiname":"Galeata","alternatenames":"Galeata,gareata,ガレアータ","latitude":"43.99607","longitude":"11.91057","feature_class":"P","feature_code":"PPLA3","country_code":"IT","cc2":"","admin1_code":"05","admin2_code":"FC","admin3_code":"040014","admin4_code":"","population":"2090","elevation":"237","dem":"235","timezone":"Europe/Rome","modification_date":"2014-04-13"},{"geonameid":"3176405","name":"Galbiate","asciiname":"Galbiate","alternatenames":"Galbiate","latitude":"45.81635","longitude":"9.37902","feature_class":"P","feature_code":"PPLA3","country_code":"IT","cc2":"","admin1_code":"09","admin2_code":"LC","admin3_code":"097036","admin4_code":"","population":"4513","elevation":"371","dem":"362","timezone":"Europe/Rome","modification_date":"2014-04-13"},{"geonameid":"3176406","name":"Galatone","asciiname":"Galatone","alternatenames":"Galatone","latitude":"40.14673","longitude":"18.06937","feature_class":"P","feature_code":"PPLA3","country_code":"IT","cc2":"","admin1_code":"13","admin2_code":"LE","admin3_code":"075030","admin4_code":"","population":"14153","elevation":"60","dem":"60","timezone":"Europe/Rome","modification_date":"2014-04-13"},{"geonameid":"3176407","name":"Galatina","asciiname":"Galatina","alternatenames":"Aspedro,Galatina","latitude":"40.17416","longitude":"18.17032","feature_class":"P","feature_code":"PPLA3","country_code":"IT","cc2":"","admin1_code":"13","admin2_code":"LE","admin3_code":"075029","admin4_code":"","population":"19569","elevation":"75","dem":"83","timezone":"Europe/Rome","modification_date":"2014-04-13"},{"geonameid":"3176410","name":"Gais","asciiname":"Gais","alternatenames":"Cais,Gais,gaisu,ガイス","latitude":"46.83658","longitude":"11.94931","feature_class":"P","feature_code":"PPLA3","country_code":"IT","cc2":"","admin1_code":"17","admin2_code":"BZ","admin3_code":"021034","admin4_code":"","population":"1764","elevation":"841","dem":"837","timezone":"Europe/Rome","modification_date":"2014-04-13"},{"geonameid":"3176411","name":"Gaiole in Chianti","asciiname":"Gaiole in Chianti","alternatenames":"Gaiole in Chianti,ガイオーレ・イン・キアンティ","latitude":"43.46697","longitude":"11.43386","feature_class":"P","feature_code":"PPLA3","country_code":"IT","cc2":"","admin1_code":"16","admin2_code":"SI","admin3_code":"052013","admin4_code":"","population":"1122","elevation":"360","dem":"351","timezone":"Europe/Rome","modification_date":"2014-04-13"},{"geonameid":"3176412","name":"Gaiola","asciiname":"Gaiola","alternatenames":"Gaiola,Gajola","latitude":"44.33554","longitude":"7.40896","feature_class":"P","feature_code":"PPLA3","country_code":"IT","cc2":"","admin1_code":"12","admin2_code":"CN","admin3_code":"004093","admin4_code":"","population":"490","elevation":"692","dem":"693","timezone":"Europe/Rome","modification_date":"2014-04-13"},{"geonameid":"3176416","name":"Gaibanella-Sant'Edigio","asciiname":"Gaibanella-Sant'Edigio","alternatenames":"","latitude":"44.76667","longitude":"11.65","feature_class":"P","feature_code":"PPL","country_code":"IT","cc2":"","admin1_code":"05","admin2_code":"FE","admin3_code":"038008","admin4_code":"","population":"1038","elevation":"","dem":"7","timezone":"Europe/Rome","modification_date":"2014-05-10"},{"geonameid":"3176418","name":"Gaiba","asciiname":"Gaiba","alternatenames":"Gaiba","latitude":"44.94573","longitude":"11.48087","feature_class":"P","feature_code":"PPLA3","country_code":"IT","cc2":"","admin1_code":"20","admin2_code":"RO","admin3_code":"029025","admin4_code":"","population":"779","elevation":"9","dem":"8","timezone":"Europe/Rome","modification_date":"2014-04-13"},{"geonameid":"3176420","name":"Gaiarine","asciiname":"Gaiarine","alternatenames":"Gaiarine","latitude":"45.88083","longitude":"12.48142","feature_class":"P","feature_code":"PPLA3","country_code":"IT","cc2":"","admin1_code":"20","admin2_code":"TV","admin3_code":"026031","admin4_code":"","population":"1892","elevation":"20","dem":"19","timezone":"Europe/Rome","modification_date":"2014-04-13"},{"geonameid":"3176426","name":"Gagliole","asciiname":"Gagliole","alternatenames":"Gagliole","latitude":"43.23812","longitude":"13.06782","feature_class":"P","feature_code":"PPLA3","country_code":"IT","cc2":"","admin1_code":"10","admin2_code":"MC","admin3_code":"043020","admin4_code":"","population":"130","elevation":"484","dem":"479","timezone":"Europe/Rome","modification_date":"2014-04-13"},{"geonameid":"3176428","name":"Gagliano Aterno","asciiname":"Gagliano Aterno","alternatenames":"Gagliano Aterno","latitude":"42.12598","longitude":"13.70023","feature_class":"P","feature_code":"PPLA3","country_code":"IT","cc2":"","admin1_code":"01","admin2_code":"AQ","admin3_code":"066045","admin4_code":"","population":"255","elevation":"650","dem":"654","timezone":"Europe/Rome","modification_date":"2014-04-13"},{"geonameid":"3176430","name":"Galliano","asciiname":"Galliano","alternatenames":"Gagliano,Galliano","latitude":"44.01725","longitude":"11.29353","feature_class":"P","feature_code":"PPL","country_code":"IT","cc2":"IT","admin1_code":"16","admin2_code":"FI","admin3_code":"048002","admin4_code":"","population":"1041","elevation":"295","dem":"301","timezone":"Europe/Rome","modification_date":"2014-04-13"},{"geonameid":"3176432","name":"Gaglianico","asciiname":"Gaglianico","alternatenames":"Gaglianico","latitude":"45.53718","longitude":"8.07839","feature_class":"P","feature_code":"PPLA3","country_code":"IT","cc2":"","admin1_code":"12","admin2_code":"BI","admin3_code":"096026","admin4_code":"","population":"3549","elevation":"353","dem":"347","timezone":"Europe/Rome","modification_date":"2014-04-13"},{"geonameid":"3176433","name":"Gaggio Montano","asciiname":"Gaggio Montano","alternatenames":"Gaggio Montano","latitude":"44.19583","longitude":"10.93518","feature_class":"P","feature_code":"PPLA3","country_code":"IT","cc2":"","admin1_code":"05","admin2_code":"BO","admin3_code":"037027","admin4_code":"","population":"1407","elevation":"620","dem":"604","timezone":"Europe/Rome","modification_date":"2014-04-13"},{"geonameid":"3176435","name":"Gaggio","asciiname":"Gaggio","alternatenames":"","latitude":"44.63458","longitude":"11.01334","feature_class":"P","feature_code":"PPL","country_code":"IT","cc2":"","admin1_code":"05","admin2_code":"MO","admin3_code":"036006","admin4_code":"","population":"1280","elevation":"35","dem":"35","timezone":"Europe/Rome","modification_date":"2014-04-13"},{"geonameid":"3176436","name":"Gaggiano","asciiname":"Gaggiano","alternatenames":"Gaggiano,Oaggiano,gajjano,ガッジャーノ","latitude":"45.40484","longitude":"9.03488","feature_class":"P","feature_code":"PPLA3","country_code":"IT","cc2":"","admin1_code":"09","admin2_code":"MI","admin3_code":"015103","admin4_code":"","population":"6851","elevation":"117","dem":"115","timezone":"Europe/Rome","modification_date":"2014-01-16"},{"geonameid":"3176438","name":"Gaeta","asciiname":"Gaeta","alternatenames":"Gaeta,Gaete,Gaieta,Gaète,gaeta,Гаета,ガエータ","latitude":"41.21408","longitude":"13.57082","feature_class":"P","feature_code":"PPLA3","country_code":"IT","cc2":"","admin1_code":"07","admin2_code":"LT","admin3_code":"059009","admin4_code":"","population":"19936","elevation":"2","dem":"9","timezone":"Europe/Rome","modification_date":"2014-01-16"},{"geonameid":"3176441","name":"Gaby","asciiname":"Gaby","alternatenames":"Gaby","latitude":"45.713","longitude":"7.88224","feature_class":"P","feature_code":"PPLA3","country_code":"IT","cc2":"","admin1_code":"19","admin2_code":"AO","admin3_code":"007029","admin4_code":"","population":"377","elevation":"1047","dem":"1054","timezone":"Europe/Rome","modification_date":"2014-04-13"},{"geonameid":"3176444","name":"Gabicce Mare","asciiname":"Gabicce Mare","alternatenames":"","latitude":"43.96471","longitude":"12.75641","feature_class":"P","feature_code":"PPLA3","country_code":"IT","cc2":"","admin1_code":"10","admin2_code":"PU","admin3_code":"041019","admin4_code":"","population":"4413","elevation":"11","dem":"15","timezone":"Europe/Rome","modification_date":"2014-01-11"},{"geonameid":"3176445","name":"Gabiano","asciiname":"Gabiano","alternatenames":"Gabian,Gabiano","latitude":"45.15714","longitude":"8.19469","feature_class":"P","feature_code":"PPLA3","country_code":"IT","cc2":"","admin1_code":"12","admin2_code":"AL","admin3_code":"006077","admin4_code":"","population":"337","elevation":"300","dem":"281","timezone":"Europe/Rome","modification_date":"2014-04-13"},{"geonameid":"3176456","name":"Futani","asciiname":"Futani","alternatenames":"Futani","latitude":"40.15156","longitude":"15.32366","feature_class":"P","feature_code":"PPLA3","country_code":"IT","cc2":"","admin1_code":"04","admin2_code":"SA","admin3_code":"065054","admin4_code":"","population":"889","elevation":"431","dem":"445","timezone":"Europe/Rome","modification_date":"2014-04-13"},{"geonameid":"3176463","name":"Fusine","asciiname":"Fusine","alternatenames":"","latitude":"46.37589","longitude":"12.12547","feature_class":"P","feature_code":"PPLA3","country_code":"IT","cc2":"","admin1_code":"20","admin2_code":"BL","admin3_code":"025068","admin4_code":"","population":"255","elevation":"1177","dem":"1196","timezone":"Europe/Rome","modification_date":"2014-01-19"},{"geonameid":"3176464","name":"Fusine","asciiname":"Fusine","alternatenames":"","latitude":"46.14949","longitude":"9.74975","feature_class":"P","feature_code":"PPLA3","country_code":"IT","cc2":"","admin1_code":"09","admin2_code":"SO","admin3_code":"014030","admin4_code":"","population":"577","elevation":"285","dem":"293","timezone":"Europe/Rome","modification_date":"2014-01-16"},{"geonameid":"3176467","name":"Fusignano","asciiname":"Fusignano","alternatenames":"Fusignano,fujinyano,フジニャーノ","latitude":"44.46656","longitude":"11.95636","feature_class":"P","feature_code":"PPLA3","country_code":"IT","cc2":"","admin1_code":"05","admin2_code":"RA","admin3_code":"039011","admin4_code":"","population":"6178","elevation":"9","dem":"6","timezone":"Europe/Rome","modification_date":"2014-04-13"},{"geonameid":"3176472","name":"Furore","asciiname":"Furore","alternatenames":"Furore,Фуроре","latitude":"40.62061","longitude":"14.54904","feature_class":"P","feature_code":"PPLA3","country_code":"IT","cc2":"IT","admin1_code":"04","admin2_code":"SA","admin3_code":"065053","admin4_code":"","population":"810","elevation":"","dem":"521","timezone":"Europe/Rome","modification_date":"2012-02-15"},{"geonameid":"3176474","name":"Furci","asciiname":"Furci","alternatenames":"Furci","latitude":"42.00746","longitude":"14.58802","feature_class":"P","feature_code":"PPLA3","country_code":"IT","cc2":"","admin1_code":"01","admin2_code":"CH","admin3_code":"069038","admin4_code":"","population":"916","elevation":"550","dem":"552","timezone":"Europe/Rome","modification_date":"2014-04-13"},{"geonameid":"3176486","name":"Fumone","asciiname":"Fumone","alternatenames":"Fumone","latitude":"41.73461","longitude":"13.27015","feature_class":"P","feature_code":"PPLA3","country_code":"IT","cc2":"","admin1_code":"07","admin2_code":"FR","admin3_code":"060039","admin4_code":"","population":"1342","elevation":"783","dem":"679","timezone":"Europe/Rome","modification_date":"2014-04-13"},{"geonameid":"3176489","name":"Fumane","asciiname":"Fumane","alternatenames":"","latitude":"45.5416","longitude":"10.88548","feature_class":"P","feature_code":"PPLA3","country_code":"IT","cc2":"","admin1_code":"20","admin2_code":"VR","admin3_code":"023035","admin4_code":"","population":"2557","elevation":"198","dem":"181","timezone":"Europe/Rome","modification_date":"2014-04-13"},{"geonameid":"3176504","name":"Fucecchio","asciiname":"Fucecchio","alternatenames":"Fucecchio,Fuchekkio,Фучеккио","latitude":"43.73292","longitude":"10.79749","feature_class":"P","feature_code":"PPLA3","country_code":"IT","cc2":"","admin1_code":"16","admin2_code":"FI","admin3_code":"048019","admin4_code":"","population":"14479","elevation":"25","dem":"18","timezone":"Europe/Rome","modification_date":"2014-04-13"},{"geonameid":"3176505","name":"Fubine","asciiname":"Fubine","alternatenames":"Fubin-i,Fubine","latitude":"44.96305","longitude":"8.42814","feature_class":"P","feature_code":"PPLA3","country_code":"IT","cc2":"","admin1_code":"12","admin2_code":"AL","admin3_code":"006076","admin4_code":"","population":"1231","elevation":"192","dem":"161","timezone":"Europe/Rome","modification_date":"2014-04-13"},{"geonameid":"3176510","name":"Frugarolo","asciiname":"Frugarolo","alternatenames":"Frugarolo,furugaroro,フルガローロ","latitude":"44.83924","longitude":"8.68165","feature_class":"P","feature_code":"PPLA3","country_code":"IT","cc2":"","admin1_code":"12","admin2_code":"AL","admin3_code":"006075","admin4_code":"","population":"1658","elevation":"112","dem":"118","timezone":"Europe/Rome","modification_date":"2014-04-13"},{"geonameid":"3176512","name":"Frosolone","asciiname":"Frosolone","alternatenames":"Frosolone","latitude":"41.60006","longitude":"14.44578","feature_class":"P","feature_code":"PPLA3","country_code":"IT","cc2":"","admin1_code":"11","admin2_code":"IS","admin3_code":"094022","admin4_code":"","population":"1451","elevation":"894","dem":"903","timezone":"Europe/Rome","modification_date":"2014-04-13"},{"geonameid":"3176515","name":"Frosinone","asciiname":"Frosinone","alternatenames":"Fresulone,Frosinone,Frozinone,QFR,furojinone,Фрозиноне,フロジノーネ","latitude":"41.63976","longitude":"13.34109","feature_class":"P","feature_code":"PPLA2","country_code":"IT","cc2":"","admin1_code":"07","admin2_code":"FR","admin3_code":"060038","admin4_code":"","population":"44505","elevation":"291","dem":"183","timezone":"Europe/Rome","modification_date":"2015-08-12"},{"geonameid":"3176516","name":"Frontone","asciiname":"Frontone","alternatenames":"Frontone","latitude":"43.51478","longitude":"12.73791","feature_class":"P","feature_code":"PPLA3","country_code":"IT","cc2":"","admin1_code":"10","admin2_code":"PU","admin3_code":"041018","admin4_code":"","population":"630","elevation":"412","dem":"397","timezone":"Europe/Rome","modification_date":"2014-04-13"},{"geonameid":"3176517","name":"Frontino","asciiname":"Frontino","alternatenames":"","latitude":"43.76456","longitude":"12.37675","feature_class":"P","feature_code":"PPLA3","country_code":"IT","cc2":"","admin1_code":"10","admin2_code":"PU","admin3_code":"041017","admin4_code":"","population":"93","elevation":"519","dem":"508","timezone":"Europe/Rome","modification_date":"2014-01-19"},{"geonameid":"3176521","name":"Front","asciiname":"Front","alternatenames":"Front,Fronta,furonto,フロント","latitude":"45.27941","longitude":"7.66425","feature_class":"P","feature_code":"PPLA3","country_code":"IT","cc2":"","admin1_code":"12","admin2_code":"TO","admin3_code":"001109","admin4_code":"","population":"709","elevation":"273","dem":"277","timezone":"Europe/Rome","modification_date":"2014-04-13"},{"geonameid":"3176526","name":"Frisanco","asciiname":"Frisanco","alternatenames":"Frisanc,Frisanco","latitude":"46.21246","longitude":"12.72626","feature_class":"P","feature_code":"PPLA3","country_code":"IT","cc2":"","admin1_code":"06","admin2_code":"PN","admin3_code":"093024","admin4_code":"","population":"222","elevation":"500","dem":"504","timezone":"Europe/Rome","modification_date":"2014-01-11"},{"geonameid":"3176527","name":"Frisa","asciiname":"Frisa","alternatenames":"Frisa","latitude":"42.26572","longitude":"14.37625","feature_class":"P","feature_code":"PPLA3","country_code":"IT","cc2":"","admin1_code":"01","admin2_code":"CH","admin3_code":"069037","admin4_code":"","population":"1423","elevation":"237","dem":"233","timezone":"Europe/Rome","modification_date":"2014-04-13"},{"geonameid":"3176533","name":"Frigento","asciiname":"Frigento","alternatenames":"Frigento","latitude":"41.01103","longitude":"15.10026","feature_class":"P","feature_code":"PPLA3","country_code":"IT","cc2":"","admin1_code":"04","admin2_code":"AV","admin3_code":"064035","admin4_code":"","population":"684","elevation":"911","dem":"875","timezone":"Europe/Rome","modification_date":"2014-04-13"},{"geonameid":"3176538","name":"Fresagrandinaria","asciiname":"Fresagrandinaria","alternatenames":"Fresagrandinaria","latitude":"41.979","longitude":"14.66211","feature_class":"P","feature_code":"PPLA3","country_code":"IT","cc2":"","admin1_code":"01","admin2_code":"CH","admin3_code":"069036","admin4_code":"","population":"763","elevation":"391","dem":"387","timezone":"Europe/Rome","modification_date":"2014-04-13"},{"geonameid":"3176543","name":"Fregona","asciiname":"Fregona","alternatenames":"Fregona,Fregono","latitude":"46.00795","longitude":"12.33864","feature_class":"P","feature_code":"PPLA3","country_code":"IT","cc2":"","admin1_code":"20","admin2_code":"TV","admin3_code":"026030","admin4_code":"","population":"1751","elevation":"251","dem":"310","timezone":"Europe/Rome","modification_date":"2014-04-13"},{"geonameid":"3176544","name":"Fregene","asciiname":"Fregene","alternatenames":"","latitude":"41.85051","longitude":"12.19671","feature_class":"P","feature_code":"PPL","country_code":"IT","cc2":"","admin1_code":"07","admin2_code":"RM","admin3_code":"058120","admin4_code":"","population":"6727","elevation":"3","dem":"4","timezone":"Europe/Rome","modification_date":"2014-01-16"},{"geonameid":"3176558","name":"Fratta Todina","asciiname":"Fratta Todina","alternatenames":"Fracta Tudertina,Frata Todina,Fratta,Fratta Todina,Fratta-Todina,frata twdyna,fu la ta tuo di na,peulatatodina,Фрата Тодина,Фратта-Тодина,Фратта-Тодіна,Ֆրատա Տոդինա,فراتا تودينا,フラッタ・トディーナ,弗拉塔托迪纳,프라타토디나","latitude":"42.85684","longitude":"12.36366","feature_class":"P","feature_code":"PPLA3","country_code":"IT","cc2":"","admin1_code":"18","admin2_code":"PG","admin3_code":"054020","admin4_code":"","population":"686","elevation":"243","dem":"210","timezone":"Europe/Rome","modification_date":"2014-01-11"},{"geonameid":"3176559","name":"Fratta Polesine","asciiname":"Fratta Polesine","alternatenames":"Fratta,Fratta Polesine","latitude":"45.02819","longitude":"11.64265","feature_class":"P","feature_code":"PPLA3","country_code":"IT","cc2":"","admin1_code":"20","admin2_code":"RO","admin3_code":"029024","admin4_code":"","population":"1932","elevation":"11","dem":"10","timezone":"Europe/Rome","modification_date":"2014-04-13"},{"geonameid":"3176560","name":"Frattaminore","asciiname":"Frattaminore","alternatenames":"Frattaminore,furattaminore,フラッタミノーレ","latitude":"40.9558","longitude":"14.27201","feature_class":"P","feature_code":"PPLA3","country_code":"IT","cc2":"","admin1_code":"04","admin2_code":"NA","admin3_code":"063033","admin4_code":"","population":"15487","elevation":"36","dem":"39","timezone":"Europe/Rome","modification_date":"2014-04-13"},{"geonameid":"3176561","name":"Frattamaggiore","asciiname":"Frattamaggiore","alternatenames":"Frattamadzhore,Frattamaggiore,furattamajjore,Фраттамаджоре,フラッタマッジョーレ","latitude":"40.9414","longitude":"14.27588","feature_class":"P","feature_code":"PPLA3","country_code":"IT","cc2":"","admin1_code":"04","admin2_code":"NA","admin3_code":"063032","admin4_code":"","population":"29822","elevation":"44","dem":"46","timezone":"Europe/Rome","modification_date":"2015-08-08"},{"geonameid":"3176571","name":"Frasso Telesino","asciiname":"Frasso Telesino","alternatenames":"Frasso Telesino","latitude":"41.15682","longitude":"14.52783","feature_class":"P","feature_code":"PPLA3","country_code":"IT","cc2":"","admin1_code":"04","admin2_code":"BN","admin3_code":"062035","admin4_code":"","population":"2199","elevation":"374","dem":"361","timezone":"Europe/Rome","modification_date":"2014-01-16"},{"geonameid":"3176572","name":"Frasso Sabino","asciiname":"Frasso Sabino","alternatenames":"Frasso Sabino","latitude":"42.22927","longitude":"12.80658","feature_class":"P","feature_code":"PPLA3","country_code":"IT","cc2":"","admin1_code":"07","admin2_code":"RI","admin3_code":"057030","admin4_code":"","population":"223","elevation":"412","dem":"419","timezone":"Europe/Rome","modification_date":"2014-04-13"},{"geonameid":"3176573","name":"Frassinoro","asciiname":"Frassinoro","alternatenames":"Frasinoro,Frassinoro,Fraxinorium,frasynwrw,fu la xi nuo luo,furasshinoro,Фрасиноро,Фрассиноро,Фрассіноро,Ֆրասինորո,فراسينورو,フラッシノーロ,弗拉西诺罗","latitude":"44.29451","longitude":"10.57117","feature_class":"P","feature_code":"PPLA3","country_code":"IT","cc2":"","admin1_code":"05","admin2_code":"MO","admin3_code":"036016","admin4_code":"","population":"598","elevation":"1131","dem":"1111","timezone":"Europe/Rome","modification_date":"2014-04-13"},{"geonameid":"3176575","name":"Frassino","asciiname":"Frassino","alternatenames":"Frassino","latitude":"44.57211","longitude":"7.27536","feature_class":"P","feature_code":"PPLA3","country_code":"IT","cc2":"","admin1_code":"12","admin2_code":"CN","admin3_code":"004092","admin4_code":"","population":"172","elevation":"750","dem":"796","timezone":"Europe/Rome","modification_date":"2014-04-13"},{"geonameid":"3176577","name":"Frassinetto","asciiname":"Frassinetto","alternatenames":"Frassinej,Frassineto,Frassinetto,Frassinèj,furasshinetto,フラッシネット","latitude":"45.43834","longitude":"7.60886","feature_class":"P","feature_code":"PPLA3","country_code":"IT","cc2":"","admin1_code":"12","admin2_code":"TO","admin3_code":"001108","admin4_code":"","population":"141","elevation":"1048","dem":"1081","timezone":"Europe/Rome","modification_date":"2014-04-13"},{"geonameid":"3176578","name":"Frassineto Po","asciiname":"Frassineto Po","alternatenames":"Frassineto Po","latitude":"45.13271","longitude":"8.53525","feature_class":"P","feature_code":"PPLA3","country_code":"IT","cc2":"","admin1_code":"12","admin2_code":"AL","admin3_code":"006073","admin4_code":"","population":"1357","elevation":"104","dem":"106","timezone":"Europe/Rome","modification_date":"2014-04-13"},{"geonameid":"3176581","name":"Frassinello Monferrato","asciiname":"Frassinello Monferrato","alternatenames":"Frassinello Olivola","latitude":"45.03322","longitude":"8.38666","feature_class":"P","feature_code":"PPLA3","country_code":"IT","cc2":"IT","admin1_code":"12","admin2_code":"AL","admin3_code":"006072","admin4_code":"","population":"445","elevation":"261","dem":"240","timezone":"Europe/Rome","modification_date":"2014-04-13"},{"geonameid":"3176589","name":"Frascati","asciiname":"Frascati","alternatenames":"Frascati,furasukati,フラスカーティ","latitude":"41.8091","longitude":"12.67942","feature_class":"P","feature_code":"PPLA3","country_code":"IT","cc2":"","admin1_code":"07","admin2_code":"RM","admin3_code":"058039","admin4_code":"","population":"20036","elevation":"320","dem":"326","timezone":"Europe/Rome","modification_date":"2015-07-15"},{"geonameid":"3176590","name":"Frascaro","asciiname":"Frascaro","alternatenames":"Frascaro,Frasche,Frasché","latitude":"44.82575","longitude":"8.53127","feature_class":"P","feature_code":"PPLA3","country_code":"IT","cc2":"","admin1_code":"12","admin2_code":"AL","admin3_code":"006071","admin4_code":"","population":"365","elevation":"124","dem":"125","timezone":"Europe/Rome","modification_date":"2014-04-13"},{"geonameid":"3176596","name":"Francolise","asciiname":"Francolise","alternatenames":"Francolise","latitude":"41.18501","longitude":"14.05672","feature_class":"P","feature_code":"PPLA3","country_code":"IT","cc2":"","admin1_code":"04","admin2_code":"CE","admin3_code":"061036","admin4_code":"","population":"507","elevation":"103","dem":"95","timezone":"Europe/Rome","modification_date":"2014-01-16"},{"geonameid":"3176597","name":"Francolino","asciiname":"Francolino","alternatenames":"","latitude":"44.89662","longitude":"11.65701","feature_class":"P","feature_code":"PPL","country_code":"IT","cc2":"","admin1_code":"05","admin2_code":"FE","admin3_code":"038008","admin4_code":"","population":"1961","elevation":"8","dem":"6","timezone":"Europe/Rome","modification_date":"2014-01-11"},{"geonameid":"3176602","name":"Francavilla in Sinni","asciiname":"Francavilla in Sinni","alternatenames":"Francavilla,Francavilla in Sinni,Francavilla sul Sinni","latitude":"40.08142","longitude":"16.20417","feature_class":"P","feature_code":"PPLA3","country_code":"IT","cc2":"","admin1_code":"02","admin2_code":"PZ","admin3_code":"076034","admin4_code":"","population":"2690","elevation":"421","dem":"424","timezone":"Europe/Rome","modification_date":"2014-04-13"},{"geonameid":"3176603","name":"Francavilla Fontana","asciiname":"Francavilla Fontana","alternatenames":"Francavilla Fontana","latitude":"40.53123","longitude":"17.58522","feature_class":"P","feature_code":"PPLA3","country_code":"IT","cc2":"","admin1_code":"13","admin2_code":"BR","admin3_code":"074008","admin4_code":"","population":"33415","elevation":"142","dem":"146","timezone":"Europe/Rome","modification_date":"2014-04-13"},{"geonameid":"3176604","name":"Francavilla d'Ete","asciiname":"Francavilla d'Ete","alternatenames":"Francavilla d'Ete","latitude":"43.18837","longitude":"13.54033","feature_class":"P","feature_code":"PPLA3","country_code":"IT","cc2":"","admin1_code":"10","admin2_code":"FM","admin3_code":"109007","admin4_code":"","population":"700","elevation":"231","dem":"183","timezone":"Europe/Rome","modification_date":"2014-04-13"},{"geonameid":"3176605","name":"Francavilla al Mare","asciiname":"Francavilla al Mare","alternatenames":"Francavilla al Mare","latitude":"42.42158","longitude":"14.28217","feature_class":"P","feature_code":"PPLA3","country_code":"IT","cc2":"","admin1_code":"01","admin2_code":"CH","admin3_code":"069035","admin4_code":"","population":"21095","elevation":"3","dem":"13","timezone":"Europe/Rome","modification_date":"2014-04-13"},{"geonameid":"3176607","name":"Framura","asciiname":"Framura","alternatenames":"Framua,Framura","latitude":"44.20946","longitude":"9.55399","feature_class":"P","feature_code":"PPLA3","country_code":"IT","cc2":"","admin1_code":"08","admin2_code":"SP","admin3_code":"011014","admin4_code":"","population":"744","elevation":"","dem":"160","timezone":"Europe/Rome","modification_date":"2012-02-15"},{"geonameid":"3176611","name":"Fraine","asciiname":"Fraine","alternatenames":"Fraine","latitude":"41.90624","longitude":"14.48788","feature_class":"P","feature_code":"PPLA3","country_code":"IT","cc2":"","admin1_code":"01","admin2_code":"CH","admin3_code":"069034","admin4_code":"","population":"396","elevation":"751","dem":"723","timezone":"Europe/Rome","modification_date":"2014-04-13"},{"geonameid":"3176614","name":"Fragneto Monforte","asciiname":"Fragneto Monforte","alternatenames":"Fragneto Monforte","latitude":"41.24634","longitude":"14.76342","feature_class":"P","feature_code":"PPLA3","country_code":"IT","cc2":"","admin1_code":"04","admin2_code":"BN","admin3_code":"062034","admin4_code":"","population":"1083","elevation":"380","dem":"414","timezone":"Europe/Rome","modification_date":"2014-04-13"},{"geonameid":"3176615","name":"Fragneto L'Abate","asciiname":"Fragneto L'Abate","alternatenames":"Fragneto l'Abate","latitude":"41.2558","longitude":"14.78382","feature_class":"P","feature_code":"PPLA3","country_code":"IT","cc2":"","admin1_code":"04","admin2_code":"BN","admin3_code":"062033","admin4_code":"","population":"769","elevation":"","dem":"475","timezone":"Europe/Rome","modification_date":"2014-04-13"},{"geonameid":"3176616","name":"Fragagnano","asciiname":"Fragagnano","alternatenames":"Fragagnano","latitude":"40.4302","longitude":"17.47553","feature_class":"P","feature_code":"PPLA3","country_code":"IT","cc2":"","admin1_code":"13","admin2_code":"TA","admin3_code":"073006","admin4_code":"","population":"5098","elevation":"123","dem":"101","timezone":"Europe/Rome","modification_date":"2014-04-13"},{"geonameid":"3176627","name":"Frabosa Soprana","asciiname":"Frabosa Soprana","alternatenames":"Frabosa Soprana","latitude":"44.29094","longitude":"7.80353","feature_class":"P","feature_code":"PPLA3","country_code":"IT","cc2":"","admin1_code":"12","admin2_code":"CN","admin3_code":"004090","admin4_code":"","population":"397","elevation":"891","dem":"861","timezone":"Europe/Rome","modification_date":"2014-04-13"},{"geonameid":"3176628","name":"Foza","asciiname":"Foza","alternatenames":"","latitude":"45.89703","longitude":"11.63053","feature_class":"P","feature_code":"PPLA3","country_code":"IT","cc2":"","admin1_code":"20","admin2_code":"VI","admin3_code":"024041","admin4_code":"","population":"293","elevation":"1083","dem":"1084","timezone":"Europe/Rome","modification_date":"2014-04-13"},{"geonameid":"3176630","name":"Fossombrone","asciiname":"Fossombrone","alternatenames":"Fossombrone","latitude":"43.69017","longitude":"12.81173","feature_class":"P","feature_code":"PPLA3","country_code":"IT","cc2":"","admin1_code":"10","admin2_code":"PU","admin3_code":"041015","admin4_code":"","population":"6808","elevation":"118","dem":"115","timezone":"Europe/Rome","modification_date":"2014-04-13"},{"geonameid":"3176635","name":"Fossato di Vico","asciiname":"Fossato di Vico","alternatenames":"Fossato,Fossato di Vico","latitude":"43.29644","longitude":"12.76121","feature_class":"P","feature_code":"PPLA3","country_code":"IT","cc2":"","admin1_code":"18","admin2_code":"PG","admin3_code":"054019","admin4_code":"","population":"421","elevation":"581","dem":"535","timezone":"Europe/Rome","modification_date":"2014-04-13"},{"geonameid":"3176639","name":"Fossano","asciiname":"Fossano","alternatenames":"Fossan,Fossano","latitude":"44.55077","longitude":"7.71922","feature_class":"P","feature_code":"PPLA3","country_code":"IT","cc2":"","admin1_code":"12","admin2_code":"CN","admin3_code":"004089","admin4_code":"","population":"18773","elevation":"375","dem":"357","timezone":"Europe/Rome","modification_date":"2014-04-13"},{"geonameid":"3176640","name":"San Vendemiano-Fossamerlo","asciiname":"San Vendemiano-Fossamerlo","alternatenames":"","latitude":"45.8918","longitude":"12.32992","feature_class":"P","feature_code":"PPLA3","country_code":"IT","cc2":"","admin1_code":"20","admin2_code":"TV","admin3_code":"026076","admin4_code":"","population":"6034","elevation":"51","dem":"54","timezone":"Europe/Rome","modification_date":"2014-05-20"},{"geonameid":"3176641","name":"Fossalunga","asciiname":"Fossalunga","alternatenames":"","latitude":"45.6916","longitude":"12.0532","feature_class":"P","feature_code":"PPL","country_code":"IT","cc2":"","admin1_code":"20","admin2_code":"TV","admin3_code":"026089","admin4_code":"","population":"1539","elevation":"48","dem":"42","timezone":"Europe/Rome","modification_date":"2014-04-13"},{"geonameid":"3176644","name":"Fossalto","asciiname":"Fossalto","alternatenames":"Fossalto","latitude":"41.67293","longitude":"14.54573","feature_class":"P","feature_code":"PPLA3","country_code":"IT","cc2":"","admin1_code":"11","admin2_code":"CB","admin3_code":"070024","admin4_code":"","population":"419","elevation":"511","dem":"501","timezone":"Europe/Rome","modification_date":"2014-01-11"},{"geonameid":"3176645","name":"Fossalta di Portogruaro","asciiname":"Fossalta di Portogruaro","alternatenames":"Fossalta,Fossalta di Portogruaro,Fossalte","latitude":"45.79329","longitude":"12.90998","feature_class":"P","feature_code":"PPLA3","country_code":"IT","cc2":"","admin1_code":"20","admin2_code":"VE","admin3_code":"027016","admin4_code":"","population":"2775","elevation":"8","dem":"5","timezone":"Europe/Rome","modification_date":"2014-04-13"},{"geonameid":"3176646","name":"Fossalta di Piave","asciiname":"Fossalta di Piave","alternatenames":"Fossalta,Fossalta Maggiore,Fossalta di Piave,フォッサルタ・ディ・ピアーヴェ","latitude":"45.64497","longitude":"12.50902","feature_class":"P","feature_code":"PPLA3","country_code":"IT","cc2":"","admin1_code":"20","admin2_code":"VE","admin3_code":"027015","admin4_code":"","population":"3842","elevation":"5","dem":"3","timezone":"Europe/Rome","modification_date":"2014-04-13"},{"geonameid":"3176652","name":"Fossacesia","asciiname":"Fossacesia","alternatenames":"Fossacesia","latitude":"42.24198","longitude":"14.48339","feature_class":"P","feature_code":"PPLA3","country_code":"IT","cc2":"","admin1_code":"01","admin2_code":"CH","admin3_code":"069033","admin4_code":"","population":"3644","elevation":"140","dem":"150","timezone":"Europe/Rome","modification_date":"2014-04-13"},{"geonameid":"3176657","name":"Fossa","asciiname":"Fossa","alternatenames":"Fossa","latitude":"42.29273","longitude":"13.48779","feature_class":"P","feature_code":"PPLA3","country_code":"IT","cc2":"","admin1_code":"01","admin2_code":"AQ","admin3_code":"066044","admin4_code":"","population":"546","elevation":"644","dem":"661","timezone":"Europe/Rome","modification_date":"2014-04-13"},{"geonameid":"3176661","name":"Fosdinovo","asciiname":"Fosdinovo","alternatenames":"Fosdinovo,fozudinovu~o,フォズディノーヴォ","latitude":"44.1332","longitude":"10.01778","feature_class":"P","feature_code":"PPLA3","country_code":"IT","cc2":"","admin1_code":"16","admin2_code":"MS","admin3_code":"045008","admin4_code":"","population":"403","elevation":"500","dem":"488","timezone":"Europe/Rome","modification_date":"2014-04-13"},{"geonameid":"3176666","name":"Fortunago","asciiname":"Fortunago","alternatenames":"Fortunago","latitude":"44.9216","longitude":"9.18471","feature_class":"P","feature_code":"PPLA3","country_code":"IT","cc2":"","admin1_code":"09","admin2_code":"PV","admin3_code":"018064","admin4_code":"","population":"51","elevation":"482","dem":"459","timezone":"Europe/Rome","modification_date":"2014-04-13"},{"geonameid":"3176671","name":"Fortezza","asciiname":"Fortezza","alternatenames":"Fortecca,Francisci Oppidum,Franzensfeste,forutettsu~a,fu er tai zha,Фортецца,フォルテッツァ,福尔泰扎","latitude":"46.78963","longitude":"11.60998","feature_class":"P","feature_code":"PPLA3","country_code":"IT","cc2":"","admin1_code":"17","admin2_code":"BZ","admin3_code":"021032","admin4_code":"","population":"688","elevation":"","dem":"745","timezone":"Europe/Rome","modification_date":"2014-05-04"},{"geonameid":"3176674","name":"Forte dei Marmi","asciiname":"Forte dei Marmi","alternatenames":"Forte dei Marmi","latitude":"43.96388","longitude":"10.17478","feature_class":"P","feature_code":"PPLA3","country_code":"IT","cc2":"","admin1_code":"16","admin2_code":"LU","admin3_code":"046013","admin4_code":"","population":"7656","elevation":"2","dem":"3","timezone":"Europe/Rome","modification_date":"2014-04-13"},{"geonameid":"3176680","name":"Fornovo San Giovanni","asciiname":"Fornovo San Giovanni","alternatenames":"Fornovo San Giovanni,Fornovo di San Giovanni","latitude":"45.49742","longitude":"9.67739","feature_class":"P","feature_code":"PPLA3","country_code":"IT","cc2":"","admin1_code":"09","admin2_code":"BG","admin3_code":"016105","admin4_code":"","population":"2951","elevation":"109","dem":"110","timezone":"Europe/Rome","modification_date":"2014-04-13"},{"geonameid":"3176682","name":"Fornovo di Taro","asciiname":"Fornovo di Taro","alternatenames":"Fornoue,Fornova Di Taro,Fornova Tara,Fornova de Taro,Fornovo di Taro,Furnovo-Ditaro","latitude":"44.69465","longitude":"10.10178","feature_class":"P","feature_code":"PPLA3","country_code":"IT","cc2":"","admin1_code":"05","admin2_code":"PR","admin3_code":"034017","admin4_code":"","population":"3029","elevation":"158","dem":"136","timezone":"Europe/Rome","modification_date":"2014-04-13"},{"geonameid":"3176684","name":"Forno di Zoldo","asciiname":"Forno di Zoldo","alternatenames":"Forno di Zoldo","latitude":"46.3501","longitude":"12.17913","feature_class":"P","feature_code":"PPLA3","country_code":"IT","cc2":"","admin1_code":"20","admin2_code":"BL","admin3_code":"025024","admin4_code":"","population":"1485","elevation":"848","dem":"953","timezone":"Europe/Rome","modification_date":"2014-04-13"},{"geonameid":"3176687","name":"Forno Canavese","asciiname":"Forno Canavese","alternatenames":"Forn,Forno Canavese,フォルノ・カナヴェーゼ","latitude":"45.34287","longitude":"7.58951","feature_class":"P","feature_code":"PPLA3","country_code":"IT","cc2":"","admin1_code":"12","admin2_code":"TO","admin3_code":"001107","admin4_code":"","population":"3438","elevation":"585","dem":"516","timezone":"Europe/Rome","modification_date":"2014-04-13"},{"geonameid":"3176696","name":"Forni di Sotto","asciiname":"Forni di Sotto","alternatenames":"Forni di Sotto,Fors Disot","latitude":"46.39379","longitude":"12.6721","feature_class":"P","feature_code":"PPLA3","country_code":"IT","cc2":"","admin1_code":"06","admin2_code":"UD","admin3_code":"030042","admin4_code":"","population":"602","elevation":"776","dem":"778","timezone":"Europe/Rome","modification_date":"2014-04-13"},{"geonameid":"3176697","name":"Forni di Sopra","asciiname":"Forni di Sopra","alternatenames":"For Disore,Forni di Sopra,Fors Disore","latitude":"46.42028","longitude":"12.58312","feature_class":"P","feature_code":"PPLA3","country_code":"IT","cc2":"","admin1_code":"06","admin2_code":"UD","admin3_code":"030041","admin4_code":"","population":"966","elevation":"907","dem":"877","timezone":"Europe/Rome","modification_date":"2014-05-20"},{"geonameid":"3176700","name":"Forni Avoltri","asciiname":"Forni Avoltri","alternatenames":"Forni Avoltri,Fors di Voltri","latitude":"46.58615","longitude":"12.7751","feature_class":"P","feature_code":"PPLA3","country_code":"IT","cc2":"","admin1_code":"06","admin2_code":"UD","admin3_code":"030040","admin4_code":"","population":"441","elevation":"888","dem":"874","timezone":"Europe/Rome","modification_date":"2014-04-13"},{"geonameid":"3176707","name":"Fornelli","asciiname":"Fornelli","alternatenames":"Fornelli","latitude":"41.60678","longitude":"14.14041","feature_class":"P","feature_code":"PPLA3","country_code":"IT","cc2":"","admin1_code":"11","admin2_code":"IS","admin3_code":"094021","admin4_code":"","population":"694","elevation":"530","dem":"522","timezone":"Europe/Rome","modification_date":"2014-04-13"},{"geonameid":"3176711","name":"Fornaci di Barga","asciiname":"Fornaci di Barga","alternatenames":"Catarozzo,Fornaci,Fornaci di Barga","latitude":"44.04899","longitude":"10.47111","feature_class":"P","feature_code":"PPL","country_code":"IT","cc2":"IT","admin1_code":"16","admin2_code":"LU","admin3_code":"046003","admin4_code":"","population":"2357","elevation":"164","dem":"165","timezone":"Europe/Rome","modification_date":"2014-04-13"},{"geonameid":"3176713","name":"Fornaci","asciiname":"Fornaci","alternatenames":"","latitude":"45.6517","longitude":"12.43738","feature_class":"P","feature_code":"PPLA3","country_code":"IT","cc2":"","admin1_code":"20","admin2_code":"TV","admin3_code":"026044","admin4_code":"","population":"2856","elevation":"6","dem":"4","timezone":"Europe/Rome","modification_date":"2014-04-13"},{"geonameid":"3176718","name":"Fornacette","asciiname":"Fornacette","alternatenames":"","latitude":"43.67023","longitude":"10.58512","feature_class":"P","feature_code":"PPL","country_code":"IT","cc2":"","admin1_code":"16","admin2_code":"PI","admin3_code":"050008","admin4_code":"","population":"5868","elevation":"","dem":"13","timezone":"Europe/Rome","modification_date":"2014-04-13"},{"geonameid":"3176722","name":"Fornacelle","asciiname":"Fornacelle","alternatenames":"","latitude":"43.92377","longitude":"11.03525","feature_class":"P","feature_code":"PPLA3","country_code":"IT","cc2":"","admin1_code":"16","admin2_code":"PO","admin3_code":"100003","admin4_code":"","population":"17278","elevation":"73","dem":"68","timezone":"Europe/Rome","modification_date":"2015-07-21"},{"geonameid":"3176731","name":"Formignana","asciiname":"Formignana","alternatenames":"Formignana,Formignano","latitude":"44.8423","longitude":"11.85935","feature_class":"P","feature_code":"PPLA3","country_code":"IT","cc2":"","admin1_code":"05","admin2_code":"FE","admin3_code":"038009","admin4_code":"","population":"1974","elevation":"2","dem":"4","timezone":"Europe/Rome","modification_date":"2014-04-13"},{"geonameid":"3176732","name":"Formigliana","asciiname":"Formigliana","alternatenames":"Formigliana","latitude":"45.42926","longitude":"8.29193","feature_class":"P","feature_code":"PPLA3","country_code":"IT","cc2":"","admin1_code":"12","admin2_code":"VC","admin3_code":"002059","admin4_code":"","population":"371","elevation":"157","dem":"163","timezone":"Europe/Rome","modification_date":"2014-01-11"},{"geonameid":"3176733","name":"Formigine","asciiname":"Formigine","alternatenames":"Formigine,Furmezen,Furmèżen,forumijine,フォルミージネ","latitude":"44.57268","longitude":"10.84737","feature_class":"P","feature_code":"PPLA3","country_code":"IT","cc2":"","admin1_code":"05","admin2_code":"MO","admin3_code":"036015","admin4_code":"","population":"26324","elevation":"82","dem":"82","timezone":"Europe/Rome","modification_date":"2015-08-07"},{"geonameid":"3176734","name":"Formigara","asciiname":"Formigara","alternatenames":"Formigara","latitude":"45.22307","longitude":"9.77076","feature_class":"P","feature_code":"PPLA3","country_code":"IT","cc2":"","admin1_code":"09","admin2_code":"CR","admin3_code":"019044","admin4_code":"","population":"750","elevation":"59","dem":"61","timezone":"Europe/Rome","modification_date":"2014-04-13"},{"geonameid":"3176735","name":"Formicola","asciiname":"Formicola","alternatenames":"Formicola","latitude":"41.21084","longitude":"14.23462","feature_class":"P","feature_code":"PPLA3","country_code":"IT","cc2":"","admin1_code":"04","admin2_code":"CE","admin3_code":"061035","admin4_code":"","population":"1119","elevation":"196","dem":"202","timezone":"Europe/Rome","modification_date":"2014-04-13"},{"geonameid":"3176738","name":"Formia","asciiname":"Formia","alternatenames":"Formia,forumia,フォルミア","latitude":"41.25632","longitude":"13.60888","feature_class":"P","feature_code":"PPLA3","country_code":"IT","cc2":"","admin1_code":"07","admin2_code":"LT","admin3_code":"059008","admin4_code":"","population":"28521","elevation":"19","dem":"8","timezone":"Europe/Rome","modification_date":"2015-08-08"},{"geonameid":"3176739","name":"Formello","asciiname":"Formello","alternatenames":"Formello,forumerro,フォルメッロ","latitude":"42.06246","longitude":"12.39435","feature_class":"P","feature_code":"PPLA3","country_code":"IT","cc2":"","admin1_code":"07","admin2_code":"RM","admin3_code":"058038","admin4_code":"","population":"5143","elevation":"225","dem":"171","timezone":"Europe/Rome","modification_date":"2014-04-13"},{"geonameid":"3176741","name":"Formazza","asciiname":"Formazza","alternatenames":"Formazza","latitude":"46.37689","longitude":"8.42571","feature_class":"P","feature_code":"PPLA3","country_code":"IT","cc2":"","admin1_code":"12","admin2_code":"VB","admin3_code":"103031","admin4_code":"","population":"448","elevation":"","dem":"1288","timezone":"Europe/Rome","modification_date":"2012-02-15"},{"geonameid":"3176743","name":"Forlimpopoli","asciiname":"Forlimpopoli","alternatenames":"Forlimpopoli,forurinpopori,フォルリンポーポリ","latitude":"44.19107","longitude":"12.12873","feature_class":"P","feature_code":"PPLA3","country_code":"IT","cc2":"","admin1_code":"05","admin2_code":"FC","admin3_code":"040013","admin4_code":"","population":"9392","elevation":"30","dem":"28","timezone":"Europe/Rome","modification_date":"2014-01-11"},{"geonameid":"3176744","name":"Forlì del Sannio","asciiname":"Forli del Sannio","alternatenames":"Forli del Sannio,Forlì del Sannio","latitude":"41.69593","longitude":"14.17952","feature_class":"P","feature_code":"PPLA3","country_code":"IT","cc2":"","admin1_code":"11","admin2_code":"IS","admin3_code":"094020","admin4_code":"","population":"525","elevation":"610","dem":"625","timezone":"Europe/Rome","modification_date":"2014-01-16"},{"geonameid":"3176746","name":"Forlì","asciiname":"Forli","alternatenames":"FRL,Forli,Forlì,Forum Livii,foruri,Форли,フォルリ","latitude":"44.22054","longitude":"12.05245","feature_class":"P","feature_code":"PPLA2","country_code":"IT","cc2":"","admin1_code":"05","admin2_code":"FC","admin3_code":"040012","admin4_code":"","population":"93638","elevation":"34","dem":"27","timezone":"Europe/Rome","modification_date":"2014-05-10"},