{"nextFile":"cities.43.json","rows":[{"geonameid":"2513597","name":"Montizón","asciiname":"Montizon","alternatenames":"Montizon,Montizón","latitude":"38.34249","longitude":"-3.10404","feature_class":"P","feature_code":"PPLA3","country_code":"ES","cc2":"","admin1_code":"51","admin2_code":"J","admin3_code":"23062","admin4_code":"","population":"2001","elevation":"","dem":"643","timezone":"Europe/Madrid","modification_date":"2012-03-04"},{"geonameid":"2513599","name":"Montillana","asciiname":"Montillana","alternatenames":"Montillana","latitude":"37.50168","longitude":"-3.67368","feature_class":"P","feature_code":"PPLA3","country_code":"ES","cc2":"","admin1_code":"51","admin2_code":"GR","admin3_code":"18137","admin4_code":"","population":"1300","elevation":"","dem":"1021","timezone":"Europe/Madrid","modification_date":"2012-03-04"},{"geonameid":"2513601","name":"Montilla","asciiname":"Montilla","alternatenames":"Montil'ja,Montilla,Munda,OZU,meng di li ya,montiya,mwntyla  qrtbt,Монтилья,Монтілья,مونتيلا، قرطبة,蒙蒂利亚,몬티야","latitude":"37.58627","longitude":"-4.63805","feature_class":"P","feature_code":"PPLA3","country_code":"ES","cc2":"","admin1_code":"51","admin2_code":"CO","admin3_code":"14042","admin4_code":"","population":"23840","elevation":"","dem":"382","timezone":"Europe/Madrid","modification_date":"2012-03-04"},{"geonameid":"2513604","name":"Montijo","asciiname":"Montijo","alternatenames":"Montijo","latitude":"38.90839","longitude":"-6.61785","feature_class":"P","feature_code":"PPLA3","country_code":"ES","cc2":"","admin1_code":"57","admin2_code":"BA","admin3_code":"06088","admin4_code":"","population":"16236","elevation":"","dem":"201","timezone":"Europe/Madrid","modification_date":"2012-03-04"},{"geonameid":"2513606","name":"Montiel","asciiname":"Montiel","alternatenames":"Montiel","latitude":"38.69802","longitude":"-2.86441","feature_class":"P","feature_code":"PPLA3","country_code":"ES","cc2":"","admin1_code":"54","admin2_code":"CR","admin3_code":"13057","admin4_code":"","population":"1688","elevation":"","dem":"894","timezone":"Europe/Madrid","modification_date":"2012-03-04"},{"geonameid":"2513607","name":"Montichelvo","asciiname":"Montichelvo","alternatenames":"Montichelvo,Montixelvo","latitude":"38.89129","longitude":"-0.34123","feature_class":"P","feature_code":"PPLA3","country_code":"ES","cc2":"","admin1_code":"60","admin2_code":"V","admin3_code":"46175","admin4_code":"","population":"673","elevation":"","dem":"272","timezone":"Europe/Madrid","modification_date":"2012-03-04"},{"geonameid":"2513614","name":"Montesa","asciiname":"Montesa","alternatenames":"Montesa","latitude":"38.9503","longitude":"-0.652","feature_class":"P","feature_code":"PPLA3","country_code":"ES","cc2":"","admin1_code":"60","admin2_code":"V","admin3_code":"46174","admin4_code":"","population":"1400","elevation":"","dem":"297","timezone":"Europe/Madrid","modification_date":"2012-03-04"},{"geonameid":"2513618","name":"Monterrubio de la Serena","asciiname":"Monterrubio de la Serena","alternatenames":"Monterrubio,Monterrubio de la Serena","latitude":"38.58876","longitude":"-5.44569","feature_class":"P","feature_code":"PPLA3","country_code":"ES","cc2":"","admin1_code":"57","admin2_code":"BA","admin3_code":"06087","admin4_code":"","population":"2752","elevation":"","dem":"555","timezone":"Europe/Madrid","modification_date":"2012-03-04"},{"geonameid":"2513628","name":"Montemolín","asciiname":"Montemolin","alternatenames":"Montemolin,Montemolín","latitude":"38.15","longitude":"-6.2","feature_class":"P","feature_code":"PPL","country_code":"ES","cc2":"","admin1_code":"57","admin2_code":"BA","admin3_code":"06052","admin4_code":"","population":"1578","elevation":"","dem":"660","timezone":"Europe/Madrid","modification_date":"2012-01-19"},{"geonameid":"2513632","name":"Montemayor","asciiname":"Montemayor","alternatenames":"Montemayor","latitude":"37.6479","longitude":"-4.69779","feature_class":"P","feature_code":"PPLA3","country_code":"ES","cc2":"","admin1_code":"51","admin2_code":"CO","admin3_code":"14041","admin4_code":"","population":"3946","elevation":"","dem":"368","timezone":"Europe/Madrid","modification_date":"2012-03-04"},{"geonameid":"2513637","name":"Montellano","asciiname":"Montellano","alternatenames":"Montellano","latitude":"36.99531","longitude":"-5.57145","feature_class":"P","feature_code":"PPLA3","country_code":"ES","cc2":"","admin1_code":"51","admin2_code":"SE","admin3_code":"41064","admin4_code":"","population":"6851","elevation":"","dem":"262","timezone":"Europe/Madrid","modification_date":"2012-03-04"},{"geonameid":"2513638","name":"Montejicar","asciiname":"Montejicar","alternatenames":"Montejicar","latitude":"37.57223","longitude":"-3.50527","feature_class":"P","feature_code":"PPL","country_code":"ES","cc2":"","admin1_code":"51","admin2_code":"GR","admin3_code":"18136","admin4_code":"","population":"2647","elevation":"","dem":"1146","timezone":"Europe/Madrid","modification_date":"2012-01-19"},{"geonameid":"2513639","name":"Montejaque","asciiname":"Montejaque","alternatenames":"Montejaque","latitude":"36.73684","longitude":"-5.2499","feature_class":"P","feature_code":"PPLA3","country_code":"ES","cc2":"","admin1_code":"51","admin2_code":"MA","admin3_code":"29074","admin4_code":"","population":"983","elevation":"","dem":"679","timezone":"Europe/Madrid","modification_date":"2012-03-04"},{"geonameid":"2513640","name":"Montefrío","asciiname":"Montefrio","alternatenames":"Montefrio,meng te fu li ao,mwntyfryw,Монтефрио,Монтефріо,مونتيفريو,蒙特夫里奥","latitude":"37.32308","longitude":"-4.00898","feature_class":"P","feature_code":"PPLA3","country_code":"ES","cc2":"","admin1_code":"51","admin2_code":"GR","admin3_code":"18135","admin4_code":"","population":"6631","elevation":"","dem":"796","timezone":"Europe/Madrid","modification_date":"2012-03-04"},{"geonameid":"2513647","name":"Montearagón","asciiname":"Montearagon","alternatenames":"Montearagon,Montearagón","latitude":"39.96425","longitude":"-4.63214","feature_class":"P","feature_code":"PPLA3","country_code":"ES","cc2":"","admin1_code":"54","admin2_code":"TO","admin3_code":"45104","admin4_code":"","population":"499","elevation":"","dem":"432","timezone":"Europe/Madrid","modification_date":"2012-03-04"},{"geonameid":"2513649","name":"Montealegre del Castillo","asciiname":"Montealegre del Castillo","alternatenames":"Montealegre,Montealegre del Castillo","latitude":"38.78856","longitude":"-1.32722","feature_class":"P","feature_code":"PPLA3","country_code":"ES","cc2":"","admin1_code":"54","admin2_code":"AB","admin3_code":"02051","admin4_code":"","population":"2327","elevation":"","dem":"803","timezone":"Europe/Madrid","modification_date":"2012-03-04"},{"geonameid":"2513651","name":"Monteagudo de las Salinas","asciiname":"Monteagudo de las Salinas","alternatenames":"Monteagudo de las Salinas","latitude":"39.8","longitude":"-1.9","feature_class":"P","feature_code":"PPLA3","country_code":"ES","cc2":"","admin1_code":"54","admin2_code":"CU","admin3_code":"16131","admin4_code":"","population":"160","elevation":"","dem":"948","timezone":"Europe/Madrid","modification_date":"2012-03-04"},{"geonameid":"2513659","name":"Montánchez","asciiname":"Montanchez","alternatenames":"Montanches,Montanchez,Montánchez,meng tan qie si,mwntanshyz,Монтанчес,مونتانشيز,蒙坦切斯","latitude":"39.22548","longitude":"-6.14914","feature_class":"P","feature_code":"PPLA3","country_code":"ES","cc2":"","admin1_code":"57","admin2_code":"CC","admin3_code":"10126","admin4_code":"","population":"2017","elevation":"","dem":"709","timezone":"Europe/Madrid","modification_date":"2012-03-04"},{"geonameid":"2513665","name":"Montalvos","asciiname":"Montalvos","alternatenames":"Montalvos","latitude":"39.16667","longitude":"-2.01667","feature_class":"P","feature_code":"PPLA3","country_code":"ES","cc2":"","admin1_code":"54","admin2_code":"AB","admin3_code":"02050","admin4_code":"","population":"143","elevation":"","dem":"707","timezone":"Europe/Madrid","modification_date":"2012-03-04"},{"geonameid":"2513667","name":"Montalbo","asciiname":"Montalbo","alternatenames":"Montalbo,Montalvo","latitude":"39.87994","longitude":"-2.67038","feature_class":"P","feature_code":"PPLA3","country_code":"ES","cc2":"","admin1_code":"54","admin2_code":"CU","admin3_code":"16130","admin4_code":"","population":"694","elevation":"","dem":"876","timezone":"Europe/Madrid","modification_date":"2012-03-04"},{"geonameid":"2513670","name":"Montalbanejo","asciiname":"Montalbanejo","alternatenames":"Montalbanejo","latitude":"39.73369","longitude":"-2.49911","feature_class":"P","feature_code":"PPLA3","country_code":"ES","cc2":"","admin1_code":"54","admin2_code":"CU","admin3_code":"16129","admin4_code":"","population":"176","elevation":"","dem":"908","timezone":"Europe/Madrid","modification_date":"2012-03-04"},{"geonameid":"2513671","name":"Montalbán de Córdoba","asciiname":"Montalban de Cordoba","alternatenames":"Montal'ban-de-Kordoba,Montal'ban-de-Kordova,Montalban de Cordoba,Montalbán de Córdoba,meng ta er wan de ke er duo wa,mwntalban dy qrtbt  qrtbt,Монтальбан-де-Кордоба,Монтальбан-де-Кордова,مونتالبان دي قرطبة، قرطبة,蒙塔尔万德科尔多瓦","latitude":"37.57996","longitude":"-4.74935","feature_class":"P","feature_code":"PPLA3","country_code":"ES","cc2":"","admin1_code":"51","admin2_code":"CO","admin3_code":"14040","admin4_code":"","population":"4665","elevation":"","dem":"270","timezone":"Europe/Madrid","modification_date":"2012-03-04"},{"geonameid":"2513673","name":"Montaberner","asciiname":"Montaberner","alternatenames":"","latitude":"38.89021","longitude":"-0.49582","feature_class":"P","feature_code":"PPL","country_code":"ES","cc2":"","admin1_code":"60","admin2_code":"V","admin3_code":"46006","admin4_code":"","population":"1779","elevation":"","dem":"184","timezone":"Europe/Madrid","modification_date":"2011-09-11"},{"geonameid":"2513674","name":"Monserrat","asciiname":"Monserrat","alternatenames":"Monserrat,Montserrat d'Alcala,Montserrat d'Alcalà","latitude":"39.36667","longitude":"-0.6","feature_class":"P","feature_code":"PPL","country_code":"ES","cc2":"","admin1_code":"60","admin2_code":"V","admin3_code":"46172","admin4_code":"","population":"4091","elevation":"","dem":"197","timezone":"Europe/Madrid","modification_date":"2012-01-19"},{"geonameid":"2513678","name":"Monreal del Llano","asciiname":"Monreal del Llano","alternatenames":"Monreal del Llano","latitude":"39.56888","longitude":"-2.76046","feature_class":"P","feature_code":"PPLA3","country_code":"ES","cc2":"","admin1_code":"54","admin2_code":"CU","admin3_code":"16128","admin4_code":"","population":"74","elevation":"","dem":"735","timezone":"Europe/Madrid","modification_date":"2012-03-04"},{"geonameid":"2513680","name":"Monóvar","asciiname":"Monovar","alternatenames":"Monovar,Monover,Monòver,Monóvar,mo nuo wa er,mwnwbar,mwnwfar,Моновар,Моновер,مونوبار,مونوفار,莫诺瓦尔","latitude":"38.43809","longitude":"-0.84062","feature_class":"P","feature_code":"PPL","country_code":"ES","cc2":"","admin1_code":"60","admin2_code":"A","admin3_code":"03093","admin4_code":"","population":"13060","elevation":"","dem":"406","timezone":"Europe/Madrid","modification_date":"2012-01-19"},{"geonameid":"2513691","name":"Monforte del Cid","asciiname":"Monforte del Cid","alternatenames":"Monforte,Monforte de la Rambla,Monforte del Cid,Monforte-del'-Sid,Mont-fort,Montfort,Montfort del Cid,meng fu er te de er xi de,mnfrth dl syd,Монфорте-дель-Сид,Монфорте-дель-Сід,منفرته دل سید,蒙福尔特德尔西德","latitude":"38.38027","longitude":"-0.7285","feature_class":"P","feature_code":"PPLA3","country_code":"ES","cc2":"","admin1_code":"60","admin2_code":"A","admin3_code":"03088","admin4_code":"","population":"6001","elevation":"","dem":"227","timezone":"Europe/Madrid","modification_date":"2012-03-04"},{"geonameid":"2513692","name":"Monesterio","asciiname":"Monesterio","alternatenames":"Monasterio,Monesterio,Monestorio","latitude":"38.08333","longitude":"-6.26667","feature_class":"P","feature_code":"PPLA3","country_code":"ES","cc2":"","admin1_code":"57","admin2_code":"BA","admin3_code":"06085","admin4_code":"","population":"4378","elevation":"","dem":"731","timezone":"Europe/Madrid","modification_date":"2012-03-04"},{"geonameid":"2513699","name":"Monda","asciiname":"Monda","alternatenames":"Monda,meng da,mwnda,Монда,Մոնդա,موندا,蒙达","latitude":"36.63027","longitude":"-4.83192","feature_class":"P","feature_code":"PPLA3","country_code":"ES","cc2":"","admin1_code":"51","admin2_code":"MA","admin3_code":"29073","admin4_code":"","population":"2078","elevation":"","dem":"365","timezone":"Europe/Madrid","modification_date":"2012-03-04"},{"geonameid":"2513700","name":"Moncofa","asciiname":"Moncofa","alternatenames":"Mocofar,Moncofa,Moncofar,Moncófar","latitude":"39.80907","longitude":"-0.14701","feature_class":"P","feature_code":"PPL","country_code":"ES","cc2":"","admin1_code":"60","admin2_code":"CS","admin3_code":"12077","admin4_code":"","population":"4930","elevation":"","dem":"9","timezone":"Europe/Madrid","modification_date":"2015-09-11"},{"geonameid":"2513703","name":"Moncada","asciiname":"Moncada","alternatenames":"Moncada,Monkada,Montcada,Монкада","latitude":"39.54555","longitude":"-0.39551","feature_class":"P","feature_code":"PPLA3","country_code":"ES","cc2":"","admin1_code":"60","admin2_code":"V","admin3_code":"46171","admin4_code":"","population":"21900","elevation":"","dem":"34","timezone":"Europe/Madrid","modification_date":"2012-03-04"},{"geonameid":"2513709","name":"Monachil","asciiname":"Monachil","alternatenames":"Monachil","latitude":"37.1332","longitude":"-3.53724","feature_class":"P","feature_code":"PPLA3","country_code":"ES","cc2":"","admin1_code":"51","admin2_code":"GR","admin3_code":"18134","admin4_code":"","population":"5843","elevation":"","dem":"868","timezone":"Europe/Madrid","modification_date":"2012-03-04"},{"geonameid":"2513713","name":"Molvízar","asciiname":"Molvizar","alternatenames":"Molvizar,Molvízar","latitude":"36.78592","longitude":"-3.60783","feature_class":"P","feature_code":"PPLA3","country_code":"ES","cc2":"","admin1_code":"51","admin2_code":"GR","admin3_code":"18133","admin4_code":"","population":"2704","elevation":"","dem":"233","timezone":"Europe/Madrid","modification_date":"2012-03-04"},{"geonameid":"2513717","name":"Mollina","asciiname":"Mollina","alternatenames":"Mollina","latitude":"37.12534","longitude":"-4.65686","feature_class":"P","feature_code":"PPLA3","country_code":"ES","cc2":"","admin1_code":"51","admin2_code":"MA","admin3_code":"29072","admin4_code":"","population":"4082","elevation":"","dem":"475","timezone":"Europe/Madrid","modification_date":"2012-03-04"},{"geonameid":"2513753","name":"Molinicos","asciiname":"Molinicos","alternatenames":"Molinicos","latitude":"38.46717","longitude":"-2.23939","feature_class":"P","feature_code":"PPLA3","country_code":"ES","cc2":"","admin1_code":"54","admin2_code":"AB","admin3_code":"02049","admin4_code":"","population":"1151","elevation":"","dem":"853","timezone":"Europe/Madrid","modification_date":"2012-03-04"},{"geonameid":"2513759","name":"Molina de Segura","asciiname":"Molina de Segura","alternatenames":"Molina,Molina de Segura,Molina-de-Segura,mo li na de sai gu la,mwlyna dy syghwra,Молина де Сегура,Молина-де-Сегура,Моліна-де-Сегура,مولينا دي سيغورا,モリナ・デ・セグラ,莫利纳德塞古拉","latitude":"38.05456","longitude":"-1.20763","feature_class":"P","feature_code":"PPLA3","country_code":"ES","cc2":"","admin1_code":"31","admin2_code":"MU","admin3_code":"30027","admin4_code":"","population":"64065","elevation":"","dem":"108","timezone":"Europe/Madrid","modification_date":"2012-03-04"},{"geonameid":"2513786","name":"Mojacar","asciiname":"Mojacar","alternatenames":"Mojacar,Mojacar Pueblo,Mojácar,Mojácar Pueblo","latitude":"37.1402","longitude":"-1.85102","feature_class":"P","feature_code":"PPLA3","country_code":"ES","cc2":"","admin1_code":"51","admin2_code":"AL","admin3_code":"04064","admin4_code":"","population":"5154","elevation":"","dem":"162","timezone":"Europe/Madrid","modification_date":"2015-06-17"},{"geonameid":"2513788","name":"Mohedas de la Jara","asciiname":"Mohedas de la Jara","alternatenames":"Mohedas de la Jara","latitude":"39.60417","longitude":"-5.14247","feature_class":"P","feature_code":"PPLA3","country_code":"ES","cc2":"","admin1_code":"54","admin2_code":"TO","admin3_code":"45103","admin4_code":"","population":"565","elevation":"","dem":"644","timezone":"Europe/Madrid","modification_date":"2012-03-04"},{"geonameid":"2513791","name":"Moguer","asciiname":"Moguer","alternatenames":"Moger,Moguer,mo ge er,mwghyr,Могер,موغير,莫格尔","latitude":"37.27559","longitude":"-6.83851","feature_class":"P","feature_code":"PPLA3","country_code":"ES","cc2":"","admin1_code":"51","admin2_code":"H","admin3_code":"21050","admin4_code":"","population":"19569","elevation":"","dem":"54","timezone":"Europe/Madrid","modification_date":"2012-03-04"},{"geonameid":"2513794","name":"Mogente","asciiname":"Mogente","alternatenames":"Mogente","latitude":"38.87598","longitude":"-0.7515","feature_class":"P","feature_code":"PPL","country_code":"ES","cc2":"","admin1_code":"60","admin2_code":"V","admin3_code":"46251","admin4_code":"","population":"4514","elevation":"","dem":"333","timezone":"Europe/Madrid","modification_date":"2012-01-19"},{"geonameid":"2513798","name":"Mogán","asciiname":"Mogan","alternatenames":"Mogan,Mogán","latitude":"27.88385","longitude":"-15.72538","feature_class":"P","feature_code":"PPLA3","country_code":"ES","cc2":"","admin1_code":"53","admin2_code":"GC","admin3_code":"35012","admin4_code":"","population":"21690","elevation":"","dem":"238","timezone":"Atlantic/Canary","modification_date":"2012-03-04"},{"geonameid":"2513800","name":"Moclinejo","asciiname":"Moclinejo","alternatenames":"","latitude":"36.77134","longitude":"-4.25514","feature_class":"P","feature_code":"PPLA3","country_code":"ES","cc2":"","admin1_code":"51","admin2_code":"MA","admin3_code":"29071","admin4_code":"","population":"1167","elevation":"","dem":"463","timezone":"Europe/Madrid","modification_date":"2012-03-04"},{"geonameid":"2513801","name":"Moclín","asciiname":"Moclin","alternatenames":"","latitude":"37.33959","longitude":"-3.78651","feature_class":"P","feature_code":"PPLA3","country_code":"ES","cc2":"","admin1_code":"51","admin2_code":"GR","admin3_code":"18132","admin4_code":"","population":"4173","elevation":"","dem":"1014","timezone":"Europe/Madrid","modification_date":"2012-03-04"},{"geonameid":"2513803","name":"Mocejón","asciiname":"Mocejon","alternatenames":"Mocejon,Mocejón","latitude":"39.93934","longitude":"-3.91716","feature_class":"P","feature_code":"PPLA3","country_code":"ES","cc2":"","admin1_code":"54","admin2_code":"TO","admin3_code":"45102","admin4_code":"","population":"4449","elevation":"","dem":"483","timezone":"Europe/Madrid","modification_date":"2012-03-04"},{"geonameid":"2513811","name":"Mislata","asciiname":"Mislata","alternatenames":"Mislata,Mizlata,mi si la ta,Мислата,Міслата,米斯拉塔","latitude":"39.47523","longitude":"-0.41825","feature_class":"P","feature_code":"PPLA3","country_code":"ES","cc2":"","admin1_code":"60","admin2_code":"V","admin3_code":"46169","admin4_code":"","population":"43756","elevation":"","dem":"35","timezone":"Europe/Madrid","modification_date":"2012-03-04"},{"geonameid":"2513821","name":"Mirandilla","asciiname":"Mirandilla","alternatenames":"Mirandilla","latitude":"39.002","longitude":"-6.28893","feature_class":"P","feature_code":"PPLA3","country_code":"ES","cc2":"","admin1_code":"57","admin2_code":"BA","admin3_code":"06084","admin4_code":"","population":"1363","elevation":"","dem":"295","timezone":"Europe/Madrid","modification_date":"2012-03-04"},{"geonameid":"2513827","name":"Miramar","asciiname":"Miramar","alternatenames":"Miramar","latitude":"38.95036","longitude":"-0.14007","feature_class":"P","feature_code":"PPLA3","country_code":"ES","cc2":"","admin1_code":"60","admin2_code":"V","admin3_code":"46168","admin4_code":"","population":"1675","elevation":"","dem":"13","timezone":"Europe/Madrid","modification_date":"2012-03-04"},{"geonameid":"2513840","name":"Mirabel","asciiname":"Mirabel","alternatenames":"Mirabel,Mirabel',mi la wei er,myrabl,Мирабель,Мірабель,ميرابل,米拉韦尔","latitude":"39.8623","longitude":"-6.23274","feature_class":"P","feature_code":"PPLA3","country_code":"ES","cc2":"","admin1_code":"57","admin2_code":"CC","admin3_code":"10123","admin4_code":"","population":"742","elevation":"","dem":"500","timezone":"Europe/Madrid","modification_date":"2012-03-04"},{"geonameid":"2513844","name":"Mira","asciiname":"Mira","alternatenames":"Mira,mi la,myra  qwnkt,Мира,Міра,ميرا، قونكة,米拉","latitude":"39.71667","longitude":"-1.43333","feature_class":"P","feature_code":"PPLA3","country_code":"ES","cc2":"","admin1_code":"54","admin2_code":"CU","admin3_code":"16126","admin4_code":"","population":"1208","elevation":"","dem":"862","timezone":"Europe/Madrid","modification_date":"2012-03-04"},{"geonameid":"2513852","name":"Minglanilla","asciiname":"Minglanilla","alternatenames":"Minglanil'ja,Minglanilla,Minglanillo,ming la ni li ya,mynghlanyla,Мингланилья,Мінгланілья,مينغلانيلا,明拉尼利亚","latitude":"39.53333","longitude":"-1.6","feature_class":"P","feature_code":"PPLA3","country_code":"ES","cc2":"","admin1_code":"54","admin2_code":"CU","admin3_code":"16125","admin4_code":"","population":"2300","elevation":"","dem":"803","timezone":"Europe/Madrid","modification_date":"2012-03-04"},{"geonameid":"2513855","name":"Minaya","asciiname":"Minaya","alternatenames":"Minaya","latitude":"39.27052","longitude":"-2.32176","feature_class":"P","feature_code":"PPLA3","country_code":"ES","cc2":"","admin1_code":"54","admin2_code":"AB","admin3_code":"02048","admin4_code":"","population":"1701","elevation":"","dem":"730","timezone":"Europe/Madrid","modification_date":"2012-03-04"},{"geonameid":"2513873","name":"Millena","asciiname":"Millena","alternatenames":"Millena","latitude":"38.73082","longitude":"-0.36274","feature_class":"P","feature_code":"PPLA3","country_code":"ES","cc2":"","admin1_code":"60","admin2_code":"A","admin3_code":"03086","admin4_code":"","population":"173","elevation":"","dem":"645","timezone":"Europe/Madrid","modification_date":"2012-03-04"},{"geonameid":"2513874","name":"Millares","asciiname":"Millares","alternatenames":"Millares,Millars","latitude":"39.25","longitude":"-0.76667","feature_class":"P","feature_code":"PPLA3","country_code":"ES","cc2":"","admin1_code":"60","admin2_code":"V","admin3_code":"46167","admin4_code":"","population":"567","elevation":"","dem":"128","timezone":"Europe/Madrid","modification_date":"2012-03-04"},{"geonameid":"2513875","name":"Millanes","asciiname":"Millanes","alternatenames":"Millanes","latitude":"39.84917","longitude":"-5.58079","feature_class":"P","feature_code":"PPLA3","country_code":"ES","cc2":"","admin1_code":"57","admin2_code":"CC","admin3_code":"10122","admin4_code":"","population":"182","elevation":"","dem":"371","timezone":"Europe/Madrid","modification_date":"2012-03-04"},{"geonameid":"2513882","name":"Mijas","asciiname":"Mijas","alternatenames":"Mijas,Mikhas,mi ha si,mihasu,mykhas,Михас,Міхас,ميخاس,ミハス,米哈斯","latitude":"36.59575","longitude":"-4.63728","feature_class":"P","feature_code":"PPLA3","country_code":"ES","cc2":"","admin1_code":"51","admin2_code":"MA","admin3_code":"29070","admin4_code":"","population":"73787","elevation":"","dem":"418","timezone":"Europe/Madrid","modification_date":"2012-03-04"},{"geonameid":"2513885","name":"Miguelturra","asciiname":"Miguelturra","alternatenames":"Migel'turra,Miguelturra,mi ge er tu la,myghwyltwra,Мигельтурра,Мігельтурра,ميغويلتورا,米格尔图拉","latitude":"38.96442","longitude":"-3.89047","feature_class":"P","feature_code":"PPL","country_code":"ES","cc2":"","admin1_code":"54","admin2_code":"CR","admin3_code":"13013","admin4_code":"","population":"13986","elevation":"","dem":"631","timezone":"Europe/Madrid","modification_date":"2012-01-19"},{"geonameid":"2513886","name":"Miguel Esteban","asciiname":"Miguel Esteban","alternatenames":"Miguel Esteban","latitude":"39.52448","longitude":"-3.07618","feature_class":"P","feature_code":"PPLA3","country_code":"ES","cc2":"","admin1_code":"54","admin2_code":"TO","admin3_code":"45101","admin4_code":"","population":"5170","elevation":"","dem":"681","timezone":"Europe/Madrid","modification_date":"2012-03-04"},{"geonameid":"2513893","name":"Miajadas","asciiname":"Miajadas","alternatenames":"M'jakhadas,Miajadas,Miajas,Miajás,Miakhadas,mi ya ha da si,myakhadas,Мьяхадас,Міахадас,مياخاداس,米亚哈达斯","latitude":"39.15127","longitude":"-5.90841","feature_class":"P","feature_code":"PPLA3","country_code":"ES","cc2":"","admin1_code":"57","admin2_code":"CC","admin3_code":"10121","admin4_code":"","population":"10338","elevation":"","dem":"298","timezone":"Europe/Madrid","modification_date":"2012-03-04"},{"geonameid":"2513902","name":"Mestanza","asciiname":"Mestanza","alternatenames":"Mestanza","latitude":"38.57616","longitude":"-4.07096","feature_class":"P","feature_code":"PPLA3","country_code":"ES","cc2":"","admin1_code":"54","admin2_code":"CR","admin3_code":"13055","admin4_code":"","population":"801","elevation":"","dem":"736","timezone":"Europe/Madrid","modification_date":"2012-03-04"},{"geonameid":"2513910","name":"Mesas de Ibor","asciiname":"Mesas de Ibor","alternatenames":"Mesas de Ibor","latitude":"39.75587","longitude":"-5.54637","feature_class":"P","feature_code":"PPLA3","country_code":"ES","cc2":"","admin1_code":"57","admin2_code":"CC","admin3_code":"10120","admin4_code":"","population":"206","elevation":"","dem":"486","timezone":"Europe/Madrid","modification_date":"2012-03-04"},{"geonameid":"2513917","name":"Mérida","asciiname":"Merida","alternatenames":"Emerita Augusta,Merida,Merido,Mérida,QWX,merida,mryda,mrydh,Мерида,מרידה,مریدا,メリダ","latitude":"38.91611","longitude":"-6.34366","feature_class":"P","feature_code":"PPLA","country_code":"ES","cc2":"","admin1_code":"57","admin2_code":"BA","admin3_code":"06083","admin4_code":"","population":"56395","elevation":"","dem":"229","timezone":"Europe/Madrid","modification_date":"2013-08-10"},{"geonameid":"2513922","name":"Mercadal","asciiname":"Mercadal","alternatenames":"","latitude":"39.99014","longitude":"4.09387","feature_class":"P","feature_code":"PPLA3","country_code":"ES","cc2":"","admin1_code":"07","admin2_code":"PM","admin3_code":"07037","admin4_code":"","population":"4063","elevation":"","dem":"63","timezone":"Europe/Madrid","modification_date":"2014-01-07"},{"geonameid":"2513931","name":"Mengibar","asciiname":"Mengibar","alternatenames":"Mengibar","latitude":"37.96978","longitude":"-3.80884","feature_class":"P","feature_code":"PPL","country_code":"ES","cc2":"","admin1_code":"51","admin2_code":"J","admin3_code":"23061","admin4_code":"","population":"8999","elevation":"","dem":"304","timezone":"Europe/Madrid","modification_date":"2012-01-19"},{"geonameid":"2513932","name":"Mengabril","asciiname":"Mengabril","alternatenames":"Mengabril","latitude":"38.93554","longitude":"-5.93335","feature_class":"P","feature_code":"PPLA3","country_code":"ES","cc2":"","admin1_code":"57","admin2_code":"BA","admin3_code":"06082","admin4_code":"","population":"457","elevation":"","dem":"253","timezone":"Europe/Madrid","modification_date":"2012-03-04"},{"geonameid":"2513935","name":"Menasalbas","asciiname":"Menasalbas","alternatenames":"Menasalbas","latitude":"39.63954","longitude":"-4.28418","feature_class":"P","feature_code":"PPL","country_code":"ES","cc2":"","admin1_code":"54","admin2_code":"TO","admin3_code":"45182","admin4_code":"","population":"2978","elevation":"","dem":"709","timezone":"Europe/Madrid","modification_date":"2012-01-19"},{"geonameid":"2513944","name":"Membrilla","asciiname":"Membrilla","alternatenames":"Membrilla","latitude":"38.97198","longitude":"-3.3433","feature_class":"P","feature_code":"PPL","country_code":"ES","cc2":"","admin1_code":"54","admin2_code":"CR","admin3_code":"13053","admin4_code":"","population":"6466","elevation":"","dem":"671","timezone":"Europe/Madrid","modification_date":"2012-01-19"},{"geonameid":"2513947","name":"Melilla","asciiname":"Melilla","alternatenames":"Ciudad Autonoma de Melilla,Ciudad Autónoma de Melilla,Ciudad de Melilla,Korisnik:Slaven Kosanovic/Melila,Lungsod ng Melilla,M'lila,MLN,Melil'ja,Melila,Melilla,Melilo,Melilya,Meliya,Millela,Rusaddir,Rusadir,Russadir,me li ya,mei li li ya,melilia,melliya,merirya,mlylyh,mlylyt,mlyyh,Корисник:Славен Косановић/Мелиља,Мелила,Мелилья,Мелиља,מלייה,مليلية,ملیلیه,เมลียา,მელილია,メリリャ,梅利利亚,멜리야","latitude":"35.29369","longitude":"-2.93833","feature_class":"P","feature_code":"PPLA","country_code":"ES","cc2":"","admin1_code":"ML","admin2_code":"ME","admin3_code":"52001","admin4_code":"","population":"73460","elevation":"","dem":"14","timezone":"Africa/Ceuta","modification_date":"2012-04-29"},{"geonameid":"2513949","name":"Meliana","asciiname":"Meliana","alternatenames":"Meliana","latitude":"39.53333","longitude":"-0.33333","feature_class":"P","feature_code":"PPLA3","country_code":"ES","cc2":"","admin1_code":"60","admin2_code":"V","admin3_code":"46166","admin4_code":"","population":"10395","elevation":"","dem":"7","timezone":"Europe/Madrid","modification_date":"2012-03-04"},{"geonameid":"2513961","name":"Medina Sidonia","asciiname":"Medina Sidonia","alternatenames":"Medina Sidonia,Medina-Sidonia","latitude":"36.45695","longitude":"-5.92717","feature_class":"P","feature_code":"PPL","country_code":"ES","cc2":"","admin1_code":"51","admin2_code":"CA","admin3_code":"11023","admin4_code":"","population":"11683","elevation":"","dem":"268","timezone":"Europe/Madrid","modification_date":"2012-01-19"},{"geonameid":"2513962","name":"Medina de las Torres","asciiname":"Medina de las Torres","alternatenames":"Medina de las Torres","latitude":"38.33333","longitude":"-6.4","feature_class":"P","feature_code":"PPLA3","country_code":"ES","cc2":"","admin1_code":"57","admin2_code":"BA","admin3_code":"06081","admin4_code":"","population":"1398","elevation":"","dem":"502","timezone":"Europe/Madrid","modification_date":"2012-03-04"},{"geonameid":"2513968","name":"Medellín","asciiname":"Medellin","alternatenames":"Medellin,Medellín","latitude":"38.96265","longitude":"-5.95785","feature_class":"P","feature_code":"PPLA3","country_code":"ES","cc2":"","admin1_code":"57","admin2_code":"BA","admin3_code":"06080","admin4_code":"","population":"2357","elevation":"","dem":"251","timezone":"Europe/Madrid","modification_date":"2012-03-04"},{"geonameid":"2513978","name":"Mazo","asciiname":"Mazo","alternatenames":"El Pueblo,Mazo","latitude":"28.60906","longitude":"-17.77801","feature_class":"P","feature_code":"PPL","country_code":"ES","cc2":"","admin1_code":"53","admin2_code":"TF","admin3_code":"38053","admin4_code":"","population":"4805","elevation":"","dem":"464","timezone":"Atlantic/Canary","modification_date":"2012-01-19"},{"geonameid":"2513983","name":"Mazarrón","asciiname":"Mazarron","alternatenames":"Masarron,Mazarron,Mazarrón,Масаррон","latitude":"37.5992","longitude":"-1.31493","feature_class":"P","feature_code":"PPLA3","country_code":"ES","cc2":"","admin1_code":"31","admin2_code":"MU","admin3_code":"30026","admin4_code":"","population":"35221","elevation":"","dem":"66","timezone":"Europe/Madrid","modification_date":"2012-03-04"},{"geonameid":"2513985","name":"Mazarambroz","asciiname":"Mazarambroz","alternatenames":"","latitude":"39.69411","longitude":"-4.01962","feature_class":"P","feature_code":"PPLA3","country_code":"ES","cc2":"","admin1_code":"54","admin2_code":"TO","admin3_code":"45096","admin4_code":"","population":"1331","elevation":"","dem":"778","timezone":"Europe/Madrid","modification_date":"2012-03-04"},{"geonameid":"2513986","name":"Mazagón","asciiname":"Mazagon","alternatenames":"Caserio Marzagon,Caserío Marzagón,Marzagon,Marzagón,Mazagon,Mazagón","latitude":"37.11417","longitude":"-6.76444","feature_class":"P","feature_code":"PPL","country_code":"ES","cc2":"ES","admin1_code":"51","admin2_code":"H","admin3_code":"21055","admin4_code":"","population":"4000","elevation":"","dem":"49","timezone":"Europe/Madrid","modification_date":"2013-05-05"},{"geonameid":"2514004","name":"Matet","asciiname":"Matet","alternatenames":"Matet","latitude":"39.93333","longitude":"-0.46667","feature_class":"P","feature_code":"PPLA3","country_code":"ES","cc2":"","admin1_code":"60","admin2_code":"CS","admin3_code":"12076","admin4_code":"","population":"132","elevation":"","dem":"617","timezone":"Europe/Madrid","modification_date":"2012-03-04"},{"geonameid":"2514032","name":"Mata de Alcántara","asciiname":"Mata de Alcantara","alternatenames":"Mata de Alcantara,Mata de Alcántara","latitude":"39.71738","longitude":"-6.81825","feature_class":"P","feature_code":"PPLA3","country_code":"ES","cc2":"","admin1_code":"57","admin2_code":"CC","admin3_code":"10118","admin4_code":"","population":"315","elevation":"","dem":"336","timezone":"Europe/Madrid","modification_date":"2012-03-04"},{"geonameid":"2514042","name":"Maspalomas","asciiname":"Maspalomas","alternatenames":"Maspalomas,Maspalomasos,Маспаломас","latitude":"27.76056","longitude":"-15.58602","feature_class":"P","feature_code":"PPL","country_code":"ES","cc2":"","admin1_code":"53","admin2_code":"GC","admin3_code":"35019","admin4_code":"","population":"33000","elevation":"","dem":"32","timezone":"Atlantic/Canary","modification_date":"2013-11-20"},{"geonameid":"2514052","name":"Masegoso","asciiname":"Masegoso","alternatenames":"Masegoso","latitude":"38.71833","longitude":"-2.3161","feature_class":"P","feature_code":"PPLA3","country_code":"ES","cc2":"","admin1_code":"54","admin2_code":"AB","admin3_code":"02047","admin4_code":"","population":"127","elevation":"","dem":"1107","timezone":"Europe/Madrid","modification_date":"2012-03-04"},{"geonameid":"2514061","name":"Mascaraque","asciiname":"Mascaraque","alternatenames":"Mascaraque","latitude":"39.71643","longitude":"-3.81254","feature_class":"P","feature_code":"PPLA3","country_code":"ES","cc2":"","admin1_code":"54","admin2_code":"TO","admin3_code":"45094","admin4_code":"","population":"475","elevation":"","dem":"714","timezone":"Europe/Madrid","modification_date":"2012-03-04"},{"geonameid":"2514066","name":"Massamagrell","asciiname":"Massamagrell","alternatenames":"Masamgrell","latitude":"39.56667","longitude":"-0.33333","feature_class":"P","feature_code":"PPLA3","country_code":"ES","cc2":"","admin1_code":"60","admin2_code":"V","admin3_code":"46164","admin4_code":"","population":"15210","elevation":"","dem":"18","timezone":"Europe/Madrid","modification_date":"2012-03-04"},{"geonameid":"2514068","name":"Masalavés","asciiname":"Masalaves","alternatenames":"Masalaves,Masalavés,Massalaves,Massalavés","latitude":"39.14377","longitude":"-0.5226","feature_class":"P","feature_code":"PPLA3","country_code":"ES","cc2":"","admin1_code":"60","admin2_code":"V","admin3_code":"46162","admin4_code":"","population":"1535","elevation":"","dem":"36","timezone":"Europe/Madrid","modification_date":"2012-03-04"},{"geonameid":"2514073","name":"Martos","asciiname":"Martos","alternatenames":"Martos,ma er tuo si,marts,martws,martws  khayn,Мартос,مارتس,مارتوس,مارتوس، خاين,马尔托斯","latitude":"37.72107","longitude":"-3.97264","feature_class":"P","feature_code":"PPLA3","country_code":"ES","cc2":"","admin1_code":"51","admin2_code":"J","admin3_code":"23060","admin4_code":"","population":"24655","elevation":"","dem":"661","timezone":"Europe/Madrid","modification_date":"2012-03-04"},{"geonameid":"2514084","name":"Martín de la Jara","asciiname":"Martin de la Jara","alternatenames":"Martin de la Jara,Martín de la Jara","latitude":"37.10867","longitude":"-4.96347","feature_class":"P","feature_code":"PPLA3","country_code":"ES","cc2":"","admin1_code":"51","admin2_code":"SE","admin3_code":"41062","admin4_code":"","population":"2783","elevation":"","dem":"408","timezone":"Europe/Madrid","modification_date":"2012-03-04"},{"geonameid":"2514097","name":"Marratxí","asciiname":"Marratxi","alternatenames":"Marrachi,Marratxi,Marratxí,Маррачи","latitude":"39.62142","longitude":"2.7253","feature_class":"P","feature_code":"PPLA3","country_code":"ES","cc2":"","admin1_code":"07","admin2_code":"PM","admin3_code":"07036","admin4_code":"","population":"33348","elevation":"","dem":"72","timezone":"Europe/Madrid","modification_date":"2015-10-27"},{"geonameid":"2514107","name":"Marmolejo","asciiname":"Marmolejo","alternatenames":"Aebura,Ipora,Marmolejo,Marmolekho,Marmolexo,ma er mo lai huo,marmlkhw,marmwlykhw,Мармолехо,Մարմոլեխո,مارملخو,مارموليخو,马尔莫莱霍","latitude":"38.04549","longitude":"-4.17029","feature_class":"P","feature_code":"PPLA3","country_code":"ES","cc2":"","admin1_code":"51","admin2_code":"J","admin3_code":"23059","admin4_code":"","population":"7643","elevation":"","dem":"248","timezone":"Europe/Madrid","modification_date":"2012-08-13"},{"geonameid":"2514111","name":"Marjaliza","asciiname":"Marjaliza","alternatenames":"","latitude":"39.56329","longitude":"-3.93499","feature_class":"P","feature_code":"PPLA3","country_code":"ES","cc2":"","admin1_code":"54","admin2_code":"TO","admin3_code":"45092","admin4_code":"","population":"300","elevation":"","dem":"857","timezone":"Europe/Madrid","modification_date":"2012-03-04"},{"geonameid":"2514117","name":"Marines","asciiname":"Marines","alternatenames":"Marines,Marines el Viejo","latitude":"39.74165","longitude":"-0.53103","feature_class":"P","feature_code":"PPL","country_code":"ES","cc2":"","admin1_code":"60","admin2_code":"V","admin3_code":"46161","admin4_code":"","population":"1464","elevation":"","dem":"443","timezone":"Europe/Madrid","modification_date":"2015-04-28"},{"geonameid":"2514120","name":"Marinaleda","asciiname":"Marinaleda","alternatenames":"Marinaleda,ma li na lai da,Мариналеда,Маріналеда,马里纳莱达","latitude":"37.3712","longitude":"-4.95949","feature_class":"P","feature_code":"PPLA3","country_code":"ES","cc2":"","admin1_code":"51","admin2_code":"SE","admin3_code":"41061","admin4_code":"","population":"2698","elevation":"","dem":"204","timezone":"Europe/Madrid","modification_date":"2012-03-04"},{"geonameid":"2514134","name":"Maria de la Salut","asciiname":"Maria de la Salut","alternatenames":"Maria,Maria de la Salut","latitude":"39.66306","longitude":"3.073","feature_class":"P","feature_code":"PPLA3","country_code":"ES","cc2":"","admin1_code":"07","admin2_code":"PM","admin3_code":"07035","admin4_code":"","population":"2118","elevation":"","dem":"114","timezone":"Europe/Madrid","modification_date":"2012-03-04"},{"geonameid":"2514139","name":"María","asciiname":"Maria","alternatenames":"Maria,María","latitude":"37.71023","longitude":"-2.16454","feature_class":"P","feature_code":"PPLA3","country_code":"ES","cc2":"","admin1_code":"51","admin2_code":"AL","admin3_code":"04063","admin4_code":"","population":"1560","elevation":"","dem":"1200","timezone":"Europe/Madrid","modification_date":"2012-03-04"},{"geonameid":"2514158","name":"Marchena","asciiname":"Marchena","alternatenames":"Marchena","latitude":"37.329","longitude":"-5.41681","feature_class":"P","feature_code":"PPLA3","country_code":"ES","cc2":"","admin1_code":"51","admin2_code":"SE","admin3_code":"41060","admin4_code":"","population":"19768","elevation":"","dem":"131","timezone":"Europe/Madrid","modification_date":"2012-03-04"},{"geonameid":"2514163","name":"Marchal","asciiname":"Marchal","alternatenames":"Marchal","latitude":"37.29639","longitude":"-3.20353","feature_class":"P","feature_code":"PPLA3","country_code":"ES","cc2":"","admin1_code":"51","admin2_code":"GR","admin3_code":"18128","admin4_code":"","population":"377","elevation":"","dem":"937","timezone":"Europe/Madrid","modification_date":"2012-03-04"},{"geonameid":"2514169","name":"Marbella","asciiname":"Marbella","alternatenames":"Gorad Marbellja,Marbel'ja,Marbela,Marbelja,Marbella,Marbelya,Marvegia,QRL,ma bei la,maleubeya,marbella,marbla,marbya,marbyla,maruberya,Μαρβέγια,Горад Марбелля,Марбeлья,Марбелья,Марбеля,Марбеља,Մարբելյա,ماربلا,ماربيا,ماربيلا,ماربیا,मार्बेल्ला,マルベーリャ,马贝拉,마르베야","latitude":"36.51543","longitude":"-4.88583","feature_class":"P","feature_code":"PPLA3","country_code":"ES","cc2":"","admin1_code":"51","admin2_code":"MA","admin3_code":"29069","admin4_code":"","population":"134623","elevation":"","dem":"57","timezone":"Europe/Madrid","modification_date":"2015-04-14"},{"geonameid":"2514176","name":"Maracena","asciiname":"Maracena","alternatenames":"","latitude":"37.20764","longitude":"-3.63493","feature_class":"P","feature_code":"PPLA3","country_code":"ES","cc2":"","admin1_code":"51","admin2_code":"GR","admin3_code":"18127","admin4_code":"","population":"20815","elevation":"","dem":"662","timezone":"Europe/Madrid","modification_date":"2012-03-04"},{"geonameid":"2514185","name":"Manzanilla","asciiname":"Manzanilla","alternatenames":"Manzanilla","latitude":"37.38987","longitude":"-6.43295","feature_class":"P","feature_code":"PPLA3","country_code":"ES","cc2":"","admin1_code":"51","admin2_code":"H","admin3_code":"21047","admin4_code":"","population":"2408","elevation":"","dem":"169","timezone":"Europe/Madrid","modification_date":"2012-03-04"},{"geonameid":"2514189","name":"Manzaneque","asciiname":"Manzaneque","alternatenames":"Manzaneque","latitude":"39.63549","longitude":"-3.79249","feature_class":"P","feature_code":"PPLA3","country_code":"ES","cc2":"","admin1_code":"54","admin2_code":"TO","admin3_code":"45090","admin4_code":"","population":"523","elevation":"","dem":"719","timezone":"Europe/Madrid","modification_date":"2012-03-04"},{"geonameid":"2514190","name":"Manzanares","asciiname":"Manzanares","alternatenames":"Manzanares,Manzanarre","latitude":"38.99915","longitude":"-3.36991","feature_class":"P","feature_code":"PPLA3","country_code":"ES","cc2":"","admin1_code":"54","admin2_code":"CR","admin3_code":"13053","admin4_code":"","population":"19186","elevation":"","dem":"666","timezone":"Europe/Madrid","modification_date":"2012-03-04"},{"geonameid":"2514192","name":"Manuel","asciiname":"Manuel","alternatenames":"Manuel","latitude":"39.05059","longitude":"-0.48978","feature_class":"P","feature_code":"PPLA3","country_code":"ES","cc2":"","admin1_code":"60","admin2_code":"V","admin3_code":"46160","admin4_code":"","population":"2497","elevation":"","dem":"63","timezone":"Europe/Madrid","modification_date":"2012-03-04"},{"geonameid":"2514197","name":"Manises","asciiname":"Manises","alternatenames":"Manises,Манисес","latitude":"39.49139","longitude":"-0.46349","feature_class":"P","feature_code":"PPLA3","country_code":"ES","cc2":"","admin1_code":"60","admin2_code":"V","admin3_code":"46159","admin4_code":"","population":"30508","elevation":"","dem":"55","timezone":"Europe/Madrid","modification_date":"2012-03-04"},{"geonameid":"2514199","name":"Manilva","asciiname":"Manilva","alternatenames":"","latitude":"36.37645","longitude":"-5.25026","feature_class":"P","feature_code":"PPLA3","country_code":"ES","cc2":"","admin1_code":"51","admin2_code":"MA","admin3_code":"29068","admin4_code":"","population":"13813","elevation":"","dem":"132","timezone":"Europe/Madrid","modification_date":"2012-03-04"},{"geonameid":"2514203","name":"Mancor de la Vall","asciiname":"Mancor de la Vall","alternatenames":"Mancor,Mancor de la Vall","latitude":"39.74966","longitude":"2.87284","feature_class":"P","feature_code":"PPLA3","country_code":"ES","cc2":"","admin1_code":"07","admin2_code":"PM","admin3_code":"07034","admin4_code":"","population":"980","elevation":"","dem":"208","timezone":"Europe/Madrid","modification_date":"2012-03-04"},{"geonameid":"2514207","name":"Manchita","asciiname":"Manchita","alternatenames":"Manchita","latitude":"38.81404","longitude":"-6.02041","feature_class":"P","feature_code":"PPLA3","country_code":"ES","cc2":"","admin1_code":"57","admin2_code":"BA","admin3_code":"06079","admin4_code":"","population":"748","elevation":"","dem":"346","timezone":"Europe/Madrid","modification_date":"2012-03-04"},{"geonameid":"2514211","name":"Mancha Real","asciiname":"Mancha Real","alternatenames":"Mancha Real","latitude":"37.78627","longitude":"-3.61226","feature_class":"P","feature_code":"PPLA3","country_code":"ES","cc2":"","admin1_code":"51","admin2_code":"J","admin3_code":"23058","admin4_code":"","population":"10972","elevation":"","dem":"756","timezone":"Europe/Madrid","modification_date":"2012-03-04"},{"geonameid":"2514216","name":"Manacor","asciiname":"Manacor","alternatenames":"Manacor,Manakor,Манакор","latitude":"39.56964","longitude":"3.20955","feature_class":"P","feature_code":"PPLA3","country_code":"ES","cc2":"","admin1_code":"07","admin2_code":"PM","admin3_code":"07033","admin4_code":"","population":"40548","elevation":"125","dem":"91","timezone":"Europe/Madrid","modification_date":"2011-07-31"},{"geonameid":"2514219","name":"Malpica","asciiname":"Malpica","alternatenames":"Malpica","latitude":"39.89746","longitude":"-4.54988","feature_class":"P","feature_code":"PPL","country_code":"ES","cc2":"","admin1_code":"54","admin2_code":"TO","admin3_code":"45037","admin4_code":"","population":"1971","elevation":"","dem":"398","timezone":"Europe/Madrid","modification_date":"2012-02-02"},{"geonameid":"2514225","name":"Malpartida de Plasencia","asciiname":"Malpartida de Plasencia","alternatenames":"Mal'partida-de-Plasensia,Mal'partida-de-Plasensija,ma er pa er di da de pu la sen xi ya,malbartyda dy blasynthya,Мальпартида-де-Пласенсиа,Мальпартіда-де-Пласенсія,مالبارتيدا دي بلاسينثيا,马尔帕尔蒂达德普拉森西亚","latitude":"39.97962","longitude":"-6.04609","feature_class":"P","feature_code":"PPLA3","country_code":"ES","cc2":"","admin1_code":"57","admin2_code":"CC","admin3_code":"10116","admin4_code":"","population":"4275","elevation":"","dem":"457","timezone":"Europe/Madrid","modification_date":"2012-03-04"},{"geonameid":"2514226","name":"Malpartida de la Serena","asciiname":"Malpartida de la Serena","alternatenames":"Malpartida de la Serena","latitude":"38.6747","longitude":"-5.64054","feature_class":"P","feature_code":"PPLA3","country_code":"ES","cc2":"","admin1_code":"57","admin2_code":"BA","admin3_code":"06078","admin4_code":"","population":"724","elevation":"","dem":"481","timezone":"Europe/Madrid","modification_date":"2012-03-04"},{"geonameid":"2514227","name":"Malpartida de Cáceres","asciiname":"Malpartida de Caceres","alternatenames":"Mal'partida-de-Kaseres,Malpartida de Caceres,Malpartida de Cáceres,ma er pa er di da de ka sai lei si,malbartyda dy qsrsh,Мальпартида-де-Касерес,Мальпартіда-де-Касерес,مالبارتيدا دي قصرش,马尔帕尔蒂达德卡塞雷斯","latitude":"39.44664","longitude":"-6.5076","feature_class":"P","feature_code":"PPLA3","country_code":"ES","cc2":"","admin1_code":"57","admin2_code":"CC","admin3_code":"10115","admin4_code":"","population":"4369","elevation":"","dem":"371","timezone":"Europe/Madrid","modification_date":"2012-03-04"},{"geonameid":"2514243","name":"Malcocinado","asciiname":"Malcocinado","alternatenames":"Malcocinado","latitude":"38.11667","longitude":"-5.68333","feature_class":"P","feature_code":"PPLA3","country_code":"ES","cc2":"","admin1_code":"57","admin2_code":"BA","admin3_code":"06077","admin4_code":"","population":"484","elevation":"","dem":"638","timezone":"Europe/Madrid","modification_date":"2012-03-04"},{"geonameid":"2514252","name":"Malagón","asciiname":"Malagon","alternatenames":"Malagon,Malagón,ma la gong,malajwn  sywdad ryal,Малагон,مالاجون، سيوداد ريال,马拉贡","latitude":"39.16668","longitude":"-3.85419","feature_class":"P","feature_code":"PPLA3","country_code":"ES","cc2":"","admin1_code":"54","admin2_code":"CR","admin3_code":"13052","admin4_code":"","population":"7923","elevation":"","dem":"638","timezone":"Europe/Madrid","modification_date":"2012-03-04"},{"geonameid":"2514256","name":"Málaga","asciiname":"Malaga","alternatenames":"AGP,Gorad Malaga,Malaca,Malaga,Malagae,Malago,Malaqa,Màlaga,Málaga,ma la jia,malaga,malaja,malaka,malga,mallaga,malqt,maraga,mlqt,Μάλαγα,Горад Малага,Малагæ,Малага,Մալագա,מאלגה,מלאגה,مالاجا,مالاگا,مالقة,مالگا,ملقة,مەلەگا,मलागा,மாலாகா,มาลากา,მალაგა,マラガ,馬拉加,马拉加,말라가","latitude":"36.72016","longitude":"-4.42034","feature_class":"P","feature_code":"PPLA2","country_code":"ES","cc2":"","admin1_code":"51","admin2_code":"MA","admin3_code":"29067","admin4_code":"","population":"568305","elevation":"","dem":"22","timezone":"Europe/Madrid","modification_date":"2011-06-16"},{"geonameid":"2514279","name":"Majadas","asciiname":"Majadas","alternatenames":"Majadas","latitude":"39.94291","longitude":"-5.74589","feature_class":"P","feature_code":"PPLA3","country_code":"ES","cc2":"","admin1_code":"57","admin2_code":"CC","admin3_code":"10114","admin4_code":"","population":"1428","elevation":"","dem":"266","timezone":"Europe/Madrid","modification_date":"2012-03-04"},{"geonameid":"2514287","name":"Mairena del Aljarafe","asciiname":"Mairena del Aljarafe","alternatenames":"Aljarafe,Mairena del Aljarafe,Majrena-del'-Al'kharafe,mai lei na de la er ha la fei,Майрена-дель-Альхарафе,迈雷纳德拉尔哈拉费","latitude":"37.34461","longitude":"-6.06391","feature_class":"P","feature_code":"PPLA3","country_code":"ES","cc2":"","admin1_code":"51","admin2_code":"SE","admin3_code":"41059","admin4_code":"","population":"40700","elevation":"","dem":"70","timezone":"Europe/Madrid","modification_date":"2012-03-04"},{"geonameid":"2514288","name":"Mairena del Alcor","asciiname":"Mairena del Alcor","alternatenames":"Mairano del Alcor,Mairena del Alcor,Maireno del Alcor","latitude":"37.37301","longitude":"-5.74951","feature_class":"P","feature_code":"PPLA3","country_code":"ES","cc2":"","admin1_code":"51","admin2_code":"SE","admin3_code":"41058","admin4_code":"","population":"20510","elevation":"","dem":"135","timezone":"Europe/Madrid","modification_date":"2012-03-04"},{"geonameid":"2514297","name":"Mahora","asciiname":"Mahora","alternatenames":"Mahora","latitude":"39.21667","longitude":"-1.73333","feature_class":"P","feature_code":"PPLA3","country_code":"ES","cc2":"","admin1_code":"54","admin2_code":"AB","admin3_code":"02046","admin4_code":"","population":"1346","elevation":"","dem":"669","timezone":"Europe/Madrid","modification_date":"2012-03-04"},{"geonameid":"2514301","name":"Maó","asciiname":"Mao","alternatenames":"Mahon,Mahón,Mao,Maó,Мао","latitude":"39.88853","longitude":"4.26583","feature_class":"P","feature_code":"PPLA3","country_code":"ES","cc2":"","admin1_code":"07","admin2_code":"PM","admin3_code":"07032","admin4_code":"","population":"29125","elevation":"","dem":"39","timezone":"Europe/Madrid","modification_date":"2012-04-29"},{"geonameid":"2514304","name":"Maguilla","asciiname":"Maguilla","alternatenames":"Maguilla","latitude":"38.36667","longitude":"-5.83333","feature_class":"P","feature_code":"PPLA3","country_code":"ES","cc2":"","admin1_code":"57","admin2_code":"BA","admin3_code":"06076","admin4_code":"","population":"1112","elevation":"","dem":"546","timezone":"Europe/Madrid","modification_date":"2012-03-04"},{"geonameid":"2514314","name":"Magán","asciiname":"Magan","alternatenames":"Magan,Magán","latitude":"39.96138","longitude":"-3.93164","feature_class":"P","feature_code":"PPLA3","country_code":"ES","cc2":"","admin1_code":"54","admin2_code":"TO","admin3_code":"45088","admin4_code":"","population":"1668","elevation":"","dem":"488","timezone":"Europe/Madrid","modification_date":"2012-03-04"},{"geonameid":"2514316","name":"Magacela","asciiname":"Magacela","alternatenames":"Magacela","latitude":"38.89648","longitude":"-5.73437","feature_class":"P","feature_code":"PPLA3","country_code":"ES","cc2":"","admin1_code":"57","admin2_code":"BA","admin3_code":"06075","admin4_code":"","population":"670","elevation":"","dem":"456","timezone":"Europe/Madrid","modification_date":"2012-03-04"},{"geonameid":"2514324","name":"Madroñera","asciiname":"Madronera","alternatenames":"Madronera,Madroñera","latitude":"39.42526","longitude":"-5.75568","feature_class":"P","feature_code":"PPLA3","country_code":"ES","cc2":"","admin1_code":"57","admin2_code":"CC","admin3_code":"10113","admin4_code":"","population":"2929","elevation":"","dem":"591","timezone":"Europe/Madrid","modification_date":"2012-03-04"},{"geonameid":"2514332","name":"Madrigueras","asciiname":"Madrigueras","alternatenames":"Madriguera,Madrigueras","latitude":"39.23333","longitude":"-1.8","feature_class":"P","feature_code":"PPLA3","country_code":"ES","cc2":"","admin1_code":"54","admin2_code":"AB","admin3_code":"02045","admin4_code":"","population":"4606","elevation":"","dem":"690","timezone":"Europe/Madrid","modification_date":"2012-03-04"},{"geonameid":"2514333","name":"Madrigalejo","asciiname":"Madrigalejo","alternatenames":"","latitude":"39.13858","longitude":"-5.6274","feature_class":"P","feature_code":"PPLA3","country_code":"ES","cc2":"","admin1_code":"57","admin2_code":"CC","admin3_code":"10112","admin4_code":"","population":"2093","elevation":"","dem":"297","timezone":"Europe/Madrid","modification_date":"2012-03-04"},{"geonameid":"2514334","name":"Madridejos","asciiname":"Madridejos","alternatenames":"Madridejos,Madridekhos,Madridexos,ma de li de huo si,madrydkhs,Мадридехос,Мадрідехос,Մադրիդեխոս,مادریدخس,马德里德霍斯","latitude":"39.46823","longitude":"-3.53196","feature_class":"P","feature_code":"PPLA3","country_code":"ES","cc2":"","admin1_code":"54","admin2_code":"TO","admin3_code":"45087","admin4_code":"","population":"11404","elevation":"","dem":"693","timezone":"Europe/Madrid","modification_date":"2012-03-04"},{"geonameid":"2514359","name":"Macastre","asciiname":"Macastre","alternatenames":"Macastre","latitude":"39.38333","longitude":"-0.78333","feature_class":"P","feature_code":"PPLA3","country_code":"ES","cc2":"","admin1_code":"60","admin2_code":"V","admin3_code":"46158","admin4_code":"","population":"1137","elevation":"","dem":"361","timezone":"Europe/Madrid","modification_date":"2012-03-04"},{"geonameid":"2514360","name":"Macael","asciiname":"Macael","alternatenames":"Macael,Makaehl',Makael,Makael',ma kai er,makayl,Макаел,Макаель,Макаэль,ماكايل,ماکائل,马凯尔","latitude":"37.33318","longitude":"-2.30087","feature_class":"P","feature_code":"PPLA3","country_code":"ES","cc2":"","admin1_code":"51","admin2_code":"AL","admin3_code":"04062","admin4_code":"","population":"6090","elevation":"","dem":"589","timezone":"Europe/Madrid","modification_date":"2012-03-04"},{"geonameid":"2514367","name":"Luque","asciiname":"Luque","alternatenames":"Luque","latitude":"37.55797","longitude":"-4.27974","feature_class":"P","feature_code":"PPL","country_code":"ES","cc2":"","admin1_code":"51","admin2_code":"CO","admin3_code":"14055","admin4_code":"","population":"3253","elevation":"","dem":"679","timezone":"Europe/Madrid","modification_date":"2012-01-19"},{"geonameid":"2514369","name":"Lupión","asciiname":"Lupion","alternatenames":"Lupion,Lupión","latitude":"37.99653","longitude":"-3.54699","feature_class":"P","feature_code":"PPLA3","country_code":"ES","cc2":"","admin1_code":"51","admin2_code":"J","admin3_code":"23057","admin4_code":"","population":"1008","elevation":"","dem":"503","timezone":"Europe/Madrid","modification_date":"2012-03-04"},{"geonameid":"2514370","name":"Puerto Lumbreras","asciiname":"Puerto Lumbreras","alternatenames":"Lumbreras,Puehrto-Lumbreras,Puerto-Lumbreras,bwyrtw lwbryras,pu ai er tuo lun fu lei la si,Пуерто-Лумбрерас,Пуэрто-Лумбрерас,بويرتو لوبريراس,普埃尔托伦夫雷拉斯","latitude":"37.56329","longitude":"-1.80974","feature_class":"P","feature_code":"PPL","country_code":"ES","cc2":"","admin1_code":"31","admin2_code":"MU","admin3_code":"30024","admin4_code":"","population":"13947","elevation":"","dem":"475","timezone":"Europe/Madrid","modification_date":"2010-04-22"},{"geonameid":"2514371","name":"Lújar","asciiname":"Lujar","alternatenames":"Lujar,Lújar","latitude":"36.78831","longitude":"-3.404","feature_class":"P","feature_code":"PPLA3","country_code":"ES","cc2":"","admin1_code":"51","admin2_code":"GR","admin3_code":"18124","admin4_code":"","population":"500","elevation":"","dem":"564","timezone":"Europe/Madrid","modification_date":"2012-03-04"},{"geonameid":"2514373","name":"Lugros","asciiname":"Lugros","alternatenames":"Lugros","latitude":"37.22942","longitude":"-3.2415","feature_class":"P","feature_code":"PPLA3","country_code":"ES","cc2":"","admin1_code":"51","admin2_code":"GR","admin3_code":"18123","admin4_code":"","population":"366","elevation":"","dem":"1253","timezone":"Europe/Madrid","modification_date":"2012-03-04"},{"geonameid":"2514374","name":"Llocnou de Sant Jeroni","asciiname":"Llocnou de Sant Jeroni","alternatenames":"Llocnou de Sant Jeroni,Lugar Nuevo de San Jeronimo,Lugar Nuevo de San Jerónimo","latitude":"38.91667","longitude":"-0.28333","feature_class":"P","feature_code":"PPLA3","country_code":"ES","cc2":"","admin1_code":"60","admin2_code":"V","admin3_code":"46153","admin4_code":"","population":"568","elevation":"","dem":"136","timezone":"Europe/Madrid","modification_date":"2012-03-04"},{"geonameid":"2514383","name":"Lucillos","asciiname":"Lucillos","alternatenames":"Luc Villos,Lucillos","latitude":"39.9851","longitude":"-4.61279","feature_class":"P","feature_code":"PPLA3","country_code":"ES","cc2":"","admin1_code":"54","admin2_code":"TO","admin3_code":"45086","admin4_code":"","population":"483","elevation":"","dem":"481","timezone":"Europe/Madrid","modification_date":"2012-03-04"},{"geonameid":"2514386","name":"Llutxent","asciiname":"Llutxent","alternatenames":"Llutxent,Luchente","latitude":"38.93333","longitude":"-0.35","feature_class":"P","feature_code":"PPLA3","country_code":"ES","cc2":"","admin1_code":"60","admin2_code":"V","admin3_code":"46150","admin4_code":"","population":"2512","elevation":"","dem":"250","timezone":"Europe/Madrid","modification_date":"2012-03-04"},{"geonameid":"2514389","name":"Lucena del Puerto","asciiname":"Lucena del Puerto","alternatenames":"Lucena del Puerto","latitude":"37.30396","longitude":"-6.72926","feature_class":"P","feature_code":"PPL","country_code":"ES","cc2":"","admin1_code":"51","admin2_code":"H","admin3_code":"21053","admin4_code":"","population":"2543","elevation":"","dem":"87","timezone":"Europe/Madrid","modification_date":"2012-01-19"},{"geonameid":"2514392","name":"Lucena","asciiname":"Lucena","alternatenames":"","latitude":"37.40881","longitude":"-4.48522","feature_class":"P","feature_code":"PPLA3","country_code":"ES","cc2":"","admin1_code":"51","admin2_code":"CO","admin3_code":"14038","admin4_code":"","population":"42248","elevation":"","dem":"493","timezone":"Europe/Madrid","modification_date":"2012-03-04"},{"geonameid":"2514395","name":"Lúcar","asciiname":"Lucar","alternatenames":"Lucar,Lúcar","latitude":"37.40035","longitude":"-2.42496","feature_class":"P","feature_code":"PPLA3","country_code":"ES","cc2":"","admin1_code":"51","admin2_code":"AL","admin3_code":"04061","admin4_code":"","population":"802","elevation":"","dem":"889","timezone":"Europe/Madrid","modification_date":"2012-03-04"},{"geonameid":"2514396","name":"Lucainena de las Torres","asciiname":"Lucainena de las Torres","alternatenames":"Lucainena de las Torres","latitude":"37.04037","longitude":"-2.20095","feature_class":"P","feature_code":"PPLA3","country_code":"ES","cc2":"","admin1_code":"51","admin2_code":"AL","admin3_code":"04060","admin4_code":"","population":"603","elevation":"","dem":"560","timezone":"Europe/Madrid","modification_date":"2012-03-04"},{"geonameid":"2514399","name":"Lubrín","asciiname":"Lubrin","alternatenames":"Lubrin,Lubrín","latitude":"37.21538","longitude":"-2.06677","feature_class":"P","feature_code":"PPLA3","country_code":"ES","cc2":"","admin1_code":"51","admin2_code":"AL","admin3_code":"04059","admin4_code":"","population":"1687","elevation":"","dem":"519","timezone":"Europe/Madrid","modification_date":"2012-03-04"},{"geonameid":"2514406","name":"Los Yébenes","asciiname":"Los Yebenes","alternatenames":"Los Yebenes,Los Yébenes,Yebenes,Yébenes","latitude":"39.58158","longitude":"-3.87058","feature_class":"P","feature_code":"PPL","country_code":"ES","cc2":"","admin1_code":"54","admin2_code":"TO","admin3_code":"45200","admin4_code":"","population":"6224","elevation":"","dem":"823","timezone":"Europe/Madrid","modification_date":"2010-05-23"},{"geonameid":"2514452","name":"Los Silos","asciiname":"Los Silos","alternatenames":"Los Silos,Silos","latitude":"28.3661","longitude":"-16.81552","feature_class":"P","feature_code":"PPL","country_code":"ES","cc2":"","admin1_code":"53","admin2_code":"TF","admin3_code":"38042","admin4_code":"","population":"5586","elevation":"","dem":"98","timezone":"Atlantic/Canary","modification_date":"2008-01-22"},{"geonameid":"2514460","name":"Los Santos de Maimona","asciiname":"Los Santos de Maimona","alternatenames":"Los Santos,Los Santos de Maimona","latitude":"38.45","longitude":"-6.38333","feature_class":"P","feature_code":"PPL","country_code":"ES","cc2":"","admin1_code":"57","admin2_code":"BA","admin3_code":"06122","admin4_code":"","population":"7937","elevation":"","dem":"531","timezone":"Europe/Madrid","modification_date":"2012-01-19"},{"geonameid":"2514553","name":"Los Palacios y Villafranca","asciiname":"Los Palacios y Villafranca","alternatenames":"Los Palacios y Villafranca,Villafranca Los Palacios","latitude":"37.16181","longitude":"-5.92433","feature_class":"P","feature_code":"PPL","country_code":"ES","cc2":"","admin1_code":"51","admin2_code":"SE","admin3_code":"41069","admin4_code":"","population":"36824","elevation":"","dem":"13","timezone":"Europe/Madrid","modification_date":"2012-01-19"},{"geonameid":"2514573","name":"Los Navalucillos","asciiname":"Los Navalucillos","alternatenames":"Los Navalucillos","latitude":"39.66665","longitude":"-4.64205","feature_class":"P","feature_code":"PPL","country_code":"ES","cc2":"","admin1_code":"54","admin2_code":"TO","admin3_code":"45113","admin4_code":"","population":"2748","elevation":"","dem":"747","timezone":"Europe/Madrid","modification_date":"2012-01-19"},{"geonameid":"2514574","name":"Los Navalmorales","asciiname":"Los Navalmorales","alternatenames":"Los Navalmorales","latitude":"39.72526","longitude":"-4.64227","feature_class":"P","feature_code":"PPL","country_code":"ES","cc2":"","admin1_code":"54","admin2_code":"TO","admin3_code":"45112","admin4_code":"","population":"2759","elevation":"","dem":"667","timezone":"Europe/Madrid","modification_date":"2012-01-19"},{"geonameid":"2514593","name":"Los Montesinos","asciiname":"Los Montesinos","alternatenames":"Els Montesinos,Els Montesins,Los Montesinos,Los-Montesinos,Montesinos,luo si meng te xi nuo si,lws mwntsynws,Лос-Монтесинос,Лос-Монтесінос,لوس مونتسینوس,洛斯蒙特西诺斯","latitude":"38.02822","longitude":"-0.74501","feature_class":"P","feature_code":"PPL","country_code":"ES","cc2":"","admin1_code":"60","admin2_code":"A","admin3_code":"03903","admin4_code":"","population":"3194","elevation":"","dem":"24","timezone":"Europe/Madrid","modification_date":"2008-11-30"},{"geonameid":"2514601","name":"Los Molares","asciiname":"Los Molares","alternatenames":"Los Molares","latitude":"37.15704","longitude":"-5.71802","feature_class":"P","feature_code":"PPL","country_code":"ES","cc2":"","admin1_code":"51","admin2_code":"SE","admin3_code":"41063","admin4_code":"","population":"2838","elevation":"","dem":"84","timezone":"Europe/Madrid","modification_date":"2012-01-19"},{"geonameid":"2514651","name":"Los Llanos de Aridane","asciiname":"Los Llanos de Aridane","alternatenames":"Llanos de Aridane,Los Llanos,Los Llanos de Aridane,Los-L'janos-de-Aridane,luo si li ya nuo si de ya li da nei,lws yanws dy arydany,Лос-Льянос-де-Аридане,Лос-Льянос-де-Арідане,لوس يانوس دي أريداني,洛斯利亚诺斯德亚里达内","latitude":"28.65851","longitude":"-17.91821","feature_class":"P","feature_code":"PPL","country_code":"ES","cc2":"","admin1_code":"53","admin2_code":"TF","admin3_code":"38024","admin4_code":"","population":"20766","elevation":"","dem":"341","timezone":"Atlantic/Canary","modification_date":"2012-01-19"},{"geonameid":"2514687","name":"Los Hinojosos","asciiname":"Los Hinojosos","alternatenames":"Los Hinojosos","latitude":"39.60417","longitude":"-2.82572","feature_class":"P","feature_code":"PPL","country_code":"ES","cc2":"","admin1_code":"54","admin2_code":"CU","admin3_code":"16100","admin4_code":"","population":"1098","elevation":"","dem":"772","timezone":"Europe/Madrid","modification_date":"2012-01-19"},{"geonameid":"2514747","name":"Los Corrales","asciiname":"Los Corrales","alternatenames":"Los Corrales","latitude":"37.09918","longitude":"-4.98429","feature_class":"P","feature_code":"PPL","country_code":"ES","cc2":"","admin1_code":"51","admin2_code":"SE","admin3_code":"41037","admin4_code":"","population":"4077","elevation":"","dem":"377","timezone":"Europe/Madrid","modification_date":"2012-01-19"},{"geonameid":"2514824","name":"Los Barrios","asciiname":"Los Barrios","alternatenames":"Barrios,Los-Barrios,luo si ba li ao si,lws baryws,lws bryws,Лос-Барриос,Лос-Барріос,לוס בריוס,لوس باريوس,洛斯巴里奥斯","latitude":"36.18482","longitude":"-5.49213","feature_class":"P","feature_code":"PPL","country_code":"ES","cc2":"","admin1_code":"51","admin2_code":"CA","admin3_code":"11035","admin4_code":"","population":"22311","elevation":"","dem":"23","timezone":"Europe/Madrid","modification_date":"2010-04-22"},{"geonameid":"2514868","name":"Los Alcázares","asciiname":"Los Alcazares","alternatenames":"Alcazares,Alcázares","latitude":"37.74425","longitude":"-0.85041","feature_class":"P","feature_code":"PPL","country_code":"ES","cc2":"","admin1_code":"31","admin2_code":"MU","admin3_code":"30902","admin4_code":"","population":"15619","elevation":"","dem":"4","timezone":"Europe/Madrid","modification_date":"2010-04-22"},{"geonameid":"2514877","name":"Losa del Obispo","asciiname":"Losa del Obispo","alternatenames":"Llosa del Bisbe,Losa del Obispo","latitude":"39.7","longitude":"-0.86667","feature_class":"P","feature_code":"PPLA3","country_code":"ES","cc2":"","admin1_code":"60","admin2_code":"V","admin3_code":"46149","admin4_code":"","population":"478","elevation":"","dem":"460","timezone":"Europe/Madrid","modification_date":"2012-03-04"},{"geonameid":"2514883","name":"Lorquí","asciiname":"Lorqui","alternatenames":"Lorqui,Lorquí","latitude":"38.08261","longitude":"-1.25103","feature_class":"P","feature_code":"PPLA3","country_code":"ES","cc2":"","admin1_code":"31","admin2_code":"MU","admin3_code":"30025","admin4_code":"","population":"6293","elevation":"","dem":"114","timezone":"Europe/Madrid","modification_date":"2012-03-04"},{"geonameid":"2514887","name":"Loriguilla","asciiname":"Loriguilla","alternatenames":"Loriguilla","latitude":"39.68333","longitude":"-0.91667","feature_class":"P","feature_code":"PPL","country_code":"ES","cc2":"","admin1_code":"60","admin2_code":"V","admin3_code":"46106","admin4_code":"","population":"1177","elevation":"","dem":"525","timezone":"Europe/Madrid","modification_date":"2012-01-19"},{"geonameid":"2514891","name":"Lorca","asciiname":"Lorca","alternatenames":"Llorca,Lorca,Lorka,Lorko,XJR,lwrka  mrsyt,lwrqh,roruka,Лорка,לורקה,لوركا، مرسية,ロルカ","latitude":"37.67119","longitude":"-1.7017","feature_class":"P","feature_code":"PPLA3","country_code":"ES","cc2":"","admin1_code":"31","admin2_code":"MU","admin3_code":"30024","admin4_code":"","population":"91906","elevation":"","dem":"339","timezone":"Europe/Madrid","modification_date":"2012-12-15"},{"geonameid":"2514893","name":"Lora del Río","asciiname":"Lora del Rio","alternatenames":"Lora del Rio,Lora del Río,Lora-del'-Rio,luo la de er li ao,lwra dyl ryw,lwrt,Лора-дель-Рио,Лора-дель-Ріо,لورا ديل ريو,لورة,洛拉德尔里奥","latitude":"37.65896","longitude":"-5.52751","feature_class":"P","feature_code":"PPLA3","country_code":"ES","cc2":"","admin1_code":"51","admin2_code":"SE","admin3_code":"41055","admin4_code":"","population":"19352","elevation":"","dem":"41","timezone":"Europe/Madrid","modification_date":"2012-03-04"},{"geonameid":"2514894","name":"Lora de Estepa","asciiname":"Lora de Estepa","alternatenames":"Lora de Estepa","latitude":"37.26926","longitude":"-4.82759","feature_class":"P","feature_code":"PPLA3","country_code":"ES","cc2":"","admin1_code":"51","admin2_code":"SE","admin3_code":"41054","admin4_code":"","population":"815","elevation":"","dem":"446","timezone":"Europe/Madrid","modification_date":"2012-03-04"},{"geonameid":"2514896","name":"Lopera","asciiname":"Lopera","alternatenames":"Lopera","latitude":"37.94542","longitude":"-4.21463","feature_class":"P","feature_code":"PPLA3","country_code":"ES","cc2":"","admin1_code":"51","admin2_code":"J","admin3_code":"23056","admin4_code":"","population":"3986","elevation":"","dem":"266","timezone":"Europe/Madrid","modification_date":"2012-03-04"},{"geonameid":"2514912","name":"Lomo de Arico","asciiname":"Lomo de Arico","alternatenames":"Arico,Lomo de Arico","latitude":"28.16667","longitude":"-16.48333","feature_class":"P","feature_code":"PPL","country_code":"ES","cc2":"","admin1_code":"53","admin2_code":"TF","admin3_code":"38017","admin4_code":"","population":"7189","elevation":"","dem":"401","timezone":"Atlantic/Canary","modification_date":"2012-01-19"},{"geonameid":"2514946","name":"Loja","asciiname":"Loja","alternatenames":"Lokha,Лоха","latitude":"37.16887","longitude":"-4.15129","feature_class":"P","feature_code":"PPLA3","country_code":"ES","cc2":"","admin1_code":"51","admin2_code":"GR","admin3_code":"18122","admin4_code":"","population":"21574","elevation":"","dem":"453","timezone":"Europe/Madrid","modification_date":"2012-03-04"},{"geonameid":"2514947","name":"Logrosán","asciiname":"Logrosan","alternatenames":"Logrosan,Logrosán,luo ge luo sang,lwghrwsan,Логросан,لوغروسان,洛格罗桑","latitude":"39.33641","longitude":"-5.49281","feature_class":"P","feature_code":"PPLA3","country_code":"ES","cc2":"","admin1_code":"57","admin2_code":"CC","admin3_code":"10109","admin4_code":"","population":"2204","elevation":"","dem":"473","timezone":"Europe/Madrid","modification_date":"2012-03-04"},{"geonameid":"2514958","name":"Lobras","asciiname":"Lobras","alternatenames":"","latitude":"36.92849","longitude":"-3.2123","feature_class":"P","feature_code":"PPLA3","country_code":"ES","cc2":"","admin1_code":"51","admin2_code":"GR","admin3_code":"18121","admin4_code":"","population":"125","elevation":"","dem":"927","timezone":"Europe/Madrid","modification_date":"2012-03-04"},{"geonameid":"2514964","name":"Lobón","asciiname":"Lobon","alternatenames":"Lobon,Lobón","latitude":"38.84876","longitude":"-6.62365","feature_class":"P","feature_code":"PPLA3","country_code":"ES","cc2":"","admin1_code":"57","admin2_code":"BA","admin3_code":"06072","admin4_code":"","population":"2611","elevation":"","dem":"241","timezone":"Europe/Madrid","modification_date":"2012-03-04"},{"geonameid":"2514984","name":"Llucmajor","asciiname":"Llucmajor","alternatenames":"Llucmajor","latitude":"39.49093","longitude":"2.89108","feature_class":"P","feature_code":"PPLA3","country_code":"ES","cc2":"","admin1_code":"07","admin2_code":"PM","admin3_code":"07031","admin4_code":"","population":"36078","elevation":"","dem":"150","timezone":"Europe/Madrid","modification_date":"2011-07-31"},{"geonameid":"2514987","name":"Llubí","asciiname":"Llubi","alternatenames":"Llubi,Llubí","latitude":"39.69933","longitude":"3.00681","feature_class":"P","feature_code":"PPLA3","country_code":"ES","cc2":"","admin1_code":"07","admin2_code":"PM","admin3_code":"07030","admin4_code":"","population":"2030","elevation":"","dem":"56","timezone":"Europe/Madrid","modification_date":"2012-03-04"},{"geonameid":"2514988","name":"Lloseta","asciiname":"Lloseta","alternatenames":"Lloseta","latitude":"39.71849","longitude":"2.8669","feature_class":"P","feature_code":"PPLA3","country_code":"ES","cc2":"","admin1_code":"07","admin2_code":"PM","admin3_code":"07029","admin4_code":"","population":"5295","elevation":"","dem":"157","timezone":"Europe/Madrid","modification_date":"2012-03-04"},{"geonameid":"2514989","name":"Llosa de Ranes","asciiname":"Llosa de Ranes","alternatenames":"Llosa de Ranes","latitude":"39.02163","longitude":"-0.53803","feature_class":"P","feature_code":"PPL","country_code":"ES","cc2":"","admin1_code":"60","admin2_code":"V","admin3_code":"46145","admin4_code":"","population":"3725","elevation":"","dem":"129","timezone":"Europe/Madrid","modification_date":"2012-01-19"},{"geonameid":"2514991","name":"Lloret de Vistalegre","asciiname":"Lloret de Vistalegre","alternatenames":"Lloret de Vistalegre","latitude":"39.61835","longitude":"2.97493","feature_class":"P","feature_code":"PPLA3","country_code":"ES","cc2":"","admin1_code":"07","admin2_code":"PM","admin3_code":"07028","admin4_code":"","population":"1134","elevation":"","dem":"171","timezone":"Europe/Madrid","modification_date":"2012-03-04"},{"geonameid":"2514994","name":"Llombai","asciiname":"Llombai","alternatenames":"Llombai,Llombay","latitude":"39.28333","longitude":"-0.56667","feature_class":"P","feature_code":"PPLA3","country_code":"ES","cc2":"","admin1_code":"60","admin2_code":"V","admin3_code":"46156","admin4_code":"","population":"2720","elevation":"","dem":"98","timezone":"Europe/Madrid","modification_date":"2012-03-04"},{"geonameid":"2515002","name":"Llerena","asciiname":"Llerena","alternatenames":"L'erena,Ljerena,Llerena,Lyerena,lie lei na,yrna,Љерена,Льерена,Льєрена,Լյերենա,یرنا,列雷纳","latitude":"38.23333","longitude":"-6.01667","feature_class":"P","feature_code":"PPLA3","country_code":"ES","cc2":"","admin1_code":"57","admin2_code":"BA","admin3_code":"06074","admin4_code":"","population":"5716","elevation":"","dem":"650","timezone":"Europe/Madrid","modification_date":"2012-03-04"},{"geonameid":"2515003","name":"Llera","asciiname":"Llera","alternatenames":"Llera","latitude":"38.45","longitude":"-6.05","feature_class":"P","feature_code":"PPLA3","country_code":"ES","cc2":"","admin1_code":"57","admin2_code":"BA","admin3_code":"06073","admin4_code":"","population":"943","elevation":"","dem":"440","timezone":"Europe/Madrid","modification_date":"2012-03-04"},{"geonameid":"2515005","name":"Llaurí","asciiname":"Llauri","alternatenames":"Llauri,Llaurí","latitude":"39.14671","longitude":"-0.32944","feature_class":"P","feature_code":"PPLA3","country_code":"ES","cc2":"","admin1_code":"60","admin2_code":"V","admin3_code":"46155","admin4_code":"","population":"1269","elevation":"","dem":"19","timezone":"Europe/Madrid","modification_date":"2012-03-04"},{"geonameid":"2515024","name":"Llanera de Ranes","asciiname":"Llanera de Ranes","alternatenames":"Llanera de Ranes","latitude":"38.99507","longitude":"-0.57534","feature_class":"P","feature_code":"PPLA3","country_code":"ES","cc2":"","admin1_code":"60","admin2_code":"V","admin3_code":"46154","admin4_code":"","population":"1059","elevation":"","dem":"164","timezone":"Europe/Madrid","modification_date":"2012-03-04"},{"geonameid":"2515036","name":"Llíria","asciiname":"Lliria","alternatenames":"Liria,Lliria,Llíria","latitude":"39.62894","longitude":"-0.59783","feature_class":"P","feature_code":"PPL","country_code":"ES","cc2":"","admin1_code":"60","admin2_code":"V","admin3_code":"46148","admin4_code":"","population":"22706","elevation":"","dem":"174","timezone":"Europe/Madrid","modification_date":"2015-05-31"},{"geonameid":"2515041","name":"Linares de la Sierra","asciiname":"Linares de la Sierra","alternatenames":"Linares de la Sierra","latitude":"37.87963","longitude":"-6.62321","feature_class":"P","feature_code":"PPLA3","country_code":"ES","cc2":"","admin1_code":"51","admin2_code":"H","admin3_code":"21045","admin4_code":"","population":"0","elevation":"","dem":"502","timezone":"Europe/Madrid","modification_date":"2012-03-04"},{"geonameid":"2515045","name":"Linares","asciiname":"Linares","alternatenames":"Linares,Линарес","latitude":"38.09519","longitude":"-3.63602","feature_class":"P","feature_code":"PPLA3","country_code":"ES","cc2":"","admin1_code":"51","admin2_code":"J","admin3_code":"23055","admin4_code":"","population":"61338","elevation":"","dem":"413","timezone":"Europe/Madrid","modification_date":"2012-03-04"},{"geonameid":"2515055","name":"Lillo","asciiname":"Lillo","alternatenames":"Lillo","latitude":"39.72331","longitude":"-3.30618","feature_class":"P","feature_code":"PPLA3","country_code":"ES","cc2":"","admin1_code":"54","admin2_code":"TO","admin3_code":"45084","admin4_code":"","population":"2615","elevation":"","dem":"687","timezone":"Europe/Madrid","modification_date":"2012-03-04"},{"geonameid":"2515058","name":"Liétor","asciiname":"Lietor","alternatenames":"Lieto,Lietor,Liéto,Liétor","latitude":"38.54267","longitude":"-1.95367","feature_class":"P","feature_code":"PPLA3","country_code":"ES","cc2":"","admin1_code":"54","admin2_code":"AB","admin3_code":"02044","admin4_code":"","population":"1557","elevation":"","dem":"672","timezone":"Europe/Madrid","modification_date":"2012-03-04"},{"geonameid":"2515060","name":"Librilla","asciiname":"Librilla","alternatenames":"Librilla","latitude":"37.88642","longitude":"-1.35557","feature_class":"P","feature_code":"PPLA3","country_code":"ES","cc2":"","admin1_code":"31","admin2_code":"MU","admin3_code":"30023","admin4_code":"","population":"4145","elevation":"","dem":"175","timezone":"Europe/Madrid","modification_date":"2012-03-04"},{"geonameid":"2515064","name":"Lezuza","asciiname":"Lezuza","alternatenames":"Lezuza","latitude":"38.9497","longitude":"-2.35419","feature_class":"P","feature_code":"PPLA3","country_code":"ES","cc2":"","admin1_code":"54","admin2_code":"AB","admin3_code":"02043","admin4_code":"","population":"1696","elevation":"","dem":"927","timezone":"Europe/Madrid","modification_date":"2012-03-04"},{"geonameid":"2515070","name":"Letur","asciiname":"Letur","alternatenames":"Letur","latitude":"38.36626","longitude":"-2.10206","feature_class":"P","feature_code":"PPLA3","country_code":"ES","cc2":"","admin1_code":"54","admin2_code":"AB","admin3_code":"02042","admin4_code":"","population":"1206","elevation":"","dem":"735","timezone":"Europe/Madrid","modification_date":"2012-03-04"},{"geonameid":"2515072","name":"Lepe","asciiname":"Lepe","alternatenames":"Lepe,Лепе","latitude":"37.25482","longitude":"-7.20433","feature_class":"P","feature_code":"PPLA3","country_code":"ES","cc2":"","admin1_code":"51","admin2_code":"H","admin3_code":"21044","admin4_code":"","population":"25886","elevation":"","dem":"24","timezone":"Europe/Madrid","modification_date":"2012-03-04"},{"geonameid":"2515083","name":"Lentegí","asciiname":"Lentegi","alternatenames":"Lentegi,Lentegí","latitude":"36.83613","longitude":"-3.67426","feature_class":"P","feature_code":"PPLA3","country_code":"ES","cc2":"","admin1_code":"51","admin2_code":"GR","admin3_code":"18120","admin4_code":"","population":"330","elevation":"","dem":"649","timezone":"Europe/Madrid","modification_date":"2012-03-04"},{"geonameid":"2515093","name":"Ledaña","asciiname":"Ledana","alternatenames":"Ledana,Ledaña","latitude":"39.36667","longitude":"-1.7","feature_class":"P","feature_code":"PPLA3","country_code":"ES","cc2":"","admin1_code":"54","admin2_code":"CU","admin3_code":"16118","admin4_code":"","population":"1913","elevation":"","dem":"734","timezone":"Europe/Madrid","modification_date":"2012-03-04"},{"geonameid":"2515096","name":"Lebrija","asciiname":"Lebrija","alternatenames":"Lebrija,Lebrikha,Лебриха","latitude":"36.92077","longitude":"-6.07529","feature_class":"P","feature_code":"PPLA3","country_code":"ES","cc2":"","admin1_code":"51","admin2_code":"SE","admin3_code":"41053","admin4_code":"","population":"26434","elevation":"","dem":"41","timezone":"Europe/Madrid","modification_date":"2012-03-04"},{"geonameid":"2515108","name":"Layos","asciiname":"Layos","alternatenames":"Layos","latitude":"39.77703","longitude":"-4.06448","feature_class":"P","feature_code":"PPLA3","country_code":"ES","cc2":"","admin1_code":"54","admin2_code":"TO","admin3_code":"45083","admin4_code":"","population":"365","elevation":"","dem":"652","timezone":"Europe/Madrid","modification_date":"2012-03-04"},{"geonameid":"2515110","name":"La Yesa","asciiname":"La Yesa","alternatenames":"La Iesa,La Ièsa,La Yesa,Yesa","latitude":"39.88333","longitude":"-0.95","feature_class":"P","feature_code":"PPLA3","country_code":"ES","cc2":"","admin1_code":"60","admin2_code":"V","admin3_code":"46262","admin4_code":"","population":"250","elevation":"","dem":"1003","timezone":"Europe/Madrid","modification_date":"2011-07-31"},{"geonameid":"2515118","name":"La Victoria de Acentejo","asciiname":"La Victoria de Acentejo","alternatenames":"La Victoria de Acentejo","latitude":"28.43231","longitude":"-16.46232","feature_class":"P","feature_code":"PPL","country_code":"ES","cc2":"","admin1_code":"53","admin2_code":"TF","admin3_code":"38051","admin4_code":"","population":"8469","elevation":"","dem":"481","timezone":"Atlantic/Canary","modification_date":"2012-01-19"},{"geonameid":"2515119","name":"La Victoria","asciiname":"La Victoria","alternatenames":"La Victoria,La Viktoria,La-Viktorija,la fyktwrya,la wei ke tuo li ya,Ла-Виктория,Ла-Вікторія,Լա Վիկտորիա,لا فيكتوريا,لا ویکتوریا، ہسپانیہ,拉维克托里亚","latitude":"37.68126","longitude":"-4.85199","feature_class":"P","feature_code":"PPL","country_code":"ES","cc2":"","admin1_code":"51","admin2_code":"CO","admin3_code":"14065","admin4_code":"","population":"1841","elevation":"","dem":"267","timezone":"Europe/Madrid","modification_date":"2012-01-19"},{"geonameid":"2515151","name":"La Unión","asciiname":"La Union","alternatenames":"La Union,La Unión,La-Un'jon,La-Un'on,Unio,la awnyn,la awnywn,la wnywn  mwrkya,lao ni weng,Ла-Уньйон,Ла-Уньон,لا أونيون,لا اونین,لا ونیون، مورکیا,劳尼翁","latitude":"37.61915","longitude":"-0.87799","feature_class":"P","feature_code":"PPL","country_code":"ES","cc2":"","admin1_code":"31","admin2_code":"MU","admin3_code":"30041","admin4_code":"","population":"17737","elevation":"","dem":"104","timezone":"Europe/Madrid","modification_date":"2012-01-19"},{"geonameid":"2515158","name":"Laujar de Andarax","asciiname":"Laujar de Andarax","alternatenames":"Lajuar de Andaraks,Laujar,Laujar de Andarax,Laukhar-de-Andaraks,Láujar de Andarax,andrsh,lao ha er de ya en da la si,lawkhar d andaraks,Лаухар-де-Андаракс,Лајуар де Андаракс,أندرش,لاوخار د آنداراکس,劳哈尔德亚恩达拉斯","latitude":"36.99516","longitude":"-2.89033","feature_class":"P","feature_code":"PPL","country_code":"ES","cc2":"","admin1_code":"51","admin2_code":"AL","admin3_code":"04046","admin4_code":"","population":"1811","elevation":"","dem":"932","timezone":"Europe/Madrid","modification_date":"2012-01-19"},{"geonameid":"2515219","name":"Las Torres de Cotillas","asciiname":"Las Torres de Cotillas","alternatenames":"La Torres de Cotillas,Las Torres de Cotillas","latitude":"38.02822","longitude":"-1.24188","feature_class":"P","feature_code":"PPLA3","country_code":"ES","cc2":"","admin1_code":"31","admin2_code":"MU","admin3_code":"30038","admin4_code":"","population":"21062","elevation":"","dem":"87","timezone":"Europe/Madrid","modification_date":"2012-03-04"},{"geonameid":"2515261","name":"Las Pedroñeras","asciiname":"Las Pedroneras","alternatenames":"Las Pedroneras,Las Pedroñeras","latitude":"39.44997","longitude":"-2.67394","feature_class":"P","feature_code":"PPL","country_code":"ES","cc2":"","admin1_code":"54","admin2_code":"CU","admin3_code":"16154","admin4_code":"","population":"6986","elevation":"","dem":"706","timezone":"Europe/Madrid","modification_date":"2012-01-19"},{"geonameid":"2515270","name":"Las Palmas de Gran Canaria","asciiname":"Las Palmas de Gran Canaria","alternatenames":"Kanaria Handiko Las Palmas,LPA,Las Palmas,Las Palmas de G.C.,Las Palmas de Gran Canaria,Las Palmas de Gran Kanaria,Las-Pal'mas-de-Gran-Kanarija,Laspalmasa,Les Palmes de Gran Canaria,Les Palmes de Gran Canària,Palmas,Palmas de Gran Canaria,la si pa er ma si,Лас Палмас де Гран Канариа,Лас-Пальмас-де-Гран-Канария,ラス・パルマス・デ・グラン・カナリア,拉斯帕尔马斯","latitude":"28.09973","longitude":"-15.41343","feature_class":"P","feature_code":"PPLA","country_code":"ES","cc2":"","admin1_code":"53","admin2_code":"GC","admin3_code":"35016","admin4_code":"","population":"381847","elevation":"","dem":"23","timezone":"Atlantic/Canary","modification_date":"2012-11-20"},{"geonameid":"2515284","name":"La Solana","asciiname":"La Solana","alternatenames":"La Solana","latitude":"38.94422","longitude":"-3.2381","feature_class":"P","feature_code":"PPL","country_code":"ES","cc2":"","admin1_code":"54","admin2_code":"CR","admin3_code":"13079","admin4_code":"","population":"16511","elevation":"","dem":"765","timezone":"Europe/Madrid","modification_date":"2012-01-19"},{"geonameid":"2515319","name":"Las Mesas","asciiname":"Las Mesas","alternatenames":"Las Mesas","latitude":"39.38871","longitude":"-2.76524","feature_class":"P","feature_code":"PPL","country_code":"ES","cc2":"","admin1_code":"54","admin2_code":"CU","admin3_code":"16124","admin4_code":"","population":"2544","elevation":"","dem":"684","timezone":"Europe/Madrid","modification_date":"2012-01-19"},{"geonameid":"2515493","name":"Las Cabezas de San Juan","asciiname":"Las Cabezas de San Juan","alternatenames":"Las Cabezas San Juan,Las Cabezas de San Juan","latitude":"36.9838","longitude":"-5.93933","feature_class":"P","feature_code":"PPL","country_code":"ES","cc2":"","admin1_code":"51","admin2_code":"SE","admin3_code":"41020","admin4_code":"","population":"16464","elevation":"","dem":"46","timezone":"Europe/Madrid","modification_date":"2012-01-19"},{"geonameid":"2515543","name":"Larva","asciiname":"Larva","alternatenames":"Larva","latitude":"37.76069","longitude":"-3.20269","feature_class":"P","feature_code":"PPLA3","country_code":"ES","cc2":"","admin1_code":"51","admin2_code":"J","admin3_code":"23054","admin4_code":"","population":"491","elevation":"","dem":"709","timezone":"Europe/Madrid","modification_date":"2012-03-04"},{"geonameid":"2515546","name":"Laroya","asciiname":"Laroya","alternatenames":"Laroya","latitude":"37.29771","longitude":"-2.33419","feature_class":"P","feature_code":"PPLA3","country_code":"ES","cc2":"","admin1_code":"51","admin2_code":"AL","admin3_code":"04056","admin4_code":"","population":"141","elevation":"","dem":"1009","timezone":"Europe/Madrid","modification_date":"2012-03-04"},{"geonameid":"2515550","name":"La Romana","asciiname":"La Romana","alternatenames":"La Romana","latitude":"38.36753","longitude":"-0.89862","feature_class":"P","feature_code":"PPL","country_code":"ES","cc2":"","admin1_code":"60","admin2_code":"A","admin3_code":"03114","admin4_code":"","population":"2333","elevation":"","dem":"429","timezone":"Europe/Madrid","modification_date":"2012-01-19"},{"geonameid":"2515554","name":"La Roda de Andalucía","asciiname":"La Roda de Andalucia","alternatenames":"La Roda,Roda de Andulucia","latitude":"37.20381","longitude":"-4.77802","feature_class":"P","feature_code":"PPL","country_code":"ES","cc2":"","admin1_code":"51","admin2_code":"SE","admin3_code":"41082","admin4_code":"","population":"4294","elevation":"","dem":"395","timezone":"Europe/Madrid","modification_date":"2008-07-18"},{"geonameid":"2515555","name":"La Roda","asciiname":"La Roda","alternatenames":"La Roda,La-Roda,Roda,la luo da,la rda,la rwda,Ла-Рода,لا ردا,لا رودا,拉罗达","latitude":"39.20735","longitude":"-2.15723","feature_class":"P","feature_code":"PPL","country_code":"ES","cc2":"","admin1_code":"54","admin2_code":"AB","admin3_code":"02069","admin4_code":"","population":"16060","elevation":"","dem":"713","timezone":"Europe/Madrid","modification_date":"2015-06-15"},{"geonameid":"2515557","name":"La Roca de la Sierra","asciiname":"La Roca de la Sierra","alternatenames":"La Roca,La Roca de la Sierra","latitude":"39.10966","longitude":"-6.68916","feature_class":"P","feature_code":"PPL","country_code":"ES","cc2":"","admin1_code":"57","admin2_code":"BA","admin3_code":"06115","admin4_code":"","population":"1543","elevation":"","dem":"248","timezone":"Europe/Madrid","modification_date":"2012-01-19"},{"geonameid":"2515562","name":"La Rinconada","asciiname":"La Rinconada","alternatenames":"La Rinconada,La-Rinkonada,la lin ke na da,Ла-Ринконада,Ла-Рінконада,拉林科纳达","latitude":"37.48613","longitude":"-5.98091","feature_class":"P","feature_code":"PPL","country_code":"ES","cc2":"","admin1_code":"51","admin2_code":"SE","admin3_code":"41081","admin4_code":"","population":"35928","elevation":"","dem":"10","timezone":"Europe/Madrid","modification_date":"2014-02-09"},{"geonameid":"2515597","name":"La Rambla","asciiname":"La Rambla","alternatenames":"La Rambla,La-Rambla,la lan fu la,la rmblt,Ла-Рамбла,لا رمبلة,拉兰夫拉","latitude":"37.6076","longitude":"-4.73962","feature_class":"P","feature_code":"PPL","country_code":"ES","cc2":"","admin1_code":"51","admin2_code":"CO","admin3_code":"14057","admin4_code":"","population":"7374","elevation":"","dem":"334","timezone":"Europe/Madrid","modification_date":"2012-01-19"},{"geonameid":"2515617","name":"La Puerta de Segura","asciiname":"La Puerta de Segura","alternatenames":"La Puerta,La Puerta de Segura","latitude":"38.35293","longitude":"-2.73956","feature_class":"P","feature_code":"PPL","country_code":"ES","cc2":"","admin1_code":"51","admin2_code":"J","admin3_code":"23065","admin4_code":"","population":"2659","elevation":"","dem":"594","timezone":"Europe/Madrid","modification_date":"2012-01-19"},{"geonameid":"2515618","name":"La Pueblanueva","asciiname":"La Pueblanueva","alternatenames":"La Pueblanueva","latitude":"39.91208","longitude":"-4.67933","feature_class":"P","feature_code":"PPL","country_code":"ES","cc2":"","admin1_code":"54","admin2_code":"TO","admin3_code":"45137","admin4_code":"","population":"2097","elevation":"","dem":"482","timezone":"Europe/Madrid","modification_date":"2012-01-19"},{"geonameid":"2515619","name":"La Puebla de Montalbán","asciiname":"La Puebla de Montalban","alternatenames":"Aebura,La Puebla de Montalban,La Puebla de Montalbán,Puebla de Montalban,Puebla de Montalbán","latitude":"39.86297","longitude":"-4.35917","feature_class":"P","feature_code":"PPL","country_code":"ES","cc2":"","admin1_code":"54","admin2_code":"TO","admin3_code":"45133","admin4_code":"","population":"7695","elevation":"","dem":"490","timezone":"Europe/Madrid","modification_date":"2012-04-01"},{"geonameid":"2515620","name":"La Puebla del Río","asciiname":"La Puebla del Rio","alternatenames":"La Puebla del Rio,La Puebla del Río,Puebla del Rio,Puebla del Río","latitude":"37.26787","longitude":"-6.06264","feature_class":"P","feature_code":"PPL","country_code":"ES","cc2":"","admin1_code":"51","admin2_code":"SE","admin3_code":"41034","admin4_code":"","population":"12143","elevation":"","dem":"22","timezone":"Europe/Madrid","modification_date":"2012-01-19"},{"geonameid":"2515621","name":"La Puebla de los Infantes","asciiname":"La Puebla de los Infantes","alternatenames":"La Puebla de los Infantes","latitude":"37.7809","longitude":"-5.38837","feature_class":"P","feature_code":"PPL","country_code":"ES","cc2":"","admin1_code":"51","admin2_code":"SE","admin3_code":"41078","admin4_code":"","population":"3301","elevation":"","dem":"222","timezone":"Europe/Madrid","modification_date":"2012-01-19"},{"geonameid":"2515622","name":"La Puebla de Cazalla","asciiname":"La Puebla de Cazalla","alternatenames":"La Puebla de Cazalla,Puebla de Cazalla","latitude":"37.22155","longitude":"-5.31153","feature_class":"P","feature_code":"PPL","country_code":"ES","cc2":"","admin1_code":"51","admin2_code":"SE","admin3_code":"41065","admin4_code":"","population":"11325","elevation":"","dem":"177","timezone":"Europe/Madrid","modification_date":"2012-01-19"},{"geonameid":"2515623","name":"La Puebla de Almoradiel","asciiname":"La Puebla de Almoradiel","alternatenames":"La Puebla de Almoradiel,La Puebla de Almordier,Puebla de Almoradiel","latitude":"39.59862","longitude":"-3.11782","feature_class":"P","feature_code":"PPL","country_code":"ES","cc2":"","admin1_code":"54","admin2_code":"TO","admin3_code":"45135","admin4_code":"","population":"5629","elevation":"","dem":"695","timezone":"Europe/Madrid","modification_date":"2012-01-19"},{"geonameid":"2515624","name":"sa Pobla","asciiname":"sa Pobla","alternatenames":"la Pobla,sa Pobla","latitude":"39.7692","longitude":"3.02394","feature_class":"P","feature_code":"PPLA3","country_code":"ES","cc2":"","admin1_code":"07","admin2_code":"PM","admin3_code":"07044","admin4_code":"","population":"12766","elevation":"","dem":"29","timezone":"Europe/Madrid","modification_date":"2014-01-07"},{"geonameid":"2515670","name":"La Parra","asciiname":"La Parra","alternatenames":"La Parra","latitude":"38.5212","longitude":"-6.6226","feature_class":"P","feature_code":"PPL","country_code":"ES","cc2":"","admin1_code":"57","admin2_code":"BA","admin3_code":"06099","admin4_code":"","population":"1432","elevation":"","dem":"519","timezone":"Europe/Madrid","modification_date":"2012-01-19"},{"geonameid":"2515679","name":"La Palma del Condado","asciiname":"La Palma del Condado","alternatenames":"La Palma,La Palma del Condado,La Palma del Kondado,La-Pal'ma-del'-Kondado,NDO,Palma del Kontado,la balma dyl kwndadw,la pa er ma de er kong da duo,Πάλμα δελ Κοντάδο,Ла-Пальма-дель-Кондадо,Լա Պալմա դել Կոնդադո,لا بالما ديل كوندادو,لا پالما ڈیل کونڈاڈو,拉帕尔马德尔孔达多","latitude":"37.38605","longitude":"-6.55231","feature_class":"P","feature_code":"PPL","country_code":"ES","cc2":"","admin1_code":"51","admin2_code":"H","admin3_code":"21054","admin4_code":"","population":"10404","elevation":"","dem":"99","timezone":"Europe/Madrid","modification_date":"2012-01-19"},{"geonameid":"2515692","name":"La Orotava","asciiname":"La Orotava","alternatenames":"La Orotava,La-Orotava,Orotava,Villa Orotava,Villa de la Orotava,la awrwtafa,lao luo ta wa,Ла-Оротава,Оротава,لا أوروتافا,劳罗塔瓦","latitude":"28.39076","longitude":"-16.52309","feature_class":"P","feature_code":"PPL","country_code":"ES","cc2":"","admin1_code":"53","admin2_code":"TF","admin3_code":"38026","admin4_code":"","population":"41171","elevation":"","dem":"355","timezone":"Atlantic/Canary","modification_date":"2012-04-29"},{"geonameid":"2515698","name":"La Oliva","asciiname":"La Oliva","alternatenames":"La Oliva,Oliva","latitude":"28.61052","longitude":"-13.92912","feature_class":"P","feature_code":"PPL","country_code":"ES","cc2":"","admin1_code":"53","admin2_code":"GC","admin3_code":"35014","admin4_code":"","population":"21996","elevation":"","dem":"225","timezone":"Atlantic/Canary","modification_date":"2015-08-31"},{"geonameid":"2515701","name":"la Nucia","asciiname":"la Nucia","alternatenames":"La-Nusia,la Nucia,Ла-Нусиа","latitude":"38.61372","longitude":"-0.1269","feature_class":"P","feature_code":"PPL","country_code":"ES","cc2":"","admin1_code":"60","admin2_code":"A","admin3_code":"03094","admin4_code":"","population":"17874","elevation":"","dem":"240","timezone":"Europe/Madrid","modification_date":"2010-04-22"},{"geonameid":"2515703","name":"Lanteira","asciiname":"Lanteira","alternatenames":"Lanteira","latitude":"37.16871","longitude":"-3.13823","feature_class":"P","feature_code":"PPLA3","country_code":"ES","cc2":"","admin1_code":"51","admin2_code":"GR","admin3_code":"18117","admin4_code":"","population":"489","elevation":"","dem":"1284","timezone":"Europe/Madrid","modification_date":"2012-03-04"},{"geonameid":"2515708","name":"Lanjarón","asciiname":"Lanjaron","alternatenames":"Lanjaron,Lanjarón","latitude":"36.91853","longitude":"-3.4818","feature_class":"P","feature_code":"PPLA3","country_code":"ES","cc2":"","admin1_code":"51","admin2_code":"GR","admin3_code":"18116","admin4_code":"","population":"3773","elevation":"","dem":"667","timezone":"Europe/Madrid","modification_date":"2012-03-04"},{"geonameid":"2515709","name":"Landete","asciiname":"Landete","alternatenames":"Landete","latitude":"39.9","longitude":"-1.36667","feature_class":"P","feature_code":"PPLA3","country_code":"ES","cc2":"","admin1_code":"54","admin2_code":"CU","admin3_code":"16117","admin4_code":"","population":"1398","elevation":"","dem":"977","timezone":"Europe/Madrid","modification_date":"2012-03-04"},{"geonameid":"2515717","name":"La Nava de Santiago","asciiname":"La Nava de Santiago","alternatenames":"La Nava,La Nava de Santiago","latitude":"39.06328","longitude":"-6.50525","feature_class":"P","feature_code":"PPL","country_code":"ES","cc2":"","admin1_code":"57","admin2_code":"BA","admin3_code":"06090","admin4_code":"","population":"1145","elevation":"","dem":"266","timezone":"Europe/Madrid","modification_date":"2012-01-19"},{"geonameid":"2515755","name":"La Mojonera","asciiname":"La Mojonera","alternatenames":"Caserio La Mojonera,Caserío La Mojonera,La Mojonera","latitude":"37.29233","longitude":"-2.4373","feature_class":"P","feature_code":"PPL","country_code":"ES","cc2":"","admin1_code":"51","admin2_code":"AL","admin3_code":"04021","admin4_code":"","population":"7819","elevation":"","dem":"1106","timezone":"Europe/Madrid","modification_date":"2012-01-19"},{"geonameid":"2515772","name":"La Matanza de Acentejo","asciiname":"La Matanza de Acentejo","alternatenames":"La Matanza de Acentejo,La-Matansa-de-Asentekho,la ma tan sa de ya sen te huo,la matansa d asntkhw,la mtantha dy athyntykhw,Ла-Матанса-де-Асентехо,لا ماتانزا دے اسنتیجو,لا ماتانسا د آسنتخو,لا متانثا دي أثينتيخو,拉马坦萨德亚森特霍","latitude":"28.45242","longitude":"-16.4472","feature_class":"P","feature_code":"PPLA3","country_code":"ES","cc2":"","admin1_code":"53","admin2_code":"TF","admin3_code":"38025","admin4_code":"","population":"7709","elevation":"","dem":"515","timezone":"Atlantic/Canary","modification_date":"2012-03-04"},{"geonameid":"2515801","name":"La Luisiana","asciiname":"La Luisiana","alternatenames":"La Luisana,La Luisiana","latitude":"37.52602","longitude":"-5.24883","feature_class":"P","feature_code":"PPL","country_code":"ES","cc2":"","admin1_code":"51","admin2_code":"SE","admin3_code":"41056","admin4_code":"","population":"4434","elevation":"","dem":"171","timezone":"Europe/Madrid","modification_date":"2012-01-19"},{"geonameid":"2515812","name":"La Línea de la Concepción","asciiname":"La Linea de la Concepcion","alternatenames":"La Linea,La Linea de la Concepcion,La Línea,La Línea de la Concepción,La-Linea-de-la-Konseps'jon,La-Linea-de-la-Konseps'on,La-Linea-deh-la-Kanseps'jon,Linea de Konsepsion,la li nei ya de la kong sai pu xi weng,la lnya dy la kanspchyan,la yyna dy la kwnsybsywn,Ла-Линеа-де-ла-Консепсьон,Ла-Лінеа-де-ла-Консепсьйон,Ла-Лінеа-дэ-ла-Кансепсьён,Линеа де Консепсион,لا لنیا دی لا کانسپچیان,لا يينا دي لا كونسيبسيون,ラ・リネア・デ・ラ・コンセプション,拉利内亚德拉孔塞普西翁","latitude":"36.16809","longitude":"-5.34777","feature_class":"P","feature_code":"PPL","country_code":"ES","cc2":"","admin1_code":"51","admin2_code":"CA","admin3_code":"11022","admin4_code":"","population":"64595","elevation":"","dem":"4","timezone":"Europe/Madrid","modification_date":"2010-04-22"},{"geonameid":"2515814","name":"La Lantejuela","asciiname":"La Lantejuela","alternatenames":"La Lantejuela,La Lentejuela","latitude":"37.3535","longitude":"-5.22477","feature_class":"P","feature_code":"PPL","country_code":"ES","cc2":"","admin1_code":"51","admin2_code":"SE","admin3_code":"41052","admin4_code":"","population":"3792","elevation":"","dem":"156","timezone":"Europe/Madrid","modification_date":"2012-01-19"},{"geonameid":"2515864","name":"La Iruela","asciiname":"La Iruela","alternatenames":"Iruela,La Iruela","latitude":"37.91986","longitude":"-2.99659","feature_class":"P","feature_code":"PPL","country_code":"ES","cc2":"","admin1_code":"51","admin2_code":"J","admin3_code":"23028","admin4_code":"","population":"1824","elevation":"","dem":"886","timezone":"Europe/Madrid","modification_date":"2012-01-19"},{"geonameid":"2515896","name":"La Herradura","asciiname":"La Herradura","alternatenames":"Herradura,La Herradura","latitude":"36.73491","longitude":"-3.7376","feature_class":"P","feature_code":"PPL","country_code":"ES","cc2":"","admin1_code":"51","admin2_code":"GR","admin3_code":"18017","admin4_code":"","population":"4248","elevation":"","dem":"39","timezone":"Europe/Madrid","modification_date":"2013-08-25"},