{"nextFile":"cities.68.json","rows":[{"geonameid":"7035042","name":"Barisan","asciiname":"Barisan","alternatenames":"Barisan","latitude":"-8.1841","longitude":"112.4251","feature_class":"P","feature_code":"PPLA4","country_code":"ID","cc2":"","admin1_code":"08","admin2_code":"","admin3_code":"","admin4_code":"","population":"0","elevation":"","dem":"291","timezone":"Asia/Jakarta","modification_date":"2012-01-20"},{"geonameid":"7035048","name":"Kopral","asciiname":"Kopral","alternatenames":"Kopral","latitude":"-8.1819","longitude":"112.4548","feature_class":"P","feature_code":"PPLA4","country_code":"ID","cc2":"","admin1_code":"08","admin2_code":"","admin3_code":"","admin4_code":"","population":"0","elevation":"","dem":"294","timezone":"Asia/Jakarta","modification_date":"2012-01-20"},{"geonameid":"7035060","name":"Dadapan","asciiname":"Dadapan","alternatenames":"Dadapan","latitude":"-8.2059","longitude":"112.4943","feature_class":"P","feature_code":"PPLA4","country_code":"ID","cc2":"","admin1_code":"08","admin2_code":"","admin3_code":"","admin4_code":"","population":"0","elevation":"","dem":"298","timezone":"Asia/Jakarta","modification_date":"2012-01-20"},{"geonameid":"7035066","name":"Krajan","asciiname":"Krajan","alternatenames":"Krajan","latitude":"-8.207","longitude":"112.4651","feature_class":"P","feature_code":"PPLA4","country_code":"ID","cc2":"","admin1_code":"08","admin2_code":"","admin3_code":"","admin4_code":"","population":"0","elevation":"","dem":"305","timezone":"Asia/Jakarta","modification_date":"2012-01-20"},{"geonameid":"7035074","name":"Sumbertimo","asciiname":"Sumbertimo","alternatenames":"Sumbertimo","latitude":"-8.2165","longitude":"112.4043","feature_class":"P","feature_code":"PPLA4","country_code":"ID","cc2":"","admin1_code":"08","admin2_code":"","admin3_code":"","admin4_code":"","population":"0","elevation":"","dem":"273","timezone":"Asia/Jakarta","modification_date":"2012-01-20"},{"geonameid":"7035092","name":"Sukomulyo","asciiname":"Sukomulyo","alternatenames":"Sukomulyo","latitude":"-8.2228","longitude":"112.3799","feature_class":"P","feature_code":"PPLA4","country_code":"ID","cc2":"","admin1_code":"08","admin2_code":"","admin3_code":"","admin4_code":"","population":"0","elevation":"","dem":"245","timezone":"Asia/Jakarta","modification_date":"2012-01-20"},{"geonameid":"7035104","name":"Krajan Dua Putukrejo","asciiname":"Krajan Dua Putukrejo","alternatenames":"Krajan Dua Putukrejo","latitude":"-8.2392","longitude":"112.459","feature_class":"P","feature_code":"PPLA4","country_code":"ID","cc2":"","admin1_code":"08","admin2_code":"","admin3_code":"","admin4_code":"","population":"0","elevation":"","dem":"530","timezone":"Asia/Jakarta","modification_date":"2012-02-02"},{"geonameid":"7035107","name":"Krajan Satu","asciiname":"Krajan Satu","alternatenames":"Krajan Satu","latitude":"-8.2353","longitude":"112.4337","feature_class":"P","feature_code":"PPLA4","country_code":"ID","cc2":"","admin1_code":"08","admin2_code":"","admin3_code":"","admin4_code":"","population":"0","elevation":"","dem":"550","timezone":"Asia/Jakarta","modification_date":"2012-01-20"},{"geonameid":"7035119","name":"Selorejo","asciiname":"Selorejo","alternatenames":"Selorejo","latitude":"-8.1392","longitude":"112.4257","feature_class":"P","feature_code":"PPLA4","country_code":"ID","cc2":"","admin1_code":"08","admin2_code":"","admin3_code":"","admin4_code":"","population":"0","elevation":"","dem":"299","timezone":"Asia/Jakarta","modification_date":"2010-08-10"},{"geonameid":"7035120","name":"Kalipare","asciiname":"Kalipare","alternatenames":"Kalipare","latitude":"-8.2066","longitude":"112.4663","feature_class":"P","feature_code":"PPLA4","country_code":"ID","cc2":"","admin1_code":"08","admin2_code":"","admin3_code":"","admin4_code":"","population":"0","elevation":"","dem":"304","timezone":"Asia/Jakarta","modification_date":"2010-08-10"},{"geonameid":"7035192","name":"Wonosari","asciiname":"Wonosari","alternatenames":"Wonosari","latitude":"-8.0056","longitude":"112.3532","feature_class":"P","feature_code":"PPLA4","country_code":"ID","cc2":"","admin1_code":"08","admin2_code":"","admin3_code":"","admin4_code":"","population":"0","elevation":"","dem":"476","timezone":"Asia/Jakarta","modification_date":"2012-01-20"},{"geonameid":"7035203","name":"Ringinrejo","asciiname":"Ringinrejo","alternatenames":"Ringinrejo","latitude":"-8.0195","longitude":"112.254","feature_class":"P","feature_code":"PPLA4","country_code":"ID","cc2":"","admin1_code":"08","admin2_code":"","admin3_code":"","admin4_code":"","population":"0","elevation":"","dem":"445","timezone":"Asia/Jakarta","modification_date":"2012-01-20"},{"geonameid":"7035210","name":"Slumbung","asciiname":"Slumbung","alternatenames":"Slumbung","latitude":"-8.01212","longitude":"112.34501","feature_class":"P","feature_code":"PPLA4","country_code":"ID","cc2":"","admin1_code":"08","admin2_code":"","admin3_code":"","admin4_code":"","population":"0","elevation":"","dem":"482","timezone":"Asia/Jakarta","modification_date":"2012-01-20"},{"geonameid":"7035242","name":"Purwosari","asciiname":"Purwosari","alternatenames":"Purwosari","latitude":"-8.0353","longitude":"112.3225","feature_class":"P","feature_code":"PPLA4","country_code":"ID","cc2":"","admin1_code":"08","admin2_code":"","admin3_code":"","admin4_code":"","population":"0","elevation":"","dem":"403","timezone":"Asia/Jakarta","modification_date":"2012-01-20"},{"geonameid":"7035256","name":"Baos","asciiname":"Baos","alternatenames":"Baos","latitude":"-8.0433","longitude":"112.3236","feature_class":"P","feature_code":"PPLA4","country_code":"ID","cc2":"","admin1_code":"08","admin2_code":"","admin3_code":"","admin4_code":"","population":"0","elevation":"","dem":"374","timezone":"Asia/Jakarta","modification_date":"2012-01-20"},{"geonameid":"7035258","name":"Sukosewu Satu","asciiname":"Sukosewu Satu","alternatenames":"Sukosewu Satu","latitude":"-8.0428","longitude":"112.2958","feature_class":"P","feature_code":"PPLA4","country_code":"ID","cc2":"","admin1_code":"08","admin2_code":"","admin3_code":"","admin4_code":"","population":"0","elevation":"","dem":"377","timezone":"Asia/Jakarta","modification_date":"2012-01-20"},{"geonameid":"7035261","name":"Sumberagung Satu","asciiname":"Sumberagung Satu","alternatenames":"Sumberagung Satu","latitude":"-8.0464","longitude":"112.2772","feature_class":"P","feature_code":"PPLA4","country_code":"ID","cc2":"","admin1_code":"08","admin2_code":"","admin3_code":"","admin4_code":"","population":"0","elevation":"","dem":"363","timezone":"Asia/Jakarta","modification_date":"2012-01-20"},{"geonameid":"7035265","name":"Tambakan","asciiname":"Tambakan","alternatenames":"Tambakan","latitude":"-8.0566","longitude":"112.298","feature_class":"P","feature_code":"PPLA4","country_code":"ID","cc2":"","admin1_code":"08","admin2_code":"","admin3_code":"","admin4_code":"","population":"0","elevation":"","dem":"335","timezone":"Asia/Jakarta","modification_date":"2012-01-20"},{"geonameid":"7035270","name":"Sendung","asciiname":"Sendung","alternatenames":"Sendung","latitude":"-8.0551","longitude":"112.3382","feature_class":"P","feature_code":"PPLA4","country_code":"ID","cc2":"","admin1_code":"08","admin2_code":"","admin3_code":"","admin4_code":"","population":"0","elevation":"","dem":"348","timezone":"Asia/Jakarta","modification_date":"2012-01-20"},{"geonameid":"7035286","name":"Kotes","asciiname":"Kotes","alternatenames":"Kotes","latitude":"-8.05637","longitude":"112.28482","feature_class":"P","feature_code":"PPLA4","country_code":"ID","cc2":"","admin1_code":"08","admin2_code":"","admin3_code":"","admin4_code":"","population":"0","elevation":"","dem":"337","timezone":"Asia/Jakarta","modification_date":"2012-01-20"},{"geonameid":"7035289","name":"Sanan","asciiname":"Sanan","alternatenames":"Sanan","latitude":"-8.0675","longitude":"112.2832","feature_class":"P","feature_code":"PPLA4","country_code":"ID","cc2":"","admin1_code":"08","admin2_code":"","admin3_code":"","admin4_code":"","population":"0","elevation":"","dem":"300","timezone":"Asia/Jakarta","modification_date":"2012-01-20"},{"geonameid":"7035291","name":"Jajar","asciiname":"Jajar","alternatenames":"Jajar","latitude":"-8.0727","longitude":"112.2956","feature_class":"P","feature_code":"PPLA4","country_code":"ID","cc2":"","admin1_code":"08","admin2_code":"","admin3_code":"","admin4_code":"","population":"0","elevation":"","dem":"292","timezone":"Asia/Jakarta","modification_date":"2012-01-20"},{"geonameid":"7035295","name":"Tembalang","asciiname":"Tembalang","alternatenames":"Tembalang","latitude":"-8.0701","longitude":"112.335","feature_class":"P","feature_code":"PPLA4","country_code":"ID","cc2":"","admin1_code":"08","admin2_code":"","admin3_code":"","admin4_code":"","population":"0","elevation":"","dem":"320","timezone":"Asia/Jakarta","modification_date":"2012-01-20"},{"geonameid":"7035306","name":"Plumbangan","asciiname":"Plumbangan","alternatenames":"Plumbangan","latitude":"-8.0766","longitude":"112.3404","feature_class":"P","feature_code":"PPLA4","country_code":"ID","cc2":"","admin1_code":"08","admin2_code":"","admin3_code":"","admin4_code":"","population":"0","elevation":"","dem":"300","timezone":"Asia/Jakarta","modification_date":"2012-01-20"},{"geonameid":"7035312","name":"Gogolatar","asciiname":"Gogolatar","alternatenames":"Gogolatar","latitude":"-8.0785","longitude":"112.3042","feature_class":"P","feature_code":"PPLA4","country_code":"ID","cc2":"","admin1_code":"08","admin2_code":"","admin3_code":"","admin4_code":"","population":"0","elevation":"","dem":"278","timezone":"Asia/Jakarta","modification_date":"2012-01-20"},{"geonameid":"7035314","name":"Kamulan","asciiname":"Kamulan","alternatenames":"Kamulan","latitude":"-8.0811","longitude":"112.2912","feature_class":"P","feature_code":"PPLA4","country_code":"ID","cc2":"","admin1_code":"08","admin2_code":"","admin3_code":"","admin4_code":"","population":"0","elevation":"","dem":"273","timezone":"Asia/Jakarta","modification_date":"2012-01-20"},{"geonameid":"7035319","name":"Sonogunting","asciiname":"Sonogunting","alternatenames":"Sonogunting","latitude":"-8.0839","longitude":"112.2605","feature_class":"P","feature_code":"PPLA4","country_code":"ID","cc2":"","admin1_code":"08","admin2_code":"","admin3_code":"","admin4_code":"","population":"0","elevation":"","dem":"262","timezone":"Asia/Jakarta","modification_date":"2012-01-20"},{"geonameid":"7035323","name":"Gogosuket","asciiname":"Gogosuket","alternatenames":"Gogosuket","latitude":"-8.0896","longitude":"112.2944","feature_class":"P","feature_code":"PPLA4","country_code":"ID","cc2":"","admin1_code":"08","admin2_code":"","admin3_code":"","admin4_code":"","population":"0","elevation":"","dem":"257","timezone":"Asia/Jakarta","modification_date":"2012-01-20"},{"geonameid":"7035328","name":"Pandean","asciiname":"Pandean","alternatenames":"Pandean","latitude":"-8.09308","longitude":"112.32795","feature_class":"P","feature_code":"PPLA4","country_code":"ID","cc2":"","admin1_code":"08","admin2_code":"","admin3_code":"","admin4_code":"","population":"0","elevation":"","dem":"275","timezone":"Asia/Jakarta","modification_date":"2012-01-20"},{"geonameid":"7035333","name":"Suru","asciiname":"Suru","alternatenames":"Suru","latitude":"-8.0933","longitude":"112.3519","feature_class":"P","feature_code":"PPLA4","country_code":"ID","cc2":"","admin1_code":"08","admin2_code":"","admin3_code":"","admin4_code":"","population":"0","elevation":"","dem":"285","timezone":"Asia/Jakarta","modification_date":"2012-01-20"},{"geonameid":"7035361","name":"Klemunan","asciiname":"Klemunan","alternatenames":"Klemunan","latitude":"-8.0984","longitude":"112.3341","feature_class":"P","feature_code":"PPLA4","country_code":"ID","cc2":"","admin1_code":"08","admin2_code":"","admin3_code":"","admin4_code":"","population":"0","elevation":"","dem":"262","timezone":"Asia/Jakarta","modification_date":"2012-01-20"},{"geonameid":"7035368","name":"Tulungrejo","asciiname":"Tulungrejo","alternatenames":"Tulungrejo","latitude":"-8.1116","longitude":"112.3492","feature_class":"P","feature_code":"PPLA4","country_code":"ID","cc2":"","admin1_code":"08","admin2_code":"","admin3_code":"","admin4_code":"","population":"0","elevation":"","dem":"241","timezone":"Asia/Jakarta","modification_date":"2012-01-20"},{"geonameid":"7035370","name":"Tegalrejo","asciiname":"Tegalrejo","alternatenames":"Tegalrejo","latitude":"-8.1125","longitude":"112.3213","feature_class":"P","feature_code":"PPLA4","country_code":"ID","cc2":"","admin1_code":"08","admin2_code":"","admin3_code":"","admin4_code":"","population":"0","elevation":"","dem":"237","timezone":"Asia/Jakarta","modification_date":"2012-01-20"},{"geonameid":"7035372","name":"Sragi","asciiname":"Sragi","alternatenames":"Sragi","latitude":"-8.1134","longitude":"112.2983","feature_class":"P","feature_code":"PPLA4","country_code":"ID","cc2":"","admin1_code":"08","admin2_code":"","admin3_code":"","admin4_code":"","population":"0","elevation":"","dem":"223","timezone":"Asia/Jakarta","modification_date":"2012-01-20"},{"geonameid":"7035373","name":"Wonorejo Dua","asciiname":"Wonorejo Dua","alternatenames":"Wonorejo Dua","latitude":"-8.1136","longitude":"112.2869","feature_class":"P","feature_code":"PPLA4","country_code":"ID","cc2":"","admin1_code":"08","admin2_code":"","admin3_code":"","admin4_code":"","population":"0","elevation":"","dem":"216","timezone":"Asia/Jakarta","modification_date":"2012-01-20"},{"geonameid":"7035377","name":"Tumpang","asciiname":"Tumpang","alternatenames":"Tumpang","latitude":"-8.1227","longitude":"112.2541","feature_class":"P","feature_code":"PPLA4","country_code":"ID","cc2":"","admin1_code":"08","admin2_code":"","admin3_code":"","admin4_code":"","population":"0","elevation":"","dem":"197","timezone":"Asia/Jakarta","modification_date":"2012-01-20"},{"geonameid":"7035378","name":"Jeblog Satu","asciiname":"Jeblog Satu","alternatenames":"Jeblog Satu","latitude":"-8.1186","longitude":"112.2625","feature_class":"P","feature_code":"PPLA4","country_code":"ID","cc2":"","admin1_code":"08","admin2_code":"","admin3_code":"","admin4_code":"","population":"0","elevation":"","dem":"201","timezone":"Asia/Jakarta","modification_date":"2012-01-20"},{"geonameid":"7035379","name":"Bendosewu","asciiname":"Bendosewu","alternatenames":"Bendosewu","latitude":"-8.1198","longitude":"112.2726","feature_class":"P","feature_code":"PPLA4","country_code":"ID","cc2":"","admin1_code":"08","admin2_code":"","admin3_code":"","admin4_code":"","population":"0","elevation":"","dem":"204","timezone":"Asia/Jakarta","modification_date":"2012-01-20"},{"geonameid":"7035381","name":"Duren","asciiname":"Duren","alternatenames":"Duren","latitude":"-8.1213","longitude":"112.2828","feature_class":"P","feature_code":"PPLA4","country_code":"ID","cc2":"","admin1_code":"08","admin2_code":"","admin3_code":"","admin4_code":"","population":"0","elevation":"","dem":"204","timezone":"Asia/Jakarta","modification_date":"2012-01-20"},{"geonameid":"7035384","name":"Bukur","asciiname":"Bukur","alternatenames":"Bukur","latitude":"-8.1214","longitude":"112.3362","feature_class":"P","feature_code":"PPLA4","country_code":"ID","cc2":"","admin1_code":"08","admin2_code":"","admin3_code":"","admin4_code":"","population":"0","elevation":"","dem":"228","timezone":"Asia/Jakarta","modification_date":"2012-01-20"},{"geonameid":"7035389","name":"Talun","asciiname":"Talun","alternatenames":"Talun","latitude":"-8.0906","longitude":"112.285","feature_class":"P","feature_code":"PPLA4","country_code":"ID","cc2":"","admin1_code":"08","admin2_code":"","admin3_code":"","admin4_code":"","population":"0","elevation":"","dem":"252","timezone":"Asia/Jakarta","modification_date":"2010-08-10"},{"geonameid":"7035390","name":"Gandusari","asciiname":"Gandusari","alternatenames":"Gandusari","latitude":"-8.0457","longitude":"112.303","feature_class":"P","feature_code":"PPLA4","country_code":"ID","cc2":"","admin1_code":"08","admin2_code":"","admin3_code":"","admin4_code":"","population":"0","elevation":"","dem":"359","timezone":"Asia/Jakarta","modification_date":"2010-08-10"},{"geonameid":"7035391","name":"Doko","asciiname":"Doko","alternatenames":"Doko","latitude":"-8.0816","longitude":"112.3729","feature_class":"P","feature_code":"PPLA4","country_code":"ID","cc2":"","admin1_code":"08","admin2_code":"","admin3_code":"","admin4_code":"","population":"0","elevation":"","dem":"346","timezone":"Asia/Jakarta","modification_date":"2010-08-10"},{"geonameid":"7035392","name":"Beru","asciiname":"Beru","alternatenames":"Beru","latitude":"-8.087","longitude":"112.319","feature_class":"P","feature_code":"PPLA4","country_code":"ID","cc2":"","admin1_code":"08","admin2_code":"","admin3_code":"","admin4_code":"","population":"0","elevation":"","dem":"281","timezone":"Asia/Jakarta","modification_date":"2010-08-10"},{"geonameid":"7035479","name":"Balerejo","asciiname":"Balerejo","alternatenames":"Balerejo","latitude":"-8.0301","longitude":"112.3765","feature_class":"P","feature_code":"PPLA4","country_code":"ID","cc2":"","admin1_code":"08","admin2_code":"","admin3_code":"","admin4_code":"","population":"0","elevation":"","dem":"520","timezone":"Asia/Jakarta","modification_date":"2012-01-20"},{"geonameid":"7035499","name":"Sumberingin","asciiname":"Sumberingin","alternatenames":"Sumberingin","latitude":"-8.0428","longitude":"112.465","feature_class":"P","feature_code":"PPLA4","country_code":"ID","cc2":"","admin1_code":"08","admin2_code":"","admin3_code":"","admin4_code":"","population":"0","elevation":"","dem":"741","timezone":"Asia/Jakarta","modification_date":"2012-01-20"},{"geonameid":"7035504","name":"Ampelgading","asciiname":"Ampelgading","alternatenames":"Ampelgading","latitude":"-8.0467","longitude":"112.4457","feature_class":"P","feature_code":"PPLA4","country_code":"ID","cc2":"","admin1_code":"08","admin2_code":"","admin3_code":"","admin4_code":"","population":"0","elevation":"","dem":"686","timezone":"Asia/Jakarta","modification_date":"2012-01-20"},{"geonameid":"7035506","name":"Kalimanis","asciiname":"Kalimanis","alternatenames":"Kalimanis","latitude":"-8.045","longitude":"112.4374","feature_class":"P","feature_code":"PPLA4","country_code":"ID","cc2":"","admin1_code":"08","admin2_code":"","admin3_code":"","admin4_code":"","population":"0","elevation":"","dem":"646","timezone":"Asia/Jakarta","modification_date":"2012-01-20"},{"geonameid":"7035508","name":"Resapombo","asciiname":"Resapombo","alternatenames":"Resapombo","latitude":"-8.0445","longitude":"112.4188","feature_class":"P","feature_code":"PPLA4","country_code":"ID","cc2":"","admin1_code":"08","admin2_code":"","admin3_code":"","admin4_code":"","population":"0","elevation":"","dem":"589","timezone":"Asia/Jakarta","modification_date":"2012-01-20"},{"geonameid":"7035524","name":"Tempursari Wetan","asciiname":"Tempursari Wetan","alternatenames":"Tempursari Wetan","latitude":"-8.0522","longitude":"112.4885","feature_class":"P","feature_code":"PPLA4","country_code":"ID","cc2":"","admin1_code":"08","admin2_code":"","admin3_code":"","admin4_code":"","population":"0","elevation":"","dem":"668","timezone":"Asia/Jakarta","modification_date":"2012-01-20"},{"geonameid":"7035532","name":"Bumirejo","asciiname":"Bumirejo","alternatenames":"Bumirejo","latitude":"-8.0593","longitude":"112.4281","feature_class":"P","feature_code":"PPLA4","country_code":"ID","cc2":"","admin1_code":"08","admin2_code":"","admin3_code":"","admin4_code":"","population":"0","elevation":"","dem":"533","timezone":"Asia/Jakarta","modification_date":"2012-01-20"},{"geonameid":"7035536","name":"Sidorejo","asciiname":"Sidorejo","alternatenames":"Sidorejo","latitude":"-8.0743","longitude":"112.3798","feature_class":"P","feature_code":"PPLA4","country_code":"ID","cc2":"","admin1_code":"08","admin2_code":"","admin3_code":"","admin4_code":"","population":"0","elevation":"","dem":"382","timezone":"Asia/Jakarta","modification_date":"2012-01-20"},{"geonameid":"7035554","name":"Kemiri Gede","asciiname":"Kemiri Gede","alternatenames":"Kemiri Gede","latitude":"-8.0763","longitude":"112.41","feature_class":"P","feature_code":"PPLA4","country_code":"ID","cc2":"","admin1_code":"08","admin2_code":"","admin3_code":"","admin4_code":"","population":"0","elevation":"","dem":"438","timezone":"Asia/Jakarta","modification_date":"2012-01-20"},{"geonameid":"7035558","name":"Ringinrejo","asciiname":"Ringinrejo","alternatenames":"Ringinrejo","latitude":"-8.0832","longitude":"112.3873","feature_class":"P","feature_code":"PPLA4","country_code":"ID","cc2":"","admin1_code":"08","admin2_code":"","admin3_code":"","admin4_code":"","population":"0","elevation":"","dem":"357","timezone":"Asia/Jakarta","modification_date":"2012-01-20"},{"geonameid":"7035576","name":"Jambuwerkrajan","asciiname":"Jambuwerkrajan","alternatenames":"Jambuwerkrajan","latitude":"-8.0934","longitude":"112.463","feature_class":"P","feature_code":"PPLA4","country_code":"ID","cc2":"","admin1_code":"08","admin2_code":"","admin3_code":"","admin4_code":"","population":"0","elevation":"","dem":"428","timezone":"Asia/Jakarta","modification_date":"2012-01-20"},{"geonameid":"7035578","name":"Sidomulyo","asciiname":"Sidomulyo","alternatenames":"Sidomulyo","latitude":"-8.0926","longitude":"112.4492","feature_class":"P","feature_code":"PPLA4","country_code":"ID","cc2":"","admin1_code":"08","admin2_code":"","admin3_code":"","admin4_code":"","population":"0","elevation":"","dem":"420","timezone":"Asia/Jakarta","modification_date":"2012-01-20"},{"geonameid":"7035582","name":"Cungkup","asciiname":"Cungkup","alternatenames":"Cungkup","latitude":"-8.0935","longitude":"112.426","feature_class":"P","feature_code":"PPLA4","country_code":"ID","cc2":"","admin1_code":"08","admin2_code":"","admin3_code":"","admin4_code":"","population":"0","elevation":"","dem":"391","timezone":"Asia/Jakarta","modification_date":"2012-01-20"},{"geonameid":"7035587","name":"Tepas","asciiname":"Tepas","alternatenames":"Tepas","latitude":"-8.0977","longitude":"112.3945","feature_class":"P","feature_code":"PPLA4","country_code":"ID","cc2":"","admin1_code":"08","admin2_code":"","admin3_code":"","admin4_code":"","population":"0","elevation":"","dem":"351","timezone":"Asia/Jakarta","modification_date":"2012-01-20"},{"geonameid":"7035596","name":"Tapakrejo","asciiname":"Tapakrejo","alternatenames":"Tapakrejo","latitude":"-8.1094","longitude":"112.4017","feature_class":"P","feature_code":"PPLA4","country_code":"ID","cc2":"","admin1_code":"08","admin2_code":"","admin3_code":"","admin4_code":"","population":"0","elevation":"","dem":"337","timezone":"Asia/Jakarta","modification_date":"2012-01-20"},{"geonameid":"7035611","name":"Krandil","asciiname":"Krandil","alternatenames":"Krandil","latitude":"-8.1129","longitude":"112.4929","feature_class":"P","feature_code":"PPLA4","country_code":"ID","cc2":"","admin1_code":"08","admin2_code":"","admin3_code":"","admin4_code":"","population":"0","elevation":"","dem":"367","timezone":"Asia/Jakarta","modification_date":"2012-01-20"},{"geonameid":"7035613","name":"Kertorejo","asciiname":"Kertorejo","alternatenames":"Kertorejo","latitude":"-8.1085","longitude":"112.4717","feature_class":"P","feature_code":"PPLA4","country_code":"ID","cc2":"","admin1_code":"08","admin2_code":"","admin3_code":"","admin4_code":"","population":"0","elevation":"","dem":"363","timezone":"Asia/Jakarta","modification_date":"2012-01-20"},{"geonameid":"7035618","name":"Kepel","asciiname":"Kepel","alternatenames":"Kepel","latitude":"-8.1157","longitude":"112.4289","feature_class":"P","feature_code":"PPLA4","country_code":"ID","cc2":"","admin1_code":"08","admin2_code":"","admin3_code":"","admin4_code":"","population":"0","elevation":"","dem":"340","timezone":"Asia/Jakarta","modification_date":"2012-01-20"},{"geonameid":"7035619","name":"Pakel","asciiname":"Pakel","alternatenames":"Pakel","latitude":"-8.109","longitude":"112.4112","feature_class":"P","feature_code":"PPLA4","country_code":"ID","cc2":"","admin1_code":"08","admin2_code":"","admin3_code":"","admin4_code":"","population":"0","elevation":"","dem":"333","timezone":"Asia/Jakarta","modification_date":"2012-01-20"},{"geonameid":"7035636","name":"Wonosari","asciiname":"Wonosari","alternatenames":"Wonosari","latitude":"-8.0283","longitude":"112.4938","feature_class":"P","feature_code":"PPLA4","country_code":"ID","cc2":"","admin1_code":"08","admin2_code":"","admin3_code":"","admin4_code":"","population":"0","elevation":"","dem":"834","timezone":"Asia/Jakarta","modification_date":"2010-08-10"},{"geonameid":"7035669","name":"Tanjung Timur","asciiname":"Tanjung Timur","alternatenames":"Tanjung Timur","latitude":"-7.187","longitude":"111.4987","feature_class":"P","feature_code":"PPLA4","country_code":"ID","cc2":"","admin1_code":"07","admin2_code":"","admin3_code":"","admin4_code":"","population":"0","elevation":"","dem":"51","timezone":"Asia/Jakarta","modification_date":"2012-01-20"},{"geonameid":"7035670","name":"Pulo","asciiname":"Pulo","alternatenames":"Pulo","latitude":"-7.1895","longitude":"111.4989","feature_class":"P","feature_code":"PPLA4","country_code":"ID","cc2":"","admin1_code":"07","admin2_code":"","admin3_code":"","admin4_code":"","population":"0","elevation":"","dem":"50","timezone":"Asia/Jakarta","modification_date":"2012-01-20"},{"geonameid":"7035672","name":"Peting","asciiname":"Peting","alternatenames":"Peting","latitude":"-7.1805","longitude":"111.46","feature_class":"P","feature_code":"PPLA4","country_code":"ID","cc2":"","admin1_code":"07","admin2_code":"","admin3_code":"","admin4_code":"","population":"0","elevation":"","dem":"61","timezone":"Asia/Jakarta","modification_date":"2012-01-20"},{"geonameid":"7035700","name":"Gayam","asciiname":"Gayam","alternatenames":"Gayam","latitude":"-7.2195","longitude":"111.4557","feature_class":"P","feature_code":"PPLA4","country_code":"ID","cc2":"","admin1_code":"07","admin2_code":"","admin3_code":"","admin4_code":"","population":"0","elevation":"","dem":"43","timezone":"Asia/Jakarta","modification_date":"2012-01-20"},{"geonameid":"7035705","name":"Mojorembun","asciiname":"Mojorembun","alternatenames":"Mojorembun","latitude":"-7.2269","longitude":"111.4706","feature_class":"P","feature_code":"PPLA4","country_code":"ID","cc2":"","admin1_code":"07","admin2_code":"","admin3_code":"","admin4_code":"","population":"0","elevation":"","dem":"42","timezone":"Asia/Jakarta","modification_date":"2012-01-20"},{"geonameid":"7035710","name":"Gondel","asciiname":"Gondel","alternatenames":"Gondel","latitude":"-7.2293","longitude":"111.4947","feature_class":"P","feature_code":"PPLA4","country_code":"ID","cc2":"","admin1_code":"07","admin2_code":"","admin3_code":"","admin4_code":"","population":"0","elevation":"","dem":"37","timezone":"Asia/Jakarta","modification_date":"2012-01-20"},{"geonameid":"7035718","name":"Menden","asciiname":"Menden","alternatenames":"Menden","latitude":"-7.2467","longitude":"111.4548","feature_class":"P","feature_code":"PPLA3","country_code":"ID","cc2":"","admin1_code":"07","admin2_code":"","admin3_code":"","admin4_code":"","population":"0","elevation":"","dem":"49","timezone":"Asia/Jakarta","modification_date":"2012-01-20"},{"geonameid":"7035727","name":"Temulus","asciiname":"Temulus","alternatenames":"Temulus","latitude":"-7.2185","longitude":"111.4221","feature_class":"P","feature_code":"PPLA4","country_code":"ID","cc2":"","admin1_code":"07","admin2_code":"","admin3_code":"","admin4_code":"","population":"0","elevation":"","dem":"54","timezone":"Asia/Jakarta","modification_date":"2012-01-20"},{"geonameid":"7035736","name":"Sumberrejo","asciiname":"Sumberrejo","alternatenames":"Sumberrejo","latitude":"-7.2","longitude":"111.4347","feature_class":"P","feature_code":"PPLA4","country_code":"ID","cc2":"","admin1_code":"07","admin2_code":"","admin3_code":"","admin4_code":"","population":"0","elevation":"","dem":"48","timezone":"Asia/Jakarta","modification_date":"2012-01-20"},{"geonameid":"7035743","name":"Pilang","asciiname":"Pilang","alternatenames":"Pilang","latitude":"-7.2008","longitude":"111.3926","feature_class":"P","feature_code":"PPLA4","country_code":"ID","cc2":"","admin1_code":"07","admin2_code":"","admin3_code":"","admin4_code":"","population":"0","elevation":"","dem":"56","timezone":"Asia/Jakarta","modification_date":"2012-01-20"},{"geonameid":"7035760","name":"Kadengan","asciiname":"Kadengan","alternatenames":"Kadengan","latitude":"-7.184","longitude":"111.3876","feature_class":"P","feature_code":"PPLA4","country_code":"ID","cc2":"","admin1_code":"07","admin2_code":"","admin3_code":"","admin4_code":"","population":"0","elevation":"","dem":"64","timezone":"Asia/Jakarta","modification_date":"2012-01-20"},{"geonameid":"7035769","name":"Ploso Wetan","asciiname":"Ploso Wetan","alternatenames":"Ploso Wetan","latitude":"-7.1893","longitude":"111.4109","feature_class":"P","feature_code":"PPLA4","country_code":"ID","cc2":"","admin1_code":"07","admin2_code":"","admin3_code":"","admin4_code":"","population":"0","elevation":"","dem":"54","timezone":"Asia/Jakarta","modification_date":"2012-01-20"},{"geonameid":"7035786","name":"Randublatung","asciiname":"Randublatung","alternatenames":"Randublatung","latitude":"-7.2036","longitude":"111.3864","feature_class":"P","feature_code":"PPLA4","country_code":"ID","cc2":"","admin1_code":"07","admin2_code":"","admin3_code":"","admin4_code":"","population":"0","elevation":"","dem":"59","timezone":"Asia/Jakarta","modification_date":"2010-08-10"},{"geonameid":"7035787","name":"Ngraho","asciiname":"Ngraho","alternatenames":"Ngraho","latitude":"-7.1707","longitude":"111.4972","feature_class":"P","feature_code":"PPLA3","country_code":"ID","cc2":"","admin1_code":"07","admin2_code":"","admin3_code":"","admin4_code":"","population":"0","elevation":"","dem":"55","timezone":"Asia/Jakarta","modification_date":"2010-08-10"},{"geonameid":"7035852","name":"Karangboyo","asciiname":"Karangboyo","alternatenames":"Karangboyo","latitude":"-7.1291","longitude":"111.6003","feature_class":"P","feature_code":"PPLA4","country_code":"ID","cc2":"","admin1_code":"07","admin2_code":"","admin3_code":"","admin4_code":"","population":"0","elevation":"","dem":"37","timezone":"Asia/Jakarta","modification_date":"2012-01-20"},{"geonameid":"7035853","name":"Ngroto","asciiname":"Ngroto","alternatenames":"Ngroto","latitude":"-7.1257","longitude":"111.6054","feature_class":"P","feature_code":"PPLA4","country_code":"ID","cc2":"","admin1_code":"07","admin2_code":"","admin3_code":"","admin4_code":"","population":"0","elevation":"","dem":"37","timezone":"Asia/Jakarta","modification_date":"2012-01-20"},{"geonameid":"7035858","name":"Caper","asciiname":"Caper","alternatenames":"Caper","latitude":"-7.1354","longitude":"111.6124","feature_class":"P","feature_code":"PPLA4","country_code":"ID","cc2":"","admin1_code":"08","admin2_code":"","admin3_code":"","admin4_code":"","population":"0","elevation":"","dem":"33","timezone":"Asia/Jakarta","modification_date":"2012-01-20"},{"geonameid":"7035860","name":"Ngelo","asciiname":"Ngelo","alternatenames":"Ngelo","latitude":"-7.1354","longitude":"111.6053","feature_class":"P","feature_code":"PPLA4","country_code":"ID","cc2":"","admin1_code":"07","admin2_code":"","admin3_code":"","admin4_code":"","population":"0","elevation":"","dem":"33","timezone":"Asia/Jakarta","modification_date":"2012-01-20"},{"geonameid":"7035874","name":"Demakan","asciiname":"Demakan","alternatenames":"Demakan","latitude":"-7.1475","longitude":"111.6047","feature_class":"P","feature_code":"PPLA4","country_code":"ID","cc2":"","admin1_code":"08","admin2_code":"","admin3_code":"","admin4_code":"","population":"0","elevation":"","dem":"32","timezone":"Asia/Jakarta","modification_date":"2012-01-20"},{"geonameid":"7035880","name":"Kuncen","asciiname":"Kuncen","alternatenames":"Kuncen","latitude":"-7.1572","longitude":"111.6215","feature_class":"P","feature_code":"PPLA4","country_code":"ID","cc2":"","admin1_code":"08","admin2_code":"","admin3_code":"","admin4_code":"","population":"0","elevation":"","dem":"31","timezone":"Asia/Jakarta","modification_date":"2012-01-20"},{"geonameid":"7035887","name":"Tambakkromo","asciiname":"Tambakkromo","alternatenames":"Tambakkromo","latitude":"-7.1571","longitude":"111.5702","feature_class":"P","feature_code":"PPLA4","country_code":"ID","cc2":"","admin1_code":"07","admin2_code":"","admin3_code":"","admin4_code":"","population":"0","elevation":"","dem":"37","timezone":"Asia/Jakarta","modification_date":"2012-01-20"},{"geonameid":"7035888","name":"Mulyorejo","asciiname":"Mulyorejo","alternatenames":"Mulyorejo","latitude":"-7.1587","longitude":"111.5646","feature_class":"P","feature_code":"PPLA4","country_code":"ID","cc2":"","admin1_code":"07","admin2_code":"","admin3_code":"","admin4_code":"","population":"0","elevation":"","dem":"39","timezone":"Asia/Jakarta","modification_date":"2012-01-20"},{"geonameid":"7035890","name":"Mernung","asciiname":"Mernung","alternatenames":"Mernung","latitude":"-7.1544","longitude":"111.5476","feature_class":"P","feature_code":"PPLA4","country_code":"ID","cc2":"","admin1_code":"07","admin2_code":"","admin3_code":"","admin4_code":"","population":"0","elevation":"","dem":"62","timezone":"Asia/Jakarta","modification_date":"2012-01-20"},{"geonameid":"7035891","name":"Seren","asciiname":"Seren","alternatenames":"Seren","latitude":"-7.1571","longitude":"111.5378","feature_class":"P","feature_code":"PPLA4","country_code":"ID","cc2":"","admin1_code":"07","admin2_code":"","admin3_code":"","admin4_code":"","population":"0","elevation":"","dem":"64","timezone":"Asia/Jakarta","modification_date":"2012-01-20"},{"geonameid":"7035899","name":"Kentongan","asciiname":"Kentongan","alternatenames":"Kentongan","latitude":"-7.1655","longitude":"111.5605","feature_class":"P","feature_code":"PPLA4","country_code":"ID","cc2":"","admin1_code":"07","admin2_code":"","admin3_code":"","admin4_code":"","population":"0","elevation":"","dem":"42","timezone":"Asia/Jakarta","modification_date":"2012-01-20"},{"geonameid":"7035903","name":"Nguken","asciiname":"Nguken","alternatenames":"Nguken","latitude":"-7.1609","longitude":"111.5954","feature_class":"P","feature_code":"PPLA4","country_code":"ID","cc2":"","admin1_code":"08","admin2_code":"","admin3_code":"","admin4_code":"","population":"0","elevation":"","dem":"33","timezone":"Asia/Jakarta","modification_date":"2012-01-20"},{"geonameid":"7035906","name":"Pengkok","asciiname":"Pengkok","alternatenames":"Pengkok","latitude":"-7.1667","longitude":"111.6099","feature_class":"P","feature_code":"PPLA3","country_code":"ID","cc2":"","admin1_code":"08","admin2_code":"","admin3_code":"","admin4_code":"","population":"0","elevation":"","dem":"33","timezone":"Asia/Jakarta","modification_date":"2012-01-20"},{"geonameid":"7035911","name":"Mersodo","asciiname":"Mersodo","alternatenames":"Mersodo","latitude":"-7.1788","longitude":"111.5889","feature_class":"P","feature_code":"PPLA4","country_code":"ID","cc2":"","admin1_code":"08","admin2_code":"","admin3_code":"","admin4_code":"","population":"0","elevation":"","dem":"34","timezone":"Asia/Jakarta","modification_date":"2012-01-20"},{"geonameid":"7035914","name":"Nglanjuk","asciiname":"Nglanjuk","alternatenames":"Nglanjuk","latitude":"-7.1664","longitude":"111.5849","feature_class":"P","feature_code":"PPLA4","country_code":"ID","cc2":"","admin1_code":"07","admin2_code":"","admin3_code":"","admin4_code":"","population":"0","elevation":"","dem":"35","timezone":"Asia/Jakarta","modification_date":"2012-01-20"},{"geonameid":"7035917","name":"Balangpule","asciiname":"Balangpule","alternatenames":"Balangpule","latitude":"-7.1724","longitude":"111.501","feature_class":"P","feature_code":"PPLA4","country_code":"ID","cc2":"","admin1_code":"07","admin2_code":"","admin3_code":"","admin4_code":"","population":"0","elevation":"","dem":"56","timezone":"Asia/Jakarta","modification_date":"2012-01-20"},{"geonameid":"7035923","name":"Blimbing","asciiname":"Blimbing","alternatenames":"Blimbing","latitude":"-7.1845","longitude":"111.6005","feature_class":"P","feature_code":"PPLA4","country_code":"ID","cc2":"","admin1_code":"08","admin2_code":"","admin3_code":"","admin4_code":"","population":"0","elevation":"","dem":"54","timezone":"Asia/Jakarta","modification_date":"2012-01-20"},{"geonameid":"7035925","name":"Gempol","asciiname":"Gempol","alternatenames":"Gempol","latitude":"-7.1827","longitude":"111.6137","feature_class":"P","feature_code":"PPLA4","country_code":"ID","cc2":"","admin1_code":"08","admin2_code":"","admin3_code":"","admin4_code":"","population":"0","elevation":"","dem":"36","timezone":"Asia/Jakarta","modification_date":"2012-01-20"},{"geonameid":"7035928","name":"Sonorejo","asciiname":"Sonorejo","alternatenames":"Sonorejo","latitude":"-7.1814","longitude":"111.6234","feature_class":"P","feature_code":"PPLA4","country_code":"ID","cc2":"","admin1_code":"08","admin2_code":"","admin3_code":"","admin4_code":"","population":"0","elevation":"","dem":"50","timezone":"Asia/Jakarta","modification_date":"2012-01-20"},{"geonameid":"7035932","name":"Ngeper","asciiname":"Ngeper","alternatenames":"Ngeper","latitude":"-7.1919","longitude":"111.6006","feature_class":"P","feature_code":"PPLA4","country_code":"ID","cc2":"","admin1_code":"08","admin2_code":"","admin3_code":"","admin4_code":"","population":"0","elevation":"","dem":"54","timezone":"Asia/Jakarta","modification_date":"2012-01-20"},{"geonameid":"7035935","name":"Prangi","asciiname":"Prangi","alternatenames":"Prangi","latitude":"-7.1874","longitude":"111.5835","feature_class":"P","feature_code":"PPLA4","country_code":"ID","cc2":"","admin1_code":"08","admin2_code":"","admin3_code":"","admin4_code":"","population":"0","elevation":"","dem":"33","timezone":"Asia/Jakarta","modification_date":"2012-01-20"},{"geonameid":"7035936","name":"Sumberpitu","asciiname":"Sumberpitu","alternatenames":"Sumberpitu","latitude":"-7.1849","longitude":"111.5817","feature_class":"P","feature_code":"PPLA4","country_code":"ID","cc2":"","admin1_code":"07","admin2_code":"","admin3_code":"","admin4_code":"","population":"0","elevation":"","dem":"35","timezone":"Asia/Jakarta","modification_date":"2012-01-20"},{"geonameid":"7035938","name":"Tebon","asciiname":"Tebon","alternatenames":"Tebon","latitude":"-7.1883","longitude":"111.5668","feature_class":"P","feature_code":"PPLA4","country_code":"ID","cc2":"","admin1_code":"08","admin2_code":"","admin3_code":"","admin4_code":"","population":"0","elevation":"","dem":"34","timezone":"Asia/Jakarta","modification_date":"2012-01-20"},{"geonameid":"7035942","name":"Sugihwaras","asciiname":"Sugihwaras","alternatenames":"Sugihwaras","latitude":"-7.1863","longitude":"111.5437","feature_class":"P","feature_code":"PPLA4","country_code":"ID","cc2":"","admin1_code":"07","admin2_code":"","admin3_code":"","admin4_code":"","population":"0","elevation":"","dem":"45","timezone":"Asia/Jakarta","modification_date":"2012-01-20"},{"geonameid":"7035964","name":"Kemantren","asciiname":"Kemantren","alternatenames":"Kemantren","latitude":"-7.2095","longitude":"111.5187","feature_class":"P","feature_code":"PPLA4","country_code":"ID","cc2":"","admin1_code":"07","admin2_code":"","admin3_code":"","admin4_code":"","population":"0","elevation":"","dem":"39","timezone":"Asia/Jakarta","modification_date":"2012-01-20"},{"geonameid":"7035967","name":"Jetis","asciiname":"Jetis","alternatenames":"Jetis","latitude":"-7.2144","longitude":"111.5179","feature_class":"P","feature_code":"PPLA4","country_code":"ID","cc2":"","admin1_code":"07","admin2_code":"","admin3_code":"","admin4_code":"","population":"0","elevation":"","dem":"38","timezone":"Asia/Jakarta","modification_date":"2012-01-20"},{"geonameid":"7035968","name":"Klagen","asciiname":"Klagen","alternatenames":"Klagen","latitude":"-7.2125","longitude":"111.5293","feature_class":"P","feature_code":"PPLA4","country_code":"ID","cc2":"","admin1_code":"07","admin2_code":"","admin3_code":"","admin4_code":"","population":"0","elevation":"","dem":"36","timezone":"Asia/Jakarta","modification_date":"2012-01-20"},{"geonameid":"7035971","name":"Ketawang","asciiname":"Ketawang","alternatenames":"Ketawang","latitude":"-7.2122","longitude":"111.563","feature_class":"P","feature_code":"PPLA4","country_code":"ID","cc2":"","admin1_code":"08","admin2_code":"","admin3_code":"","admin4_code":"","population":"0","elevation":"","dem":"42","timezone":"Asia/Jakarta","modification_date":"2012-01-20"},{"geonameid":"7035980","name":"Purwa","asciiname":"Purwa","alternatenames":"Purwa","latitude":"-7.2228","longitude":"111.5441","feature_class":"P","feature_code":"PPLA4","country_code":"ID","cc2":"","admin1_code":"08","admin2_code":"","admin3_code":"","admin4_code":"","population":"0","elevation":"","dem":"36","timezone":"Asia/Jakarta","modification_date":"2012-01-20"},{"geonameid":"7035985","name":"Ketuwan","asciiname":"Ketuwan","alternatenames":"Ketuwan","latitude":"-7.2325","longitude":"111.5099","feature_class":"P","feature_code":"PPLA4","country_code":"ID","cc2":"","admin1_code":"07","admin2_code":"","admin3_code":"","admin4_code":"","population":"0","elevation":"","dem":"40","timezone":"Asia/Jakarta","modification_date":"2012-01-20"},{"geonameid":"7035989","name":"Tapelan","asciiname":"Tapelan","alternatenames":"Tapelan","latitude":"-7.2283","longitude":"111.5335","feature_class":"P","feature_code":"PPLA4","country_code":"ID","cc2":"","admin1_code":"08","admin2_code":"","admin3_code":"","admin4_code":"","population":"0","elevation":"","dem":"36","timezone":"Asia/Jakarta","modification_date":"2012-01-20"},{"geonameid":"7035993","name":"Klempun","asciiname":"Klempun","alternatenames":"Klempun","latitude":"-7.2292","longitude":"111.5837","feature_class":"P","feature_code":"PPLA4","country_code":"ID","cc2":"","admin1_code":"08","admin2_code":"","admin3_code":"","admin4_code":"","population":"0","elevation":"","dem":"42","timezone":"Asia/Jakarta","modification_date":"2012-01-20"},{"geonameid":"7035995","name":"Pengkol","asciiname":"Pengkol","alternatenames":"Pengkol","latitude":"-7.2352","longitude":"111.5932","feature_class":"P","feature_code":"PPLA4","country_code":"ID","cc2":"","admin1_code":"08","admin2_code":"","admin3_code":"","admin4_code":"","population":"0","elevation":"","dem":"45","timezone":"Asia/Jakarta","modification_date":"2012-01-20"},{"geonameid":"7036000","name":"Pandan","asciiname":"Pandan","alternatenames":"Pandan","latitude":"-7.2394","longitude":"111.564","feature_class":"P","feature_code":"PPLA4","country_code":"ID","cc2":"","admin1_code":"08","admin2_code":"","admin3_code":"","admin4_code":"","population":"0","elevation":"","dem":"54","timezone":"Asia/Jakarta","modification_date":"2012-01-20"},{"geonameid":"7036006","name":"Ngori","asciiname":"Ngori","alternatenames":"Ngori","latitude":"-7.2368","longitude":"111.5459","feature_class":"P","feature_code":"PPLA4","country_code":"ID","cc2":"","admin1_code":"08","admin2_code":"","admin3_code":"","admin4_code":"","population":"0","elevation":"","dem":"39","timezone":"Asia/Jakarta","modification_date":"2012-01-20"},{"geonameid":"7036008","name":"Mojorejo","asciiname":"Mojorejo","alternatenames":"Mojorejo","latitude":"-7.2405","longitude":"111.521","feature_class":"P","feature_code":"PPLA4","country_code":"ID","cc2":"","admin1_code":"08","admin2_code":"","admin3_code":"","admin4_code":"","population":"0","elevation":"","dem":"36","timezone":"Asia/Jakarta","modification_date":"2012-01-20"},{"geonameid":"7036028","name":"Batokan","asciiname":"Batokan","alternatenames":"Batokan","latitude":"-7.1433","longitude":"111.6129","feature_class":"P","feature_code":"PPLA4","country_code":"ID","cc2":"","admin1_code":"08","admin2_code":"","admin3_code":"","admin4_code":"","population":"0","elevation":"","dem":"31","timezone":"Asia/Jakarta","modification_date":"2010-08-10"},{"geonameid":"7036070","name":"Sekaran","asciiname":"Sekaran","alternatenames":"Sekaran","latitude":"-7.1271","longitude":"111.6519","feature_class":"P","feature_code":"PPLA4","country_code":"ID","cc2":"","admin1_code":"08","admin2_code":"","admin3_code":"","admin4_code":"","population":"0","elevation":"","dem":"35","timezone":"Asia/Jakarta","modification_date":"2012-01-20"},{"geonameid":"7036071","name":"Suroh","asciiname":"Suroh","alternatenames":"Suroh","latitude":"-7.1335","longitude":"111.6602","feature_class":"P","feature_code":"PPLA4","country_code":"ID","cc2":"","admin1_code":"08","admin2_code":"","admin3_code":"","admin4_code":"","population":"0","elevation":"","dem":"33","timezone":"Asia/Jakarta","modification_date":"2012-01-20"},{"geonameid":"7036074","name":"Kliteh","asciiname":"Kliteh","alternatenames":"Kliteh","latitude":"-7.1272","longitude":"111.7028","feature_class":"P","feature_code":"PPLA4","country_code":"ID","cc2":"","admin1_code":"08","admin2_code":"","admin3_code":"","admin4_code":"","population":"0","elevation":"","dem":"27","timezone":"Asia/Jakarta","modification_date":"2012-01-20"},{"geonameid":"7036079","name":"Celangap","asciiname":"Celangap","alternatenames":"Celangap","latitude":"-7.1373","longitude":"111.726","feature_class":"P","feature_code":"PPLA4","country_code":"ID","cc2":"","admin1_code":"08","admin2_code":"","admin3_code":"","admin4_code":"","population":"0","elevation":"","dem":"27","timezone":"Asia/Jakarta","modification_date":"2012-01-20"},{"geonameid":"7036081","name":"Cengungklung","asciiname":"Cengungklung","alternatenames":"Cengungklung","latitude":"-7.1388","longitude":"111.7137","feature_class":"P","feature_code":"PPLA4","country_code":"ID","cc2":"","admin1_code":"08","admin2_code":"","admin3_code":"","admin4_code":"","population":"0","elevation":"","dem":"25","timezone":"Asia/Jakarta","modification_date":"2012-01-20"},{"geonameid":"7036082","name":"Telumbung","asciiname":"Telumbung","alternatenames":"Telumbung","latitude":"-7.1375","longitude":"111.7081","feature_class":"P","feature_code":"PPLA4","country_code":"ID","cc2":"","admin1_code":"08","admin2_code":"","admin3_code":"","admin4_code":"","population":"0","elevation":"","dem":"27","timezone":"Asia/Jakarta","modification_date":"2012-01-20"},{"geonameid":"7036087","name":"Semanding","asciiname":"Semanding","alternatenames":"Semanding","latitude":"-7.1441","longitude":"111.6856","feature_class":"P","feature_code":"PPLA4","country_code":"ID","cc2":"","admin1_code":"08","admin2_code":"","admin3_code":"","admin4_code":"","population":"0","elevation":"","dem":"28","timezone":"Asia/Jakarta","modification_date":"2012-01-20"},{"geonameid":"7036091","name":"Besah","asciiname":"Besah","alternatenames":"Besah","latitude":"-7.1358","longitude":"111.6394","feature_class":"P","feature_code":"PPLA4","country_code":"ID","cc2":"","admin1_code":"08","admin2_code":"","admin3_code":"","admin4_code":"","population":"0","elevation":"","dem":"40","timezone":"Asia/Jakarta","modification_date":"2012-01-20"},{"geonameid":"7036100","name":"Kacangan Lor","asciiname":"Kacangan Lor","alternatenames":"Kacangan Lor","latitude":"-7.147","longitude":"111.6679","feature_class":"P","feature_code":"PPLA4","country_code":"ID","cc2":"","admin1_code":"08","admin2_code":"","admin3_code":"","admin4_code":"","population":"0","elevation":"","dem":"28","timezone":"Asia/Jakarta","modification_date":"2012-01-20"},{"geonameid":"7036103","name":"Kembangan","asciiname":"Kembangan","alternatenames":"Kembangan","latitude":"-7.1476","longitude":"111.6902","feature_class":"P","feature_code":"PPLA4","country_code":"ID","cc2":"","admin1_code":"08","admin2_code":"","admin3_code":"","admin4_code":"","population":"0","elevation":"","dem":"28","timezone":"Asia/Jakarta","modification_date":"2012-01-20"},{"geonameid":"7036113","name":"Katur","asciiname":"Katur","alternatenames":"Katur","latitude":"-7.1586","longitude":"111.7191","feature_class":"P","feature_code":"PPLA4","country_code":"ID","cc2":"","admin1_code":"08","admin2_code":"","admin3_code":"","admin4_code":"","population":"0","elevation":"","dem":"33","timezone":"Asia/Jakarta","modification_date":"2012-01-20"},{"geonameid":"7036124","name":"Banjarjo","asciiname":"Banjarjo","alternatenames":"Banjarjo","latitude":"-7.1585","longitude":"111.6272","feature_class":"P","feature_code":"PPLA4","country_code":"ID","cc2":"","admin1_code":"08","admin2_code":"","admin3_code":"","admin4_code":"","population":"0","elevation":"","dem":"31","timezone":"Asia/Jakarta","modification_date":"2012-01-20"},{"geonameid":"7036126","name":"Ketawang","asciiname":"Ketawang","alternatenames":"Ketawang","latitude":"-7.1657","longitude":"111.626","feature_class":"P","feature_code":"PPLA4","country_code":"ID","cc2":"","admin1_code":"08","admin2_code":"","admin3_code":"","admin4_code":"","population":"0","elevation":"","dem":"31","timezone":"Asia/Jakarta","modification_date":"2012-01-20"},{"geonameid":"7036130","name":"Tembeling","asciiname":"Tembeling","alternatenames":"Tembeling","latitude":"-7.164","longitude":"111.6507","feature_class":"P","feature_code":"PPLA4","country_code":"ID","cc2":"","admin1_code":"08","admin2_code":"","admin3_code":"","admin4_code":"","population":"0","elevation":"","dem":"32","timezone":"Asia/Jakarta","modification_date":"2012-01-20"},{"geonameid":"7036131","name":"Dukuh Lor","asciiname":"Dukuh Lor","alternatenames":"Dukuh Lor","latitude":"-7.1629","longitude":"111.6601","feature_class":"P","feature_code":"PPLA4","country_code":"ID","cc2":"","admin1_code":"08","admin2_code":"","admin3_code":"","admin4_code":"","population":"0","elevation":"","dem":"31","timezone":"Asia/Jakarta","modification_date":"2012-01-20"},{"geonameid":"7036134","name":"Bulu","asciiname":"Bulu","alternatenames":"Bulu","latitude":"-7.1659","longitude":"111.6751","feature_class":"P","feature_code":"PPLA4","country_code":"ID","cc2":"","admin1_code":"08","admin2_code":"","admin3_code":"","admin4_code":"","population":"0","elevation":"","dem":"33","timezone":"Asia/Jakarta","modification_date":"2012-01-20"},{"geonameid":"7036142","name":"Ringintunggal","asciiname":"Ringintunggal","alternatenames":"Ringintunggal","latitude":"-7.1703","longitude":"111.7124","feature_class":"P","feature_code":"PPLA4","country_code":"ID","cc2":"","admin1_code":"08","admin2_code":"","admin3_code":"","admin4_code":"","population":"0","elevation":"","dem":"39","timezone":"Asia/Jakarta","modification_date":"2012-01-20"},{"geonameid":"7036143","name":"Gayam","asciiname":"Gayam","alternatenames":"Gayam","latitude":"-7.1764","longitude":"111.7137","feature_class":"P","feature_code":"PPLA4","country_code":"ID","cc2":"","admin1_code":"08","admin2_code":"","admin3_code":"","admin4_code":"","population":"0","elevation":"","dem":"46","timezone":"Asia/Jakarta","modification_date":"2012-01-20"},{"geonameid":"7036149","name":"Beged","asciiname":"Beged","alternatenames":"Beged","latitude":"-7.1746","longitude":"111.669","feature_class":"P","feature_code":"PPLA4","country_code":"ID","cc2":"","admin1_code":"08","admin2_code":"","admin3_code":"","admin4_code":"","population":"0","elevation":"","dem":"33","timezone":"Asia/Jakarta","modification_date":"2012-01-20"},{"geonameid":"7036162","name":"Bonorejo","asciiname":"Bonorejo","alternatenames":"Bonorejo","latitude":"-7.1827","longitude":"111.6792","feature_class":"P","feature_code":"PPLA4","country_code":"ID","cc2":"","admin1_code":"08","admin2_code":"","admin3_code":"","admin4_code":"","population":"0","elevation":"","dem":"34","timezone":"Asia/Jakarta","modification_date":"2012-01-20"},{"geonameid":"7036182","name":"Dawung","asciiname":"Dawung","alternatenames":"Dawung","latitude":"-7.2006","longitude":"111.6928","feature_class":"P","feature_code":"PPLA4","country_code":"ID","cc2":"","admin1_code":"08","admin2_code":"","admin3_code":"","admin4_code":"","population":"0","elevation":"","dem":"40","timezone":"Asia/Jakarta","modification_date":"2012-01-20"},{"geonameid":"7036195","name":"Gapluk","asciiname":"Gapluk","alternatenames":"Gapluk","latitude":"-7.2048","longitude":"111.6619","feature_class":"P","feature_code":"PPLA4","country_code":"ID","cc2":"","admin1_code":"08","admin2_code":"","admin3_code":"","admin4_code":"","population":"0","elevation":"","dem":"41","timezone":"Asia/Jakarta","modification_date":"2012-01-20"},{"geonameid":"7036199","name":"Donan","asciiname":"Donan","alternatenames":"Donan","latitude":"-7.2066","longitude":"111.6374","feature_class":"P","feature_code":"PPLA4","country_code":"ID","cc2":"","admin1_code":"08","admin2_code":"","admin3_code":"","admin4_code":"","population":"0","elevation":"","dem":"66","timezone":"Asia/Jakarta","modification_date":"2012-01-20"},{"geonameid":"7036202","name":"Tinumpuk","asciiname":"Tinumpuk","alternatenames":"Tinumpuk","latitude":"-7.2118","longitude":"111.6857","feature_class":"P","feature_code":"PPLA4","country_code":"ID","cc2":"","admin1_code":"08","admin2_code":"","admin3_code":"","admin4_code":"","population":"0","elevation":"","dem":"50","timezone":"Asia/Jakarta","modification_date":"2012-01-20"},{"geonameid":"7036205","name":"Tlatah","asciiname":"Tlatah","alternatenames":"Tlatah","latitude":"-7.2122","longitude":"111.7011","feature_class":"P","feature_code":"PPLA4","country_code":"ID","cc2":"","admin1_code":"08","admin2_code":"","admin3_code":"","admin4_code":"","population":"0","elevation":"","dem":"43","timezone":"Asia/Jakarta","modification_date":"2012-01-20"},{"geonameid":"7036206","name":"Ngrejeng","asciiname":"Ngrejeng","alternatenames":"Ngrejeng","latitude":"-7.2174","longitude":"111.7076","feature_class":"P","feature_code":"PPLA4","country_code":"ID","cc2":"","admin1_code":"08","admin2_code":"","admin3_code":"","admin4_code":"","population":"0","elevation":"","dem":"48","timezone":"Asia/Jakarta","modification_date":"2012-01-20"},{"geonameid":"7036225","name":"Pelem","asciiname":"Pelem","alternatenames":"Pelem","latitude":"-7.2407","longitude":"111.7065","feature_class":"P","feature_code":"PPLA4","country_code":"ID","cc2":"","admin1_code":"08","admin2_code":"","admin3_code":"","admin4_code":"","population":"0","elevation":"","dem":"52","timezone":"Asia/Jakarta","modification_date":"2012-01-20"},{"geonameid":"7036231","name":"Mojosawit","asciiname":"Mojosawit","alternatenames":"Mojosawit","latitude":"-7.2477","longitude":"111.7131","feature_class":"P","feature_code":"PPLA4","country_code":"ID","cc2":"","admin1_code":"08","admin2_code":"","admin3_code":"","admin4_code":"","population":"0","elevation":"","dem":"55","timezone":"Asia/Jakarta","modification_date":"2012-01-20"},{"geonameid":"7036234","name":"Purwosari","asciiname":"Purwosari","alternatenames":"Purwosari","latitude":"-7.1723","longitude":"111.659","feature_class":"P","feature_code":"PPLA4","country_code":"ID","cc2":"","admin1_code":"08","admin2_code":"","admin3_code":"","admin4_code":"","population":"0","elevation":"","dem":"32","timezone":"Asia/Jakarta","modification_date":"2010-08-10"},{"geonameid":"7036267","name":"Wonocolo","asciiname":"Wonocolo","alternatenames":"Wonocolo","latitude":"-7.0507","longitude":"111.6703","feature_class":"P","feature_code":"PPLA4","country_code":"ID","cc2":"","admin1_code":"08","admin2_code":"","admin3_code":"","admin4_code":"","population":"0","elevation":"","dem":"237","timezone":"Asia/Jakarta","modification_date":"2012-01-20"},{"geonameid":"7036278","name":"Ngrowo","asciiname":"Ngrowo","alternatenames":"Ngrowo","latitude":"-7.0774","longitude":"111.6269","feature_class":"P","feature_code":"PPLA4","country_code":"ID","cc2":"","admin1_code":"08","admin2_code":"","admin3_code":"","admin4_code":"","population":"0","elevation":"","dem":"61","timezone":"Asia/Jakarta","modification_date":"2012-01-20"},{"geonameid":"7036284","name":"Tambakmerak","asciiname":"Tambakmerak","alternatenames":"Tambakmerak","latitude":"-7.1155","longitude":"111.6638","feature_class":"P","feature_code":"PPLA4","country_code":"ID","cc2":"","admin1_code":"08","admin2_code":"","admin3_code":"","admin4_code":"","population":"0","elevation":"","dem":"42","timezone":"Asia/Jakarta","modification_date":"2012-01-20"},{"geonameid":"7036285","name":"Sendang","asciiname":"Sendang","alternatenames":"Sendang","latitude":"-7.0067","longitude":"111.7308","feature_class":"P","feature_code":"PPLA4","country_code":"ID","cc2":"","admin1_code":"08","admin2_code":"","admin3_code":"","admin4_code":"","population":"0","elevation":"","dem":"47","timezone":"Asia/Jakarta","modification_date":"2012-01-20"},{"geonameid":"7036290","name":"Wanglu Kulon","asciiname":"Wanglu Kulon","alternatenames":"Wanglu Kulon","latitude":"-7.0197","longitude":"111.7314","feature_class":"P","feature_code":"PPLA4","country_code":"ID","cc2":"","admin1_code":"08","admin2_code":"","admin3_code":"","admin4_code":"","population":"0","elevation":"","dem":"48","timezone":"Asia/Jakarta","modification_date":"2012-01-20"},{"geonameid":"7036292","name":"Wanglu Wetan","asciiname":"Wanglu Wetan","alternatenames":"Wanglu Wetan","latitude":"-7.0241","longitude":"111.7332","feature_class":"P","feature_code":"PPLA4","country_code":"ID","cc2":"","admin1_code":"08","admin2_code":"","admin3_code":"","admin4_code":"","population":"0","elevation":"","dem":"48","timezone":"Asia/Jakarta","modification_date":"2012-01-20"},{"geonameid":"7036295","name":"Leran","asciiname":"Leran","alternatenames":"Leran","latitude":"-7.0225","longitude":"111.7185","feature_class":"P","feature_code":"PPLA4","country_code":"ID","cc2":"","admin1_code":"08","admin2_code":"","admin3_code":"","admin4_code":"","population":"0","elevation":"","dem":"58","timezone":"Asia/Jakarta","modification_date":"2012-01-20"},{"geonameid":"7036297","name":"Medalem","asciiname":"Medalem","alternatenames":"Medalem","latitude":"-7.0023","longitude":"111.714","feature_class":"P","feature_code":"PPLA4","country_code":"ID","cc2":"","admin1_code":"08","admin2_code":"","admin3_code":"","admin4_code":"","population":"0","elevation":"","dem":"54","timezone":"Asia/Jakarta","modification_date":"2012-01-20"},{"geonameid":"7036301","name":"Sarang","asciiname":"Sarang","alternatenames":"Sarang","latitude":"-7.0313","longitude":"111.701","feature_class":"P","feature_code":"PPLA4","country_code":"ID","cc2":"","admin1_code":"08","admin2_code":"","admin3_code":"","admin4_code":"","population":"0","elevation":"","dem":"70","timezone":"Asia/Jakarta","modification_date":"2012-01-20"},{"geonameid":"7036308","name":"Banaran","asciiname":"Banaran","alternatenames":"Banaran","latitude":"-7.0393","longitude":"111.7384","feature_class":"P","feature_code":"PPLA4","country_code":"ID","cc2":"","admin1_code":"08","admin2_code":"","admin3_code":"","admin4_code":"","population":"0","elevation":"","dem":"51","timezone":"Asia/Jakarta","modification_date":"2012-01-20"},{"geonameid":"7036311","name":"Wonosari","asciiname":"Wonosari","alternatenames":"Wonosari","latitude":"-7.0722","longitude":"111.7116","feature_class":"P","feature_code":"PPLA4","country_code":"ID","cc2":"","admin1_code":"08","admin2_code":"","admin3_code":"","admin4_code":"","population":"0","elevation":"","dem":"152","timezone":"Asia/Jakarta","modification_date":"2012-01-20"},{"geonameid":"7036314","name":"Banyuurip","asciiname":"Banyuurip","alternatenames":"Banyuurip","latitude":"-7.0629","longitude":"111.6975","feature_class":"P","feature_code":"PPLA4","country_code":"ID","cc2":"","admin1_code":"08","admin2_code":"","admin3_code":"","admin4_code":"","population":"0","elevation":"","dem":"254","timezone":"Asia/Jakarta","modification_date":"2012-01-20"},{"geonameid":"7036316","name":"Kawengan","asciiname":"Kawengan","alternatenames":"Kawengan","latitude":"-7.0711","longitude":"111.6806","feature_class":"P","feature_code":"PPLA4","country_code":"ID","cc2":"","admin1_code":"08","admin2_code":"","admin3_code":"","admin4_code":"","population":"0","elevation":"","dem":"108","timezone":"Asia/Jakarta","modification_date":"2012-01-20"},{"geonameid":"7036326","name":"Ledok","asciiname":"Ledok","alternatenames":"Ledok","latitude":"-7.099","longitude":"111.7371","feature_class":"P","feature_code":"PPLA4","country_code":"ID","cc2":"","admin1_code":"08","admin2_code":"","admin3_code":"","admin4_code":"","population":"0","elevation":"","dem":"50","timezone":"Asia/Jakarta","modification_date":"2012-01-20"},{"geonameid":"7036331","name":"Gotak","asciiname":"Gotak","alternatenames":"Gotak","latitude":"-7.1095","longitude":"111.7419","feature_class":"P","feature_code":"PPLA4","country_code":"ID","cc2":"","admin1_code":"08","admin2_code":"","admin3_code":"","admin4_code":"","population":"0","elevation":"","dem":"29","timezone":"Asia/Jakarta","modification_date":"2012-01-20"},{"geonameid":"7036336","name":"Sudah","asciiname":"Sudah","alternatenames":"Sudah","latitude":"-7.1198","longitude":"111.7225","feature_class":"P","feature_code":"PPLA4","country_code":"ID","cc2":"","admin1_code":"08","admin2_code":"","admin3_code":"","admin4_code":"","population":"0","elevation":"","dem":"27","timezone":"Asia/Jakarta","modification_date":"2012-01-20"},{"geonameid":"7036340","name":"Ngujung","asciiname":"Ngujung","alternatenames":"Ngujung","latitude":"-7.1238","longitude":"111.709","feature_class":"P","feature_code":"PPLA4","country_code":"ID","cc2":"","admin1_code":"08","admin2_code":"","admin3_code":"","admin4_code":"","population":"0","elevation":"","dem":"26","timezone":"Asia/Jakarta","modification_date":"2012-01-20"},{"geonameid":"7036356","name":"Karuk","asciiname":"Karuk","alternatenames":"Karuk","latitude":"-7.1106","longitude":"111.7268","feature_class":"P","feature_code":"PPLA4","country_code":"ID","cc2":"","admin1_code":"08","admin2_code":"","admin3_code":"","admin4_code":"","population":"0","elevation":"","dem":"25","timezone":"Asia/Jakarta","modification_date":"2012-01-20"},{"geonameid":"7036367","name":"Malo","asciiname":"Malo","alternatenames":"Malo","latitude":"-7.1071","longitude":"111.7317","feature_class":"P","feature_code":"PPLA4","country_code":"ID","cc2":"","admin1_code":"08","admin2_code":"","admin3_code":"","admin4_code":"","population":"0","elevation":"","dem":"32","timezone":"Asia/Jakarta","modification_date":"2010-08-10"},{"geonameid":"7036481","name":"Blajo","asciiname":"Blajo","alternatenames":"Blajo","latitude":"-7.0434","longitude":"112.3933","feature_class":"P","feature_code":"PPLA4","country_code":"ID","cc2":"","admin1_code":"08","admin2_code":"","admin3_code":"","admin4_code":"","population":"0","elevation":"","dem":"7","timezone":"Asia/Jakarta","modification_date":"2012-01-20"},{"geonameid":"7036485","name":"Kemendung","asciiname":"Kemendung","alternatenames":"Kemendung","latitude":"-7.046","longitude":"112.3782","feature_class":"P","feature_code":"PPLA4","country_code":"ID","cc2":"","admin1_code":"08","admin2_code":"","admin3_code":"","admin4_code":"","population":"0","elevation":"","dem":"6","timezone":"Asia/Jakarta","modification_date":"2012-01-20"},{"geonameid":"7036487","name":"Kemlagigede","asciiname":"Kemlagigede","alternatenames":"Kemlagigede","latitude":"-7.0612","longitude":"112.391","feature_class":"P","feature_code":"PPLA4","country_code":"ID","cc2":"","admin1_code":"08","admin2_code":"","admin3_code":"","admin4_code":"","population":"0","elevation":"","dem":"7","timezone":"Asia/Jakarta","modification_date":"2012-01-20"},{"geonameid":"7036490","name":"Bambang","asciiname":"Bambang","alternatenames":"Bambang","latitude":"-7.0595","longitude":"112.3969","feature_class":"P","feature_code":"PPLA4","country_code":"ID","cc2":"","admin1_code":"08","admin2_code":"","admin3_code":"","admin4_code":"","population":"0","elevation":"","dem":"6","timezone":"Asia/Jakarta","modification_date":"2012-01-20"},{"geonameid":"7036493","name":"Baru","asciiname":"Baru","alternatenames":"Baru","latitude":"-7.0525","longitude":"112.3901","feature_class":"P","feature_code":"PPLA4","country_code":"ID","cc2":"","admin1_code":"08","admin2_code":"","admin3_code":"","admin4_code":"","population":"0","elevation":"","dem":"7","timezone":"Asia/Jakarta","modification_date":"2012-01-20"},{"geonameid":"7036495","name":"Gowa","asciiname":"Gowa","alternatenames":"Gowa","latitude":"-7.0487","longitude":"112.405","feature_class":"P","feature_code":"PPLA4","country_code":"ID","cc2":"","admin1_code":"08","admin2_code":"","admin3_code":"","admin4_code":"","population":"0","elevation":"","dem":"5","timezone":"Asia/Jakarta","modification_date":"2012-01-20"},{"geonameid":"7036497","name":"Waru","asciiname":"Waru","alternatenames":"Waru","latitude":"-7.0468","longitude":"112.4048","feature_class":"P","feature_code":"PPLA4","country_code":"ID","cc2":"","admin1_code":"08","admin2_code":"","admin3_code":"","admin4_code":"","population":"0","elevation":"","dem":"6","timezone":"Asia/Jakarta","modification_date":"2012-01-20"},{"geonameid":"7036499","name":"Gambuhan Kidul","asciiname":"Gambuhan Kidul","alternatenames":"Gambuhan Kidul","latitude":"-7.0392","longitude":"112.3985","feature_class":"P","feature_code":"PPLA4","country_code":"ID","cc2":"","admin1_code":"08","admin2_code":"","admin3_code":"","admin4_code":"","population":"0","elevation":"","dem":"6","timezone":"Asia/Jakarta","modification_date":"2012-01-20"},{"geonameid":"7036503","name":"Canditunggal","asciiname":"Canditunggal","alternatenames":"Canditunggal","latitude":"-7.0013","longitude":"112.4199","feature_class":"P","feature_code":"PPLA4","country_code":"ID","cc2":"","admin1_code":"08","admin2_code":"","admin3_code":"","admin4_code":"","population":"0","elevation":"","dem":"6","timezone":"Asia/Jakarta","modification_date":"2012-01-20"},{"geonameid":"7036505","name":"Depek","asciiname":"Depek","alternatenames":"Depek","latitude":"-7.0072","longitude":"112.4286","feature_class":"P","feature_code":"PPLA4","country_code":"ID","cc2":"","admin1_code":"08","admin2_code":"","admin3_code":"","admin4_code":"","population":"0","elevation":"","dem":"7","timezone":"Asia/Jakarta","modification_date":"2012-01-20"},{"geonameid":"7036509","name":"Palangan","asciiname":"Palangan","alternatenames":"Palangan","latitude":"-7.0049","longitude":"112.4451","feature_class":"P","feature_code":"PPLA4","country_code":"ID","cc2":"","admin1_code":"08","admin2_code":"","admin3_code":"","admin4_code":"","population":"0","elevation":"","dem":"7","timezone":"Asia/Jakarta","modification_date":"2012-01-20"},{"geonameid":"7036513","name":"Lembung Lor","asciiname":"Lembung Lor","alternatenames":"Lembung Lor","latitude":"-7.015","longitude":"112.4252","feature_class":"P","feature_code":"PPLA4","country_code":"ID","cc2":"","admin1_code":"08","admin2_code":"","admin3_code":"","admin4_code":"","population":"0","elevation":"","dem":"6","timezone":"Asia/Jakarta","modification_date":"2012-01-20"},{"geonameid":"7036516","name":"Mayong Tengah","asciiname":"Mayong Tengah","alternatenames":"Mayong Tengah","latitude":"-7.0146","longitude":"112.4366","feature_class":"P","feature_code":"PPLA4","country_code":"ID","cc2":"","admin1_code":"08","admin2_code":"","admin3_code":"","admin4_code":"","population":"0","elevation":"","dem":"6","timezone":"Asia/Jakarta","modification_date":"2012-01-20"},{"geonameid":"7036526","name":"Wedeng","asciiname":"Wedeng","alternatenames":"Wedeng","latitude":"-7.0462","longitude":"112.4224","feature_class":"P","feature_code":"PPLA4","country_code":"ID","cc2":"","admin1_code":"08","admin2_code":"","admin3_code":"","admin4_code":"","population":"0","elevation":"","dem":"5","timezone":"Asia/Jakarta","modification_date":"2012-01-20"},{"geonameid":"7036533","name":"Mlawe","asciiname":"Mlawe","alternatenames":"Mlawe","latitude":"-7.051","longitude":"112.4232","feature_class":"P","feature_code":"PPLA4","country_code":"ID","cc2":"","admin1_code":"08","admin2_code":"","admin3_code":"","admin4_code":"","population":"0","elevation":"","dem":"5","timezone":"Asia/Jakarta","modification_date":"2012-01-20"},{"geonameid":"7036534","name":"Karang Kulon","asciiname":"Karang Kulon","alternatenames":"Karang Kulon","latitude":"-7.0507","longitude":"112.4243","feature_class":"P","feature_code":"PPLA4","country_code":"ID","cc2":"","admin1_code":"08","admin2_code":"","admin3_code":"","admin4_code":"","population":"0","elevation":"","dem":"5","timezone":"Asia/Jakarta","modification_date":"2012-01-20"},{"geonameid":"7036537","name":"Luntas","asciiname":"Luntas","alternatenames":"Luntas","latitude":"-7.0612","longitude":"112.434","feature_class":"P","feature_code":"PPLA4","country_code":"ID","cc2":"","admin1_code":"08","admin2_code":"","admin3_code":"","admin4_code":"","population":"0","elevation":"","dem":"6","timezone":"Asia/Jakarta","modification_date":"2012-01-20"},{"geonameid":"7036550","name":"Blawi","asciiname":"Blawi","alternatenames":"Blawi","latitude":"-7.0502","longitude":"112.4574","feature_class":"P","feature_code":"PPLA4","country_code":"ID","cc2":"","admin1_code":"08","admin2_code":"","admin3_code":"","admin4_code":"","population":"0","elevation":"","dem":"6","timezone":"Asia/Jakarta","modification_date":"2012-01-20"},{"geonameid":"7036556","name":"Ladan","asciiname":"Ladan","alternatenames":"Ladan","latitude":"-7.0641","longitude":"112.4413","feature_class":"P","feature_code":"PPLA4","country_code":"ID","cc2":"","admin1_code":"08","admin2_code":"","admin3_code":"","admin4_code":"","population":"0","elevation":"","dem":"6","timezone":"Asia/Jakarta","modification_date":"2012-01-20"},{"geonameid":"7036561","name":"Ngujung","asciiname":"Ngujung","alternatenames":"Ngujung","latitude":"-7.0638","longitude":"112.4186","feature_class":"P","feature_code":"PPLA4","country_code":"ID","cc2":"","admin1_code":"08","admin2_code":"","admin3_code":"","admin4_code":"","population":"0","elevation":"","dem":"7","timezone":"Asia/Jakarta","modification_date":"2012-01-20"},{"geonameid":"7036579","name":"Jrebeng","asciiname":"Jrebeng","alternatenames":"Jrebeng","latitude":"-7.0051","longitude":"112.4662","feature_class":"P","feature_code":"PPLA4","country_code":"ID","cc2":"","admin1_code":"08","admin2_code":"","admin3_code":"","admin4_code":"","population":"0","elevation":"","dem":"8","timezone":"Asia/Jakarta","modification_date":"2012-01-20"},{"geonameid":"7036581","name":"Baron","asciiname":"Baron","alternatenames":"Baron","latitude":"-7.0129","longitude":"112.4533","feature_class":"P","feature_code":"PPLA4","country_code":"ID","cc2":"","admin1_code":"08","admin2_code":"","admin3_code":"","admin4_code":"","population":"0","elevation":"","dem":"8","timezone":"Asia/Jakarta","modification_date":"2012-01-20"},{"geonameid":"7036582","name":"Banjaranyar","asciiname":"Banjaranyar","alternatenames":"Banjaranyar","latitude":"-7.0121","longitude":"112.4618","feature_class":"P","feature_code":"PPLA4","country_code":"ID","cc2":"","admin1_code":"08","admin2_code":"","admin3_code":"","admin4_code":"","population":"0","elevation":"","dem":"6","timezone":"Asia/Jakarta","modification_date":"2012-01-20"},{"geonameid":"7036585","name":"Watangan","asciiname":"Watangan","alternatenames":"Watangan","latitude":"-7.015","longitude":"112.4842","feature_class":"P","feature_code":"PPLA4","country_code":"ID","cc2":"","admin1_code":"08","admin2_code":"","admin3_code":"","admin4_code":"","population":"0","elevation":"","dem":"5","timezone":"Asia/Jakarta","modification_date":"2012-01-20"},{"geonameid":"7036586","name":"Sambopinggir","asciiname":"Sambopinggir","alternatenames":"Sambopinggir","latitude":"-7.0225","longitude":"112.4793","feature_class":"P","feature_code":"PPLA3","country_code":"ID","cc2":"","admin1_code":"08","admin2_code":"","admin3_code":"","admin4_code":"","population":"0","elevation":"","dem":"6","timezone":"Asia/Jakarta","modification_date":"2012-01-20"},{"geonameid":"7036588","name":"Windu","asciiname":"Windu","alternatenames":"Windu","latitude":"-7.0259","longitude":"112.4879","feature_class":"P","feature_code":"PPLA4","country_code":"ID","cc2":"","admin1_code":"08","admin2_code":"","admin3_code":"","admin4_code":"","population":"0","elevation":"","dem":"7","timezone":"Asia/Jakarta","modification_date":"2012-01-20"},{"geonameid":"7036590","name":"Magok","asciiname":"Magok","alternatenames":"Magok","latitude":"-7.0387","longitude":"112.463","feature_class":"P","feature_code":"PPLA4","country_code":"ID","cc2":"","admin1_code":"08","admin2_code":"","admin3_code":"","admin4_code":"","population":"0","elevation":"","dem":"6","timezone":"Asia/Jakarta","modification_date":"2012-01-20"},{"geonameid":"7036600","name":"Prioso Barat","asciiname":"Prioso Barat","alternatenames":"Prioso Barat","latitude":"-7.0494","longitude":"112.4885","feature_class":"P","feature_code":"PPLA4","country_code":"ID","cc2":"","admin1_code":"08","admin2_code":"","admin3_code":"","admin4_code":"","population":"0","elevation":"","dem":"6","timezone":"Asia/Jakarta","modification_date":"2012-01-20"},{"geonameid":"7036608","name":"Kebon","asciiname":"Kebon","alternatenames":"Kebon","latitude":"-7.04","longitude":"112.4717","feature_class":"P","feature_code":"PPLA4","country_code":"ID","cc2":"","admin1_code":"08","admin2_code":"","admin3_code":"","admin4_code":"","population":"0","elevation":"","dem":"6","timezone":"Asia/Jakarta","modification_date":"2012-01-20"},{"geonameid":"7036613","name":"Calan","asciiname":"Calan","alternatenames":"Calan","latitude":"-7.0483","longitude":"112.4646","feature_class":"P","feature_code":"PPLA4","country_code":"ID","cc2":"","admin1_code":"08","admin2_code":"","admin3_code":"","admin4_code":"","population":"0","elevation":"","dem":"5","timezone":"Asia/Jakarta","modification_date":"2012-01-20"},{"geonameid":"7036616","name":"Baturono","asciiname":"Baturono","alternatenames":"Baturono","latitude":"-7.0464","longitude":"112.4762","feature_class":"P","feature_code":"PPLA4","country_code":"ID","cc2":"","admin1_code":"08","admin2_code":"","admin3_code":"","admin4_code":"","population":"0","elevation":"","dem":"6","timezone":"Asia/Jakarta","modification_date":"2012-01-20"},{"geonameid":"7036628","name":"Pompongan","asciiname":"Pompongan","alternatenames":"Pompongan","latitude":"-7.0622","longitude":"112.4708","feature_class":"P","feature_code":"PPLA4","country_code":"ID","cc2":"","admin1_code":"08","admin2_code":"","admin3_code":"","admin4_code":"","population":"0","elevation":"","dem":"6","timezone":"Asia/Jakarta","modification_date":"2012-01-20"},{"geonameid":"7036640","name":"Duni","asciiname":"Duni","alternatenames":"Duni","latitude":"-7.0701","longitude":"112.4678","feature_class":"P","feature_code":"PPLA4","country_code":"ID","cc2":"","admin1_code":"08","admin2_code":"","admin3_code":"","admin4_code":"","population":"0","elevation":"","dem":"4","timezone":"Asia/Jakarta","modification_date":"2012-01-20"},{"geonameid":"7036644","name":"Turi","asciiname":"Turi","alternatenames":"Turi","latitude":"-7.0795","longitude":"112.382","feature_class":"P","feature_code":"PPLA4","country_code":"ID","cc2":"","admin1_code":"08","admin2_code":"","admin3_code":"","admin4_code":"","population":"0","elevation":"","dem":"7","timezone":"Asia/Jakarta","modification_date":"2012-01-20"},{"geonameid":"7036645","name":"Getung","asciiname":"Getung","alternatenames":"Getung","latitude":"-7.0784","longitude":"112.3904","feature_class":"P","feature_code":"PPLA4","country_code":"ID","cc2":"","admin1_code":"08","admin2_code":"","admin3_code":"","admin4_code":"","population":"0","elevation":"","dem":"7","timezone":"Asia/Jakarta","modification_date":"2012-01-20"},{"geonameid":"7036663","name":"Pagerwojo","asciiname":"Pagerwojo","alternatenames":"Pagerwojo","latitude":"-7.1196","longitude":"112.4021","feature_class":"P","feature_code":"PPLA4","country_code":"ID","cc2":"","admin1_code":"08","admin2_code":"","admin3_code":"","admin4_code":"","population":"0","elevation":"","dem":"7","timezone":"Asia/Jakarta","modification_date":"2012-01-20"},{"geonameid":"7036665","name":"Made","asciiname":"Made","alternatenames":"Made","latitude":"-7.1174","longitude":"112.3915","feature_class":"P","feature_code":"PPLA4","country_code":"ID","cc2":"","admin1_code":"08","admin2_code":"","admin3_code":"","admin4_code":"","population":"0","elevation":"","dem":"8","timezone":"Asia/Jakarta","modification_date":"2012-01-20"},{"geonameid":"7036666","name":"Tanjung","asciiname":"Tanjung","alternatenames":"Tanjung","latitude":"-7.1146","longitude":"112.3866","feature_class":"P","feature_code":"PPLA4","country_code":"ID","cc2":"","admin1_code":"08","admin2_code":"","admin3_code":"","admin4_code":"","population":"0","elevation":"","dem":"8","timezone":"Asia/Jakarta","modification_date":"2012-01-20"},{"geonameid":"7036669","name":"Bilo","asciiname":"Bilo","alternatenames":"Bilo","latitude":"-7.1114","longitude":"112.3782","feature_class":"P","feature_code":"PPLA4","country_code":"ID","cc2":"","admin1_code":"08","admin2_code":"","admin3_code":"","admin4_code":"","population":"0","elevation":"","dem":"9","timezone":"Asia/Jakarta","modification_date":"2012-01-20"},{"geonameid":"7036672","name":"Ngaglik Timur","asciiname":"Ngaglik Timur","alternatenames":"Ngaglik Timur","latitude":"-7.1183","longitude":"112.4126","feature_class":"P","feature_code":"PPLA4","country_code":"ID","cc2":"","admin1_code":"08","admin2_code":"","admin3_code":"","admin4_code":"","population":"0","elevation":"","dem":"8","timezone":"Asia/Jakarta","modification_date":"2012-01-20"},{"geonameid":"7036673","name":"Tumenggungan","asciiname":"Tumenggungan","alternatenames":"Tumenggungan","latitude":"-7.1147","longitude":"112.4145","feature_class":"P","feature_code":"PPLA4","country_code":"ID","cc2":"","admin1_code":"08","admin2_code":"","admin3_code":"","admin4_code":"","population":"0","elevation":"","dem":"7","timezone":"Asia/Jakarta","modification_date":"2012-01-20"},{"geonameid":"7036676","name":"Krian","asciiname":"Krian","alternatenames":"Krian","latitude":"-7.1163","longitude":"112.4194","feature_class":"P","feature_code":"PPLA4","country_code":"ID","cc2":"","admin1_code":"08","admin2_code":"","admin3_code":"","admin4_code":"","population":"0","elevation":"","dem":"8","timezone":"Asia/Jakarta","modification_date":"2012-01-20"},{"geonameid":"7036677","name":"Kendaruan","asciiname":"Kendaruan","alternatenames":"Kendaruan","latitude":"-7.1185","longitude":"112.422","feature_class":"P","feature_code":"PPLA4","country_code":"ID","cc2":"","admin1_code":"08","admin2_code":"","admin3_code":"","admin4_code":"","population":"0","elevation":"","dem":"8","timezone":"Asia/Jakarta","modification_date":"2012-01-20"},{"geonameid":"7036678","name":"Jetis","asciiname":"Jetis","alternatenames":"Jetis","latitude":"-7.1204","longitude":"112.4199","feature_class":"P","feature_code":"PPLA4","country_code":"ID","cc2":"","admin1_code":"08","admin2_code":"","admin3_code":"","admin4_code":"","population":"0","elevation":"","dem":"7","timezone":"Asia/Jakarta","modification_date":"2012-01-20"},{"geonameid":"7036682","name":"Deket Kulon","asciiname":"Deket Kulon","alternatenames":"Deket Kulon","latitude":"-7.1184","longitude":"112.4395","feature_class":"P","feature_code":"PPLA4","country_code":"ID","cc2":"","admin1_code":"08","admin2_code":"","admin3_code":"","admin4_code":"","population":"0","elevation":"","dem":"7","timezone":"Asia/Jakarta","modification_date":"2012-01-20"},{"geonameid":"7036687","name":"Keset","asciiname":"Keset","alternatenames":"Keset","latitude":"-7.1061","longitude":"112.4276","feature_class":"P","feature_code":"PPLA4","country_code":"ID","cc2":"","admin1_code":"08","admin2_code":"","admin3_code":"","admin4_code":"","population":"0","elevation":"","dem":"7","timezone":"Asia/Jakarta","modification_date":"2012-01-20"},{"geonameid":"7036692","name":"Glugu","asciiname":"Glugu","alternatenames":"Glugu","latitude":"-7.0883","longitude":"112.4259","feature_class":"P","feature_code":"PPLA4","country_code":"ID","cc2":"","admin1_code":"08","admin2_code":"","admin3_code":"","admin4_code":"","population":"0","elevation":"","dem":"7","timezone":"Asia/Jakarta","modification_date":"2012-01-20"},{"geonameid":"7036693","name":"Balun","asciiname":"Balun","alternatenames":"Balun","latitude":"-7.0877","longitude":"112.4073","feature_class":"P","feature_code":"PPLA4","country_code":"ID","cc2":"","admin1_code":"08","admin2_code":"","admin3_code":"","admin4_code":"","population":"0","elevation":"","dem":"8","timezone":"Asia/Jakarta","modification_date":"2012-01-20"},{"geonameid":"7036695","name":"Mlanggeng","asciiname":"Mlanggeng","alternatenames":"Mlanggeng","latitude":"-7.0748","longitude":"112.4303","feature_class":"P","feature_code":"PPLA4","country_code":"ID","cc2":"","admin1_code":"08","admin2_code":"","admin3_code":"","admin4_code":"","population":"0","elevation":"","dem":"6","timezone":"Asia/Jakarta","modification_date":"2012-01-20"},{"geonameid":"7036697","name":"Rawaglagah","asciiname":"Rawaglagah","alternatenames":"Rawaglagah","latitude":"-7.0775","longitude":"112.4453","feature_class":"P","feature_code":"PPLA4","country_code":"ID","cc2":"","admin1_code":"08","admin2_code":"","admin3_code":"","admin4_code":"","population":"0","elevation":"","dem":"7","timezone":"Asia/Jakarta","modification_date":"2012-01-20"},{"geonameid":"7036699","name":"Keputran","asciiname":"Keputran","alternatenames":"Keputran","latitude":"-7.0912","longitude":"112.447","feature_class":"P","feature_code":"PPLA4","country_code":"ID","cc2":"","admin1_code":"08","admin2_code":"","admin3_code":"","admin4_code":"","population":"0","elevation":"","dem":"7","timezone":"Asia/Jakarta","modification_date":"2012-01-20"},{"geonameid":"7036702","name":"Sugihwaras","asciiname":"Sugihwaras","alternatenames":"Sugihwaras","latitude":"-7.1024","longitude":"112.4443","feature_class":"P","feature_code":"PPLA4","country_code":"ID","cc2":"","admin1_code":"08","admin2_code":"","admin3_code":"","admin4_code":"","population":"0","elevation":"","dem":"6","timezone":"Asia/Jakarta","modification_date":"2012-01-20"},{"geonameid":"7036705","name":"Gajah","asciiname":"Gajah","alternatenames":"Gajah","latitude":"-7.1125","longitude":"112.4534","feature_class":"P","feature_code":"PPLA4","country_code":"ID","cc2":"","admin1_code":"08","admin2_code":"","admin3_code":"","admin4_code":"","population":"0","elevation":"","dem":"8","timezone":"Asia/Jakarta","modification_date":"2012-01-20"},{"geonameid":"7036707","name":"Bendungan","asciiname":"Bendungan","alternatenames":"Bendungan","latitude":"-7.1177","longitude":"112.4981","feature_class":"P","feature_code":"PPLA4","country_code":"ID","cc2":"","admin1_code":"08","admin2_code":"","admin3_code":"","admin4_code":"","population":"0","elevation":"","dem":"6","timezone":"Asia/Jakarta","modification_date":"2012-01-20"},{"geonameid":"7036711","name":"Nginjen","asciiname":"Nginjen","alternatenames":"Nginjen","latitude":"-7.1187","longitude":"112.4742","feature_class":"P","feature_code":"PPLA4","country_code":"ID","cc2":"","admin1_code":"08","admin2_code":"","admin3_code":"","admin4_code":"","population":"0","elevation":"","dem":"7","timezone":"Asia/Jakarta","modification_date":"2012-01-20"},{"geonameid":"7036716","name":"Semambung","asciiname":"Semambung","alternatenames":"Semambung","latitude":"-7.0972","longitude":"112.459","feature_class":"P","feature_code":"PPLA4","country_code":"ID","cc2":"","admin1_code":"08","admin2_code":"","admin3_code":"","admin4_code":"","population":"0","elevation":"","dem":"7","timezone":"Asia/Jakarta","modification_date":"2012-01-20"},{"geonameid":"7036717","name":"Kebon Tengah","asciiname":"Kebon Tengah","alternatenames":"Kebon Tengah","latitude":"-7.0937","longitude":"112.4667","feature_class":"P","feature_code":"PPLA4","country_code":"ID","cc2":"","admin1_code":"08","admin2_code":"","admin3_code":"","admin4_code":"","population":"0","elevation":"","dem":"7","timezone":"Asia/Jakarta","modification_date":"2012-01-20"},{"geonameid":"7036720","name":"Dagangan","asciiname":"Dagangan","alternatenames":"Dagangan","latitude":"-7.0913","longitude":"112.4604","feature_class":"P","feature_code":"PPLA4","country_code":"ID","cc2":"","admin1_code":"08","admin2_code":"","admin3_code":"","admin4_code":"","population":"0","elevation":"","dem":"6","timezone":"Asia/Jakarta","modification_date":"2012-01-20"},{"geonameid":"7036726","name":"Sampangan","asciiname":"Sampangan","alternatenames":"Sampangan","latitude":"-7.072","longitude":"112.4587","feature_class":"P","feature_code":"PPLA4","country_code":"ID","cc2":"","admin1_code":"08","admin2_code":"","admin3_code":"","admin4_code":"","population":"0","elevation":"","dem":"6","timezone":"Asia/Jakarta","modification_date":"2012-01-20"},{"geonameid":"7036728","name":"Bucu Lor","asciiname":"Bucu Lor","alternatenames":"Bucu Lor","latitude":"-7.0728","longitude":"112.4799","feature_class":"P","feature_code":"PPLA4","country_code":"ID","cc2":"","admin1_code":"08","admin2_code":"","admin3_code":"","admin4_code":"","population":"0","elevation":"","dem":"6","timezone":"Asia/Jakarta","modification_date":"2012-01-20"},{"geonameid":"7036729","name":"Bucu Kidul","asciiname":"Bucu Kidul","alternatenames":"Bucu Kidul","latitude":"-7.0764","longitude":"112.4789","feature_class":"P","feature_code":"PPLA4","country_code":"ID","cc2":"","admin1_code":"08","admin2_code":"","admin3_code":"","admin4_code":"","population":"0","elevation":"","dem":"6","timezone":"Asia/Jakarta","modification_date":"2012-01-20"},{"geonameid":"7036734","name":"Sudangan","asciiname":"Sudangan","alternatenames":"Sudangan","latitude":"-7.0832","longitude":"112.4955","feature_class":"P","feature_code":"PPLA4","country_code":"ID","cc2":"","admin1_code":"08","admin2_code":"","admin3_code":"","admin4_code":"","population":"0","elevation":"","dem":"6","timezone":"Asia/Jakarta","modification_date":"2012-01-20"},{"geonameid":"7036737","name":"Mendogo Lor","asciiname":"Mendogo Lor","alternatenames":"Mendogo Lor","latitude":"-7.0879","longitude":"112.4924","feature_class":"P","feature_code":"PPLA4","country_code":"ID","cc2":"","admin1_code":"08","admin2_code":"","admin3_code":"","admin4_code":"","population":"0","elevation":"","dem":"7","timezone":"Asia/Jakarta","modification_date":"2012-01-20"},{"geonameid":"7036742","name":"Plosobuden","asciiname":"Plosobuden","alternatenames":"Plosobuden","latitude":"-7.099","longitude":"112.4956","feature_class":"P","feature_code":"PPLA4","country_code":"ID","cc2":"","admin1_code":"08","admin2_code":"","admin3_code":"","admin4_code":"","population":"0","elevation":"","dem":"7","timezone":"Asia/Jakarta","modification_date":"2012-01-20"},{"geonameid":"7036747","name":"Began","asciiname":"Began","alternatenames":"Began","latitude":"-7.0963","longitude":"112.4813","feature_class":"P","feature_code":"PPLA4","country_code":"ID","cc2":"","admin1_code":"08","admin2_code":"","admin3_code":"","admin4_code":"","population":"0","elevation":"","dem":"6","timezone":"Asia/Jakarta","modification_date":"2012-01-20"},{"geonameid":"7036755","name":"Mungli","asciiname":"Mungli","alternatenames":"Mungli","latitude":"-7.013","longitude":"112.3859","feature_class":"P","feature_code":"PPLA4","country_code":"ID","cc2":"","admin1_code":"08","admin2_code":"","admin3_code":"","admin4_code":"","population":"0","elevation":"","dem":"5","timezone":"Asia/Jakarta","modification_date":"2012-01-20"},{"geonameid":"7036757","name":"Lukrejo","asciiname":"Lukrejo","alternatenames":"Lukrejo","latitude":"-7.0194","longitude":"112.3939","feature_class":"P","feature_code":"PPLA4","country_code":"ID","cc2":"","admin1_code":"08","admin2_code":"","admin3_code":"","admin4_code":"","population":"0","elevation":"","dem":"6","timezone":"Asia/Jakarta","modification_date":"2012-01-20"},{"geonameid":"7036763","name":"Deket Wetan","asciiname":"Deket Wetan","alternatenames":"Deket Wetan","latitude":"-7.1184","longitude":"112.4439","feature_class":"P","feature_code":"PPLA4","country_code":"ID","cc2":"","admin1_code":"08","admin2_code":"","admin3_code":"","admin4_code":"","population":"0","elevation":"","dem":"8","timezone":"Asia/Jakarta","modification_date":"2010-08-10"},{"geonameid":"7036823","name":"Niwen","asciiname":"Niwen","alternatenames":"Niwen","latitude":"-8.0003","longitude":"112.5955","feature_class":"P","feature_code":"PPLA4","country_code":"ID","cc2":"","admin1_code":"08","admin2_code":"","admin3_code":"","admin4_code":"","population":"0","elevation":"","dem":"465","timezone":"Asia/Jakarta","modification_date":"2012-01-20"},{"geonameid":"7036837","name":"Kenongo","asciiname":"Kenongo","alternatenames":"Kenongo","latitude":"-8.0089","longitude":"112.5393","feature_class":"P","feature_code":"PPLA4","country_code":"ID","cc2":"","admin1_code":"08","admin2_code":"","admin3_code":"","admin4_code":"","population":"0","elevation":"","dem":"740","timezone":"Asia/Jakarta","modification_date":"2012-01-20"},{"geonameid":"7036883","name":"Ardirejo","asciiname":"Ardirejo","alternatenames":"Ardirejo","latitude":"-8.1245","longitude":"112.5734","feature_class":"P","feature_code":"PPLA4","country_code":"ID","cc2":"","admin1_code":"08","admin2_code":"","admin3_code":"","admin4_code":"","population":"0","elevation":"","dem":"342","timezone":"Asia/Jakarta","modification_date":"2012-01-20"},{"geonameid":"7036886","name":"Bendo","asciiname":"Bendo","alternatenames":"Bendo","latitude":"-8.0723","longitude":"112.5926","feature_class":"P","feature_code":"PPLA4","country_code":"ID","cc2":"","admin1_code":"08","admin2_code":"","admin3_code":"","admin4_code":"","population":"0","elevation":"","dem":"384","timezone":"Asia/Jakarta","modification_date":"2012-01-20"},{"geonameid":"7036914","name":"Sukonolo Krajan","asciiname":"Sukonolo Krajan","alternatenames":"Sukonolo Krajan","latitude":"-8.1031","longitude":"112.6167","feature_class":"P","feature_code":"PPLA4","country_code":"ID","cc2":"","admin1_code":"08","admin2_code":"","admin3_code":"","admin4_code":"","population":"0","elevation":"","dem":"377","timezone":"Asia/Jakarta","modification_date":"2012-01-20"},{"geonameid":"7036926","name":"Wagir","asciiname":"Wagir","alternatenames":"Wagir","latitude":"-8.0132","longitude":"112.5942","feature_class":"P","feature_code":"PPLA4","country_code":"ID","cc2":"","admin1_code":"08","admin2_code":"","admin3_code":"","admin4_code":"","population":"0","elevation":"","dem":"460","timezone":"Asia/Jakarta","modification_date":"2010-08-10"},{"geonameid":"7036927","name":"Kepuh","asciiname":"Kepuh","alternatenames":"Kepuh","latitude":"-8.006","longitude":"112.6188","feature_class":"P","feature_code":"PPLA4","country_code":"ID","cc2":"","admin1_code":"08","admin2_code":"","admin3_code":"","admin4_code":"","population":"0","elevation":"","dem":"429","timezone":"Asia/Jakarta","modification_date":"2010-08-10"},{"geonameid":"7036928","name":"Pakisaji","asciiname":"Pakisaji","alternatenames":"Pakisaji","latitude":"-8.0665","longitude":"112.5981","feature_class":"P","feature_code":"PPLA4","country_code":"ID","cc2":"","admin1_code":"08","admin2_code":"","admin3_code":"","admin4_code":"","population":"0","elevation":"","dem":"393","timezone":"Asia/Jakarta","modification_date":"2010-08-10"},{"geonameid":"7036929","name":"Ngajum","asciiname":"Ngajum","alternatenames":"Ngajum","latitude":"-8.0955","longitude":"112.541","feature_class":"P","feature_code":"PPLA4","country_code":"ID","cc2":"","admin1_code":"08","admin2_code":"","admin3_code":"","admin4_code":"","population":"0","elevation":"","dem":"375","timezone":"Asia/Jakarta","modification_date":"2010-08-10"},{"geonameid":"7036993","name":"Bumiayu","asciiname":"Bumiayu","alternatenames":"Bumiayu","latitude":"-8.0151","longitude":"112.6347","feature_class":"P","feature_code":"PPLA4","country_code":"ID","cc2":"","admin1_code":"08","admin2_code":"","admin3_code":"","admin4_code":"","population":"0","elevation":"","dem":"426","timezone":"Asia/Jakarta","modification_date":"2012-01-20"},{"geonameid":"7037005","name":"Sekarsari","asciiname":"Sekarsari","alternatenames":"Sekarsari","latitude":"-8.0366","longitude":"112.6542","feature_class":"P","feature_code":"PPLA4","country_code":"ID","cc2":"","admin1_code":"08","admin2_code":"","admin3_code":"","admin4_code":"","population":"0","elevation":"","dem":"431","timezone":"Asia/Jakarta","modification_date":"2012-01-20"},{"geonameid":"7037012","name":"Gunungsari","asciiname":"Gunungsari","alternatenames":"Gunungsari","latitude":"-8.0456","longitude":"112.6936","feature_class":"P","feature_code":"PPLA4","country_code":"ID","cc2":"","admin1_code":"08","admin2_code":"","admin3_code":"","admin4_code":"","population":"0","elevation":"","dem":"492","timezone":"Asia/Jakarta","modification_date":"2012-01-20"},{"geonameid":"7037016","name":"Watudakon","asciiname":"Watudakon","alternatenames":"Watudakon","latitude":"-8.0453","longitude":"112.6276","feature_class":"P","feature_code":"PPLA4","country_code":"ID","cc2":"","admin1_code":"08","admin2_code":"","admin3_code":"","admin4_code":"","population":"0","elevation":"","dem":"408","timezone":"Asia/Jakarta","modification_date":"2012-01-20"},{"geonameid":"7037028","name":"Sidomulyo","asciiname":"Sidomulyo","alternatenames":"Sidomulyo","latitude":"-8.0636","longitude":"112.6429","feature_class":"P","feature_code":"PPLA4","country_code":"ID","cc2":"","admin1_code":"08","admin2_code":"","admin3_code":"","admin4_code":"","population":"0","elevation":"","dem":"403","timezone":"Asia/Jakarta","modification_date":"2012-01-20"},{"geonameid":"7037045","name":"Sidoaji","asciiname":"Sidoaji","alternatenames":"Sidoaji","latitude":"-8.0874","longitude":"112.6326","feature_class":"P","feature_code":"PPLA4","country_code":"ID","cc2":"","admin1_code":"08","admin2_code":"","admin3_code":"","admin4_code":"","population":"0","elevation":"","dem":"391","timezone":"Asia/Jakarta","modification_date":"2012-01-20"},{"geonameid":"7037061","name":"Krapyak Kidul","asciiname":"Krapyak Kidul","alternatenames":"Krapyak Kidul","latitude":"-8.094","longitude":"112.6468","feature_class":"P","feature_code":"PPLA4","country_code":"ID","cc2":"","admin1_code":"08","admin2_code":"","admin3_code":"","admin4_code":"","population":"0","elevation":"","dem":"416","timezone":"Asia/Jakarta","modification_date":"2012-01-20"},{"geonameid":"7037068","name":"Napel","asciiname":"Napel","alternatenames":"Napel","latitude":"-8.1088","longitude":"112.71","feature_class":"P","feature_code":"PPLA4","country_code":"ID","cc2":"","admin1_code":"08","admin2_code":"","admin3_code":"","admin4_code":"","population":"0","elevation":"","dem":"475","timezone":"Asia/Jakarta","modification_date":"2012-01-20"},{"geonameid":"7037081","name":"Tajinan","asciiname":"Tajinan","alternatenames":"Tajinan","latitude":"-8.0497","longitude":"112.6824","feature_class":"P","feature_code":"PPLA4","country_code":"ID","cc2":"","admin1_code":"08","admin2_code":"","admin3_code":"","admin4_code":"","population":"0","elevation":"","dem":"469","timezone":"Asia/Jakarta","modification_date":"2010-08-10"},{"geonameid":"7037082","name":"Wajak","asciiname":"Wajak","alternatenames":"Wajak","latitude":"-8.102","longitude":"112.7312","feature_class":"P","feature_code":"PPLA4","country_code":"ID","cc2":"","admin1_code":"08","admin2_code":"","admin3_code":"","admin4_code":"","population":"0","elevation":"","dem":"515","timezone":"Asia/Jakarta","modification_date":"2010-08-10"},{"geonameid":"7037147","name":"Jambekumbu","asciiname":"Jambekumbu","alternatenames":"Jambekumbu","latitude":"-8.1006","longitude":"113.0674","feature_class":"P","feature_code":"PPLA4","country_code":"ID","cc2":"","admin1_code":"08","admin2_code":"","admin3_code":"","admin4_code":"","population":"0","elevation":"","dem":"529","timezone":"Asia/Jakarta","modification_date":"2012-01-20"},{"geonameid":"7037151","name":"Pasrukrajan Satu","asciiname":"Pasrukrajan Satu","alternatenames":"Pasrukrajan Satu","latitude":"-8.1192","longitude":"113.0582","feature_class":"P","feature_code":"PPLA4","country_code":"ID","cc2":"","admin1_code":"08","admin2_code":"","admin3_code":"","admin4_code":"","population":"0","elevation":"","dem":"522","timezone":"Asia/Jakarta","modification_date":"2012-01-20"},{"geonameid":"7037155","name":"Wonorejo","asciiname":"Wonorejo","alternatenames":"Wonorejo","latitude":"-8.0691","longitude":"113.0708","feature_class":"P","feature_code":"PPLA4","country_code":"ID","cc2":"","admin1_code":"08","admin2_code":"","admin3_code":"","admin4_code":"","population":"0","elevation":"","dem":"695","timezone":"Asia/Jakarta","modification_date":"2012-01-20"},{"geonameid":"7037156","name":"Burno","asciiname":"Burno","alternatenames":"Burno","latitude":"-8.0853","longitude":"113.0723","feature_class":"P","feature_code":"PPLA4","country_code":"ID","cc2":"","admin1_code":"08","admin2_code":"","admin3_code":"","admin4_code":"","population":"0","elevation":"","dem":"571","timezone":"Asia/Jakarta","modification_date":"2012-01-20"},{"geonameid":"7037164","name":"Krajanjambearum","asciiname":"Krajanjambearum","alternatenames":"Krajanjambearum","latitude":"-8.117","longitude":"113.0794","feature_class":"P","feature_code":"PPLA4","country_code":"ID","cc2":"","admin1_code":"08","admin2_code":"","admin3_code":"","admin4_code":"","population":"0","elevation":"","dem":"419","timezone":"Asia/Jakarta","modification_date":"2012-01-20"},{"geonameid":"7037170","name":"Kandangan","asciiname":"Kandangan","alternatenames":"Kandangan","latitude":"-8.0667","longitude":"113.0902","feature_class":"P","feature_code":"PPLA4","country_code":"ID","cc2":"","admin1_code":"08","admin2_code":"","admin3_code":"","admin4_code":"","population":"0","elevation":"","dem":"595","timezone":"Asia/Jakarta","modification_date":"2012-01-20"},{"geonameid":"7037192","name":"Bedayutalang","asciiname":"Bedayutalang","alternatenames":"Bedayutalang","latitude":"-8.0698","longitude":"113.1151","feature_class":"P","feature_code":"PPLA4","country_code":"ID","cc2":"","admin1_code":"08","admin2_code":"","admin3_code":"","admin4_code":"","population":"0","elevation":"","dem":"445","timezone":"Asia/Jakarta","modification_date":"2012-01-20"},{"geonameid":"7037193","name":"Bedayu","asciiname":"Bedayu","alternatenames":"Bedayu","latitude":"-8.071","longitude":"113.1016","feature_class":"P","feature_code":"PPLA4","country_code":"ID","cc2":"","admin1_code":"08","admin2_code":"","admin3_code":"","admin4_code":"","population":"0","elevation":"","dem":"484","timezone":"Asia/Jakarta","modification_date":"2012-01-20"},{"geonameid":"7037199","name":"Gasri","asciiname":"Gasri","alternatenames":"Gasri","latitude":"-8.1164","longitude":"113.1123","feature_class":"P","feature_code":"PPLA4","country_code":"ID","cc2":"","admin1_code":"08","admin2_code":"","admin3_code":"","admin4_code":"","population":"0","elevation":"","dem":"312","timezone":"Asia/Jakarta","modification_date":"2012-01-20"},{"geonameid":"7037205","name":"Senduro","asciiname":"Senduro","alternatenames":"Senduro","latitude":"-8.0936","longitude":"113.0891","feature_class":"P","feature_code":"PPLA4","country_code":"ID","cc2":"","admin1_code":"08","admin2_code":"","admin3_code":"","admin4_code":"","population":"0","elevation":"","dem":"441","timezone":"Asia/Jakarta","modification_date":"2010-08-10"},{"geonameid":"7037280","name":"Wringinsari","asciiname":"Wringinsari","alternatenames":"Wringinsari","latitude":"-8.1247","longitude":"113.2019","feature_class":"P","feature_code":"PPLA4","country_code":"ID","cc2":"","admin1_code":"08","admin2_code":"","admin3_code":"","admin4_code":"","population":"0","elevation":"","dem":"67","timezone":"Asia/Jakarta","modification_date":"2012-01-20"},{"geonameid":"7037288","name":"Pakel","asciiname":"Pakel","alternatenames":"Pakel","latitude":"-8.0643","longitude":"113.1281","feature_class":"P","feature_code":"PPLA4","country_code":"ID","cc2":"","admin1_code":"08","admin2_code":"","admin3_code":"","admin4_code":"","population":"0","elevation":"","dem":"446","timezone":"Asia/Jakarta","modification_date":"2012-01-20"},