{"nextFile":"cities.10.json","rows":[{"geonameid":"3473268","name":"Abadiânia","asciiname":"Abadiania","alternatenames":"","latitude":"-16.20417","longitude":"-48.70694","feature_class":"P","feature_code":"PPL","country_code":"BR","cc2":"","admin1_code":"29","admin2_code":"5200100","admin3_code":"","admin4_code":"","population":"7062","elevation":"","dem":"1057","timezone":"America/Sao_Paulo","modification_date":"2012-08-03"},{"geonameid":"3473964","name":"Guaíba","asciiname":"Guaiba","alternatenames":"Guaiba,Guaíba","latitude":"-30.11389","longitude":"-51.325","feature_class":"P","feature_code":"PPL","country_code":"BR","cc2":"","admin1_code":"23","admin2_code":"4309308","admin3_code":"","admin4_code":"","population":"101024","elevation":"","dem":"22","timezone":"America/Sao_Paulo","modification_date":"2012-08-03"},{"geonameid":"3474574","name":"Palmas","asciiname":"Palmas","alternatenames":"PMW,Palmas,plms,Палмас,פלמס","latitude":"-10.16745","longitude":"-48.32766","feature_class":"P","feature_code":"PPLA","country_code":"BR","cc2":"","admin1_code":"31","admin2_code":"1721000","admin3_code":"","admin4_code":"","population":"196272","elevation":"","dem":"271","timezone":"America/Araguaina","modification_date":"2013-10-22"},{"geonameid":"3478424","name":"Pontal do Paraná","asciiname":"Pontal do Parana","alternatenames":"","latitude":"-25.67361","longitude":"-48.51111","feature_class":"P","feature_code":"PPLA2","country_code":"BR","cc2":"","admin1_code":"18","admin2_code":"4119954","admin3_code":"","admin4_code":"","population":"14969","elevation":"","dem":"7","timezone":"America/Sao_Paulo","modification_date":"2012-03-10"},{"geonameid":"3661756","name":"Uarini","asciiname":"Uarini","alternatenames":"","latitude":"-2.99","longitude":"-65.10833","feature_class":"P","feature_code":"PPL","country_code":"BR","cc2":"","admin1_code":"04","admin2_code":"1304260","admin3_code":"","admin4_code":"","population":"2796","elevation":"","dem":"56","timezone":"America/Manaus","modification_date":"2012-08-03"},{"geonameid":"3661894","name":"Tonantins","asciiname":"Tonantins","alternatenames":"Tocantins","latitude":"-2.87306","longitude":"-67.80222","feature_class":"P","feature_code":"PPL","country_code":"BR","cc2":"","admin1_code":"04","admin2_code":"1304237","admin3_code":"","admin4_code":"","population":"4561","elevation":"","dem":"55","timezone":"America/Manaus","modification_date":"2012-08-03"},{"geonameid":"3661944","name":"Tefé","asciiname":"Tefe","alternatenames":"Ega,TFF,Tefe,Teffe,Teffé,Tefé","latitude":"-3.36841","longitude":"-64.72054","feature_class":"P","feature_code":"PPL","country_code":"BR","cc2":"","admin1_code":"04","admin2_code":"1304203","admin3_code":"","admin4_code":"","population":"44942","elevation":"","dem":"64","timezone":"America/Manaus","modification_date":"2014-08-03"},{"geonameid":"3661948","name":"Marechal Thaumaturgo","asciiname":"Marechal Thaumaturgo","alternatenames":"Taumaturgo,Villa Thaumaturgo","latitude":"-8.94111","longitude":"-72.79167","feature_class":"P","feature_code":"PPL","country_code":"BR","cc2":"","admin1_code":"01","admin2_code":"1200351","admin3_code":"","admin4_code":"","population":"1808","elevation":"","dem":"242","timezone":"America/Rio_Branco","modification_date":"2012-08-03"},{"geonameid":"3661980","name":"Tarauacá","asciiname":"Tarauaca","alternatenames":"Foz do Muru,Seabra,TRQ,Tarauaca,Tarauacá","latitude":"-8.16139","longitude":"-70.76556","feature_class":"P","feature_code":"PPL","country_code":"BR","cc2":"","admin1_code":"01","admin2_code":"1200609","admin3_code":"","admin4_code":"","population":"16526","elevation":"","dem":"173","timezone":"America/Rio_Branco","modification_date":"2013-04-21"},{"geonameid":"3662075","name":"Tabatinga","asciiname":"Tabatinga","alternatenames":"TBT,Tabatinga","latitude":"-4.23116","longitude":"-69.93858","feature_class":"P","feature_code":"PPL","country_code":"BR","cc2":"","admin1_code":"04","admin2_code":"1304062","admin3_code":"","admin4_code":"","population":"28229","elevation":"","dem":"80","timezone":"America/Manaus","modification_date":"2014-07-24"},{"geonameid":"3662155","name":"Sena Madureira","asciiname":"Sena Madureira","alternatenames":"Purus,Purús,Sena Madureira,Senna Madureira,ZMD","latitude":"-9.06341","longitude":"-68.67245","feature_class":"P","feature_code":"PPL","country_code":"BR","cc2":"","admin1_code":"01","admin2_code":"1200500","admin3_code":"","admin4_code":"","population":"20516","elevation":"","dem":"144","timezone":"America/Rio_Branco","modification_date":"2014-07-17"},{"geonameid":"3662252","name":"São Paulo de Olivença","asciiname":"Sao Paulo de Olivenca","alternatenames":"","latitude":"-3.37833","longitude":"-68.8725","feature_class":"P","feature_code":"PPL","country_code":"BR","cc2":"","admin1_code":"04","admin2_code":"1303908","admin3_code":"","admin4_code":"","population":"11763","elevation":"","dem":"73","timezone":"America/Manaus","modification_date":"2012-08-03"},{"geonameid":"3662342","name":"São Gabriel da Cachoeira","asciiname":"Sao Gabriel da Cachoeira","alternatenames":"Sao Gabriel,São Gabriel","latitude":"-0.1181","longitude":"-67.08527","feature_class":"P","feature_code":"PPL","country_code":"BR","cc2":"","admin1_code":"04","admin2_code":"1303809","admin3_code":"","admin4_code":"","population":"15231","elevation":"","dem":"74","timezone":"America/Manaus","modification_date":"2014-07-17"},{"geonameid":"3662395","name":"Santo Antônio do Içá","asciiname":"Santo Antonio do Ica","alternatenames":"Santo Antonio,Santo Antonio do Inca","latitude":"-3.10222","longitude":"-67.93972","feature_class":"P","feature_code":"PPL","country_code":"BR","cc2":"","admin1_code":"04","admin2_code":"1303700","admin3_code":"","admin4_code":"","population":"9302","elevation":"","dem":"68","timezone":"America/Manaus","modification_date":"2012-08-03"},{"geonameid":"3662489","name":"Santa Isabel do Rio Negro","asciiname":"Santa Isabel do Rio Negro","alternatenames":"IRZ,Santa Isabel,Santa Isabel Rio Negro,Santa Izabel,Tapuracuara,Tapurucuara,Tapuruqua,Tapuruquara,Tapuruquá,Tapuruquára","latitude":"-0.41389","longitude":"-65.01917","feature_class":"P","feature_code":"PPL","country_code":"BR","cc2":"","admin1_code":"04","admin2_code":"1303601","admin3_code":"","admin4_code":"","population":"4142","elevation":"","dem":"45","timezone":"America/Manaus","modification_date":"2013-05-08"},{"geonameid":"3662574","name":"Rio Branco","asciiname":"Rio Branco","alternatenames":"Penapolis,Penápolis,RBR,Rio Bran'ko,Rio Branco,Rio Brankas,Rio Branko,Riu Branco,Riu-Branku,Riubranku,Río Branco,hiubeulangku,li yue bu lan ke,ri xu brang ku,ri'o branko,rioburanko,riyo branko,ryw brankw,ryw brnqw,Ρίο Μπράνκο,Рио Бранко,Риу-Бранку,Ріу-Бранку,ריו ברנקו,ريو برانكو,ریو برانکو,रियो ब्रांको,রিও ব্রাঙ্কো,รีอูบรังกู,რიუ-ბრანკუ,リオブランコ,里約布蘭科,히우브랑쿠","latitude":"-9.97472","longitude":"-67.81","feature_class":"P","feature_code":"PPLA","country_code":"BR","cc2":"","admin1_code":"01","admin2_code":"1200401","admin3_code":"","admin4_code":"","population":"257642","elevation":"","dem":"153","timezone":"America/Rio_Branco","modification_date":"2012-08-03"},{"geonameid":"3662761","name":"Porto Walter","asciiname":"Porto Walter","alternatenames":"Humaita,Humaitá,Humayta,Humaytá,Porto Valter,Porto Walter,Pôrto Válter,Pôrto Walter,Villa Humayta","latitude":"-8.26861","longitude":"-72.74389","feature_class":"P","feature_code":"PPL","country_code":"BR","cc2":"","admin1_code":"01","admin2_code":"1200393","admin3_code":"","admin4_code":"","population":"1816","elevation":"","dem":"195","timezone":"America/Rio_Branco","modification_date":"2012-08-03"},{"geonameid":"3662762","name":"Porto Velho","asciiname":"Porto Velho","alternatenames":"PVH,Porto Vel'o,Porto Velho,Porto Veljas,Porto Velo,Portu-Vel'ju,Portu-Velju,Pôrto Velho,Velho,bwrtw falyw,parto bhelaho,poleutubellyu,por tu wel yu,pwrtw wlyw,wei liu gang,Порто Вельо,Порто Вељо,Порту-Велью,Порту-Велю,פורטו ולאהו,פורטו וליו,بورتو فاليو,پورتو ویلہو,পর্টো ভেলহো,โปร์ตูเวลยู,პორტუ-ველიუ,ポルト・ヴェーリョ,韋柳港,포르투벨류","latitude":"-8.76194","longitude":"-63.90389","feature_class":"P","feature_code":"PPLA","country_code":"BR","cc2":"","admin1_code":"24","admin2_code":"1100205","admin3_code":"","admin4_code":"","population":"306180","elevation":"","dem":"90","timezone":"America/Porto_Velho","modification_date":"2012-08-03"},{"geonameid":"3662927","name":"Pauini","asciiname":"Pauini","alternatenames":"","latitude":"-7.71361","longitude":"-66.97639","feature_class":"P","feature_code":"PPL","country_code":"BR","cc2":"","admin1_code":"04","admin2_code":"1303502","admin3_code":"","admin4_code":"","population":"7633","elevation":"","dem":"104","timezone":"America/Manaus","modification_date":"2012-08-03"},{"geonameid":"3663142","name":"Novo Aripuanã","asciiname":"Novo Aripuana","alternatenames":"Boca Aripuana,Boca Aripuanã,Foz do Aripuana,Foz do Aripuanã","latitude":"-5.12056","longitude":"-60.37972","feature_class":"P","feature_code":"PPL","country_code":"BR","cc2":"","admin1_code":"04","admin2_code":"1303304","admin3_code":"","admin4_code":"","population":"11044","elevation":"","dem":"32","timezone":"America/Manaus","modification_date":"2012-08-03"},{"geonameid":"3663475","name":"Maraã","asciiname":"Maraa","alternatenames":"","latitude":"-1.82403","longitude":"-65.35883","feature_class":"P","feature_code":"PPLL","country_code":"BR","cc2":"","admin1_code":"04","admin2_code":"1302801","admin3_code":"","admin4_code":"","population":"4387","elevation":"","dem":"74","timezone":"America/Manaus","modification_date":"2014-07-03"},{"geonameid":"3663495","name":"Manoel Urbano","asciiname":"Manoel Urbano","alternatenames":"Manoel Urbano","latitude":"-8.83889","longitude":"-69.25972","feature_class":"P","feature_code":"PPL","country_code":"BR","cc2":"","admin1_code":"01","admin2_code":"1200344","admin3_code":"","admin4_code":"","population":"4065","elevation":"","dem":"165","timezone":"America/Rio_Branco","modification_date":"2012-08-03"},{"geonameid":"3663503","name":"Manicoré","asciiname":"Manicore","alternatenames":"","latitude":"-5.80917","longitude":"-61.30028","feature_class":"P","feature_code":"PPL","country_code":"BR","cc2":"","admin1_code":"04","admin2_code":"1302702","admin3_code":"","admin4_code":"","population":"14055","elevation":"","dem":"38","timezone":"America/Manaus","modification_date":"2012-08-03"},{"geonameid":"3663516","name":"Mâncio Lima","asciiname":"Mancio Lima","alternatenames":"Japiim,Japuim,Villa Nuncio Lima","latitude":"-7.61417","longitude":"-72.89583","feature_class":"P","feature_code":"PPL","country_code":"BR","cc2":"","admin1_code":"01","admin2_code":"1200336","admin3_code":"","admin4_code":"","population":"7086","elevation":"","dem":"189","timezone":"America/Rio_Branco","modification_date":"2012-08-03"},{"geonameid":"3663517","name":"Manaus","asciiname":"Manaus","alternatenames":"Barra do Rio Negro,MAO,Manaos,Manaus,Manos,Manáos,ma nao si,manausu,Манаус,Манаўс,מנאוס,マナウス,马瑙斯","latitude":"-3.10194","longitude":"-60.025","feature_class":"P","feature_code":"PPLA","country_code":"BR","cc2":"","admin1_code":"04","admin2_code":"1302603","admin3_code":"","admin4_code":"","population":"1598210","elevation":"","dem":"20","timezone":"America/Manaus","modification_date":"2016-03-10"},{"geonameid":"3663524","name":"Manaquiri","asciiname":"Manaquiri","alternatenames":"Manaquery,Manaquiri","latitude":"-3.31667","longitude":"-60.35","feature_class":"P","feature_code":"PPL","country_code":"BR","cc2":"","admin1_code":"04","admin2_code":"1302553","admin3_code":"","admin4_code":"","population":"9981","elevation":"","dem":"27","timezone":"America/Manaus","modification_date":"2012-08-03"},{"geonameid":"3663529","name":"Manacapuru","asciiname":"Manacapuru","alternatenames":"Manakapuru,Манакапуру","latitude":"-3.29972","longitude":"-60.62056","feature_class":"P","feature_code":"PPL","country_code":"BR","cc2":"","admin1_code":"04","admin2_code":"1302504","admin3_code":"","admin4_code":"","population":"52459","elevation":"","dem":"34","timezone":"America/Manaus","modification_date":"2012-08-03"},{"geonameid":"3663693","name":"Jutaí","asciiname":"Jutai","alternatenames":"","latitude":"-5.18333","longitude":"-68.9","feature_class":"P","feature_code":"PPL","country_code":"BR","cc2":"","admin1_code":"04","admin2_code":"1302306","admin3_code":"","admin4_code":"","population":"5862","elevation":"","dem":"92","timezone":"America/Manaus","modification_date":"2012-08-03"},{"geonameid":"3664078","name":"Humaitá","asciiname":"Humaita","alternatenames":"HUW,Humaita,Humaitá,Humayta,Humaytá,Umajta,wu mai ta,Умайта,אומאיטה,烏邁塔","latitude":"-7.51651","longitude":"-63.03105","feature_class":"P","feature_code":"PPL","country_code":"BR","cc2":"","admin1_code":"04","admin2_code":"1301704","admin3_code":"","admin4_code":"","population":"31206","elevation":"","dem":"54","timezone":"America/Manaus","modification_date":"2014-07-01"},{"geonameid":"3664207","name":"Fonte Boa","asciiname":"Fonte Boa","alternatenames":"FBA,Fonte Boa","latitude":"-2.51389","longitude":"-66.09167","feature_class":"P","feature_code":"PPLA2","country_code":"BR","cc2":"","admin1_code":"04","admin2_code":"1301605","admin3_code":"","admin4_code":"","population":"16060","elevation":"","dem":"60","timezone":"America/Manaus","modification_date":"2013-05-08"},{"geonameid":"3664243","name":"Feijó","asciiname":"Feijo","alternatenames":"FEJ,Feijo,Feijó","latitude":"-8.1654","longitude":"-70.35486","feature_class":"P","feature_code":"PPL","country_code":"BR","cc2":"","admin1_code":"01","admin2_code":"1200302","admin3_code":"","admin4_code":"","population":"12951","elevation":"","dem":"160","timezone":"America/Rio_Branco","modification_date":"2013-11-24"},{"geonameid":"3664301","name":"Envira","asciiname":"Envira","alternatenames":"Emvira,Envira","latitude":"-7.3","longitude":"-70.21667","feature_class":"P","feature_code":"PPL","country_code":"BR","cc2":"","admin1_code":"04","admin2_code":"1301407","admin3_code":"","admin4_code":"","population":"9956","elevation":"","dem":"196","timezone":"America/Eirunepe","modification_date":"2012-08-03"},{"geonameid":"3664321","name":"Eirunepé","asciiname":"Eirunepe","alternatenames":"Joao Pessoa,João Pessôa,Sao Felipe,Sao Felippe,Sao Filipe,Sao Phelippe,São Felipe,São Felippe,São Filipe,São Phelippe","latitude":"-6.66028","longitude":"-69.87361","feature_class":"P","feature_code":"PPL","country_code":"BR","cc2":"","admin1_code":"04","admin2_code":"1301407","admin3_code":"","admin4_code":"","population":"17175","elevation":"","dem":"123","timezone":"America/Eirunepe","modification_date":"2012-08-03"},{"geonameid":"3664464","name":"Cruzeiro do Sul","asciiname":"Cruzeiro do Sul","alternatenames":"CZS,Jurua,Juruá,Kruzejro do Sul,Kruzejru-du-Sul,Kruzeyru du Sul,krwzyrw dw swl,nan ke lu sai luo,qrwzyyrw dw swl,Крузейро до Сул,Крузейру-ду-Сул,Կրուզեյրու դու Սուլ,קרוזיירו דו סול,کروزیرو دو سول,南克魯賽羅","latitude":"-7.62759","longitude":"-72.67756","feature_class":"P","feature_code":"PPL","country_code":"BR","cc2":"BR","admin1_code":"01","admin2_code":"1200203","admin3_code":"","admin4_code":"","population":"79819","elevation":"","dem":"195","timezone":"America/Rio_Branco","modification_date":"2014-07-24"},{"geonameid":"3664525","name":"Codajás","asciiname":"Codajas","alternatenames":"Codajaz,Codajáz","latitude":"-3.83667","longitude":"-62.05694","feature_class":"P","feature_code":"PPL","country_code":"BR","cc2":"","admin1_code":"04","admin2_code":"1301308","admin3_code":"","admin4_code":"","population":"11185","elevation":"","dem":"30","timezone":"America/Manaus","modification_date":"2012-08-03"},{"geonameid":"3664539","name":"Coari","asciiname":"Coari","alternatenames":"CIZ,Choary,Coari Amazonas,Coary,Koari,Quari,Quarí,Коари","latitude":"-4.085","longitude":"-63.14139","feature_class":"P","feature_code":"PPL","country_code":"BR","cc2":"","admin1_code":"04","admin2_code":"1301209","admin3_code":"","admin4_code":"","population":"50490","elevation":"","dem":"42","timezone":"America/Manaus","modification_date":"2013-07-22"},{"geonameid":"3664659","name":"Carauari","asciiname":"Carauari","alternatenames":"CAF,Carauary,Caravari,Xibaua,Xibauá","latitude":"-4.88278","longitude":"-66.89583","feature_class":"P","feature_code":"PPL","country_code":"BR","cc2":"","admin1_code":"04","admin2_code":"1301001","admin3_code":"","admin4_code":"","population":"18059","elevation":"","dem":"65","timezone":"America/Manaus","modification_date":"2012-08-03"},{"geonameid":"3664716","name":"Canutama","asciiname":"Canutama","alternatenames":"","latitude":"-6.53389","longitude":"-64.38306","feature_class":"P","feature_code":"PPL","country_code":"BR","cc2":"","admin1_code":"04","admin2_code":"1300904","admin3_code":"","admin4_code":"","population":"6320","elevation":"","dem":"49","timezone":"America/Manaus","modification_date":"2012-08-03"},{"geonameid":"3664956","name":"Boca do Acre","asciiname":"Boca do Acre","alternatenames":"Bocca do Acre,Foz do Acre,Santa Maria da Boca do Acre,Santa Maria da Bôca do Acre","latitude":"-8.75222","longitude":"-67.39778","feature_class":"P","feature_code":"PPL","country_code":"BR","cc2":"","admin1_code":"04","admin2_code":"1300706","admin3_code":"","admin4_code":"","population":"14427","elevation":"","dem":"107","timezone":"America/Manaus","modification_date":"2012-08-03"},{"geonameid":"3664980","name":"Boa Vista","asciiname":"Boa Vista","alternatenames":"BVB,Boa Vista,Boa Vista do Rio Branco,Boa Višta,Boa-Vista,Боа-Виста,בואה ויסטה","latitude":"2.81972","longitude":"-60.67333","feature_class":"P","feature_code":"PPLA","country_code":"BR","cc2":"","admin1_code":"25","admin2_code":"1400100","admin3_code":"","admin4_code":"","population":"235150","elevation":"","dem":"82","timezone":"America/Boa_Vista","modification_date":"2012-08-03"},{"geonameid":"3665016","name":"Benjamin Constant","asciiname":"Benjamin Constant","alternatenames":"Benjamim Constant,Benjamin Constant,Benzhamin-Konstant,QAV,Бенжамин-Констант","latitude":"-4.37555","longitude":"-70.03179","feature_class":"P","feature_code":"PPL","country_code":"BR","cc2":"","admin1_code":"04","admin2_code":"1300607","admin3_code":"","admin4_code":"","population":"13998","elevation":"","dem":"68","timezone":"America/Eirunepe","modification_date":"2014-07-22"},{"geonameid":"3665098","name":"Barcelos","asciiname":"Barcelos","alternatenames":"BAZ,Barcellos,Barselos,Barselosas,Barselus,ba sai luo si,Барселос,Барселус,Բարսելուս,巴塞洛斯","latitude":"-0.97357","longitude":"-62.9269","feature_class":"P","feature_code":"PPL","country_code":"BR","cc2":"","admin1_code":"04","admin2_code":"1300409","admin3_code":"","admin4_code":"","population":"7353","elevation":"","dem":"35","timezone":"America/Manaus","modification_date":"2014-06-27"},{"geonameid":"3665199","name":"Ariquemes","asciiname":"Ariquemes","alternatenames":"Arikemes,Arikemis,arikoyemesa,Арикемис,আরিকোয়েমেস","latitude":"-9.91333","longitude":"-63.04083","feature_class":"P","feature_code":"PPL","country_code":"BR","cc2":"","admin1_code":"24","admin2_code":"1100023","admin3_code":"","admin4_code":"","population":"58096","elevation":"","dem":"139","timezone":"America/Porto_Velho","modification_date":"2012-08-03"},{"geonameid":"3665202","name":"Aripuanã","asciiname":"Aripuana","alternatenames":"Aripuana,Aripuanan,Aripuanã,Campina,Арипуанан","latitude":"-9.16667","longitude":"-60.63333","feature_class":"P","feature_code":"PPL","country_code":"BR","cc2":"","admin1_code":"14","admin2_code":"5103254","admin3_code":"","admin4_code":"","population":"26983","elevation":"","dem":"144","timezone":"America/Cuiaba","modification_date":"2012-08-03"},{"geonameid":"3665315","name":"Anori","asciiname":"Anori","alternatenames":"Annory,Anory","latitude":"-3.77278","longitude":"-61.64417","feature_class":"P","feature_code":"PPL","country_code":"BR","cc2":"","admin1_code":"04","admin2_code":"1300102","admin3_code":"","admin4_code":"","population":"8064","elevation":"","dem":"28","timezone":"America/Manaus","modification_date":"2012-08-03"},{"geonameid":"3665380","name":"Alvarães","asciiname":"Alvaraes","alternatenames":"Caicara,Caissara,Caiçara","latitude":"-3.22083","longitude":"-64.80417","feature_class":"P","feature_code":"PPL","country_code":"BR","cc2":"","admin1_code":"04","admin2_code":"1300029","admin3_code":"","admin4_code":"","population":"5527","elevation":"","dem":"69","timezone":"America/Manaus","modification_date":"2012-08-03"},{"geonameid":"3736808","name":"Iranduba","asciiname":"Iranduba","alternatenames":"Iranduba Grande","latitude":"-3.28472","longitude":"-60.18611","feature_class":"P","feature_code":"PPL","country_code":"BR","cc2":"","admin1_code":"04","admin2_code":"1301852","admin3_code":"","admin4_code":"","population":"11180","elevation":"","dem":"29","timezone":"America/Manaus","modification_date":"2012-08-03"},{"geonameid":"3924674","name":"Xapuri","asciiname":"Xapuri","alternatenames":"Xapury","latitude":"-10.65167","longitude":"-68.50444","feature_class":"P","feature_code":"PPL","country_code":"BR","cc2":"","admin1_code":"01","admin2_code":"1200708","admin3_code":"","admin4_code":"","population":"5721","elevation":"","dem":"171","timezone":"America/Rio_Branco","modification_date":"2012-08-03"},{"geonameid":"3924679","name":"Vilhena","asciiname":"Vilhena","alternatenames":"BVH,Vilena,Vilhena,Вилена","latitude":"-12.74056","longitude":"-60.14583","feature_class":"P","feature_code":"PPL","country_code":"BR","cc2":"","admin1_code":"24","admin2_code":"1100304","admin3_code":"","admin4_code":"","population":"63231","elevation":"","dem":"591","timezone":"America/Porto_Velho","modification_date":"2012-08-03"},{"geonameid":"3924752","name":"Senador Guiomard","asciiname":"Senador Guiomard","alternatenames":"","latitude":"-10.1497","longitude":"-67.73741","feature_class":"P","feature_code":"PPLA2","country_code":"BR","cc2":"","admin1_code":"01","admin2_code":"1200450","admin3_code":"","admin4_code":"","population":"11727","elevation":"","dem":"207","timezone":"America/Rio_Branco","modification_date":"2015-06-18"},{"geonameid":"3924872","name":"Presidente Médici","asciiname":"Presidente Medici","alternatenames":"Presidente,Presidente Hermes","latitude":"-11.17528","longitude":"-61.90139","feature_class":"P","feature_code":"PPL","country_code":"BR","cc2":"","admin1_code":"24","admin2_code":"1100254","admin3_code":"","admin4_code":"","population":"11922","elevation":"","dem":"181","timezone":"America/Porto_Velho","modification_date":"2012-08-03"},{"geonameid":"3924877","name":"Pôsto Fiscal Rolim de Moura","asciiname":"Posto Fiscal Rolim de Moura","alternatenames":"Posto Fiscal Rolim de Moura,Pôsto Fiscal Rolim de Moura,Rolim de Moura","latitude":"-13.08271","longitude":"-62.27726","feature_class":"P","feature_code":"PPL","country_code":"BR","cc2":"","admin1_code":"24","admin2_code":"1100015","admin3_code":"","admin4_code":"","population":"37949","elevation":"","dem":"159","timezone":"America/Porto_Velho","modification_date":"2013-04-04"},{"geonameid":"3924895","name":"Plácido de Castro","asciiname":"Placido de Castro","alternatenames":"Barraca Rapirran,Boca do Rapirra,Bocca do Rapirra","latitude":"-10.33528","longitude":"-67.18556","feature_class":"P","feature_code":"PPL","country_code":"BR","cc2":"","admin1_code":"01","admin2_code":"1200385","admin3_code":"","admin4_code":"","population":"11945","elevation":"","dem":"136","timezone":"America/Rio_Branco","modification_date":"2012-08-03"},{"geonameid":"3924908","name":"Pimenta Bueno","asciiname":"Pimenta Bueno","alternatenames":"PBQ","latitude":"-11.6725","longitude":"-61.19361","feature_class":"P","feature_code":"PPL","country_code":"BR","cc2":"","admin1_code":"24","admin2_code":"1100189","admin3_code":"","admin4_code":"","population":"25762","elevation":"","dem":"183","timezone":"America/Porto_Velho","modification_date":"2012-08-03"},{"geonameid":"3924948","name":"Ouro Preto do Oeste","asciiname":"Ouro Preto do Oeste","alternatenames":"Oru-Pretu-du-Uehsti,Ouro Preto do Oeste,Ouro Prêto do Oeste,Ору-Прету-ду-Уэсти","latitude":"-10.74806","longitude":"-62.21583","feature_class":"P","feature_code":"PPL","country_code":"BR","cc2":"","admin1_code":"24","admin2_code":"1100155","admin3_code":"","admin4_code":"","population":"26683","elevation":"","dem":"214","timezone":"America/Porto_Velho","modification_date":"2012-08-03"},{"geonameid":"3925033","name":"Ji Paraná","asciiname":"Ji Parana","alternatenames":"JPR","latitude":"-10.88528","longitude":"-61.95167","feature_class":"P","feature_code":"PPL","country_code":"BR","cc2":"","admin1_code":"24","admin2_code":"1100122","admin3_code":"","admin4_code":"","population":"107697","elevation":"","dem":"157","timezone":"America/Porto_Velho","modification_date":"2013-05-30"},{"geonameid":"3925040","name":"Jaru","asciiname":"Jaru","alternatenames":"Juru,Zhara,Жара","latitude":"-10.43889","longitude":"-62.46639","feature_class":"P","feature_code":"PPL","country_code":"BR","cc2":"","admin1_code":"24","admin2_code":"1100114","admin3_code":"","admin4_code":"","population":"28015","elevation":"","dem":"159","timezone":"America/Porto_Velho","modification_date":"2012-08-03"},{"geonameid":"3925075","name":"Guajará Mirim","asciiname":"Guajara Mirim","alternatenames":"Guayaramerim","latitude":"-10.78278","longitude":"-65.33944","feature_class":"P","feature_code":"PPL","country_code":"BR","cc2":"","admin1_code":"24","admin2_code":"1100106","admin3_code":"","admin4_code":"","population":"34119","elevation":"","dem":"133","timezone":"America/Porto_Velho","modification_date":"2012-08-03"},{"geonameid":"3925212","name":"Cacoal","asciiname":"Cacoal","alternatenames":"Cacoal,Cacual,Kakoal,OAL,Какоал","latitude":"-11.43861","longitude":"-61.44722","feature_class":"P","feature_code":"PPL","country_code":"BR","cc2":"","admin1_code":"24","admin2_code":"1100049","admin3_code":"","admin4_code":"","population":"55560","elevation":"","dem":"197","timezone":"America/Porto_Velho","modification_date":"2013-10-22"},{"geonameid":"3925227","name":"Brasiléia","asciiname":"Brasileia","alternatenames":"Brasilia,Brasília","latitude":"-11.01611","longitude":"-68.74806","feature_class":"P","feature_code":"PPL","country_code":"BR","cc2":"","admin1_code":"01","admin2_code":"1200104","admin3_code":"","admin4_code":"","population":"11200","elevation":"","dem":"188","timezone":"America/Rio_Branco","modification_date":"2012-08-03"},{"geonameid":"6316343","name":"Alta Floresta","asciiname":"Alta Floresta","alternatenames":"AFL","latitude":"-9.87556","longitude":"-56.08611","feature_class":"P","feature_code":"PPLA2","country_code":"BR","cc2":"","admin1_code":"14","admin2_code":"5100250","admin3_code":"","admin4_code":"","population":"0","elevation":"","dem":"292","timezone":"America/Cuiaba","modification_date":"2012-03-10"},{"geonameid":"6316406","name":"Aparecida de Goiânia","asciiname":"Aparecida de Goiania","alternatenames":"Aparesida de Gojanija,Aparesida di Gojanija,Aparesida-di-Gojanija,a pa lei xi da di ge ya ni ya,aparesida de go'iyaniya,Апаресида де Гојанија,Апаресида ди Гояния,Апаресида-ди-Гояния,আপারেসিডা ডে গোইয়ানিয়া,アパレシダ・デ・ゴイアニア,阿帕雷西達迪戈亞尼亞","latitude":"-16.82333","longitude":"-49.24389","feature_class":"P","feature_code":"PPL","country_code":"BR","cc2":"","admin1_code":"29","admin2_code":"5201405","admin3_code":"","admin4_code":"","population":"510770","elevation":"","dem":"829","timezone":"America/Sao_Paulo","modification_date":"2012-08-03"},{"geonameid":"6316420","name":"Araguanã","asciiname":"Araguana","alternatenames":"","latitude":"-2.94639","longitude":"-45.66098","feature_class":"P","feature_code":"PPLA3","country_code":"BR","cc2":"","admin1_code":"13","admin2_code":"2100873","admin3_code":"","admin4_code":"","population":"0","elevation":"","dem":"35","timezone":"America/Fortaleza","modification_date":"2014-12-12"},{"geonameid":"6316729","name":"Campinas","asciiname":"Campinas","alternatenames":"","latitude":"-27.59444","longitude":"-48.60694","feature_class":"P","feature_code":"PPLL","country_code":"BR","cc2":"","admin1_code":"26","admin2_code":"4216602","admin3_code":"","admin4_code":"","population":"20000","elevation":"","dem":"8","timezone":"America/Sao_Paulo","modification_date":"2012-08-03"},{"geonameid":"6316741","name":"Campo Limpo Paulista","asciiname":"Campo Limpo Paulista","alternatenames":"","latitude":"-23.20639","longitude":"-46.78444","feature_class":"P","feature_code":"PPLA2","country_code":"BR","cc2":"","admin1_code":"27","admin2_code":"3509601","admin3_code":"","admin4_code":"","population":"0","elevation":"","dem":"743","timezone":"America/Sao_Paulo","modification_date":"2012-03-10"},{"geonameid":"6317136","name":"Fernando de Noronha (Distrito Estadual)","asciiname":"Fernando de Noronha (Distrito Estadual)","alternatenames":"","latitude":"-3.84028","longitude":"-32.41083","feature_class":"P","feature_code":"PPL","country_code":"BR","cc2":"","admin1_code":"30","admin2_code":"2605459","admin3_code":"","admin4_code":"","population":"3012","elevation":"","dem":"28","timezone":"America/Noronha","modification_date":"2012-08-03"},{"geonameid":"6317344","name":"Jaboatão dos Guararapes","asciiname":"Jaboatao dos Guararapes","alternatenames":"Zhaboatan-dus-Guararapis,Zhaboatao dos Guararapis,Zhaboatao dos Gvararapes,Zhabuatan-dus-Guararapis,jaboatangduseugualalapeseu,jaboraata'o dosa guraararapesa,re bo a tao,Жабоатан-дус-Гуарарапис,Жабоатао дос Гварарапес,Жабоатао дос Гуарарапис,Жабуатан-дус-Гуарарапіс,জাবোৱাটাও ডোস গুৱারারাপেস,ジャボアタン・ドス・グアララペス,熱博阿陶,자보아탕두스구아라라페스","latitude":"-8.11278","longitude":"-35.01472","feature_class":"P","feature_code":"PPLA2","country_code":"BR","cc2":"","admin1_code":"30","admin2_code":"2607901","admin3_code":"","admin4_code":"","population":"630008","elevation":"","dem":"48","timezone":"America/Recife","modification_date":"2012-03-10"},{"geonameid":"6317439","name":"Lago dos Rodrigues","asciiname":"Lago dos Rodrigues","alternatenames":"","latitude":"-4.61304","longitude":"-44.98009","feature_class":"P","feature_code":"PPLA2","country_code":"BR","cc2":"","admin1_code":"13","admin2_code":"2105948","admin3_code":"","admin4_code":"","population":"0","elevation":"","dem":"68","timezone":"America/Fortaleza","modification_date":"2014-09-23"},{"geonameid":"6317464","name":"Lauro de Freitas","asciiname":"Lauro de Freitas","alternatenames":"","latitude":"-12.89444","longitude":"-38.32722","feature_class":"P","feature_code":"PPL","country_code":"BR","cc2":"","admin1_code":"05","admin2_code":"2919207","admin3_code":"","admin4_code":"","population":"141280","elevation":"","dem":"10","timezone":"America/Bahia","modification_date":"2012-08-03"},{"geonameid":"6317903","name":"Paulo Ramos","asciiname":"Paulo Ramos","alternatenames":"","latitude":"-4.44389","longitude":"-45.24056","feature_class":"P","feature_code":"PPLA2","country_code":"BR","cc2":"","admin1_code":"13","admin2_code":"2108108","admin3_code":"","admin4_code":"","population":"0","elevation":"","dem":"64","timezone":"America/Fortaleza","modification_date":"2014-05-03"},{"geonameid":"6317953","name":"Pinhais","asciiname":"Pinhais","alternatenames":"","latitude":"-25.44472","longitude":"-49.1925","feature_class":"P","feature_code":"PPL","country_code":"BR","cc2":"","admin1_code":"18","admin2_code":"4119152","admin3_code":"","admin4_code":"","population":"117000","elevation":"","dem":"887","timezone":"America/Sao_Paulo","modification_date":"2012-08-03"},{"geonameid":"6318024","name":"Portelândia","asciiname":"Portelandia","alternatenames":"","latitude":"-17.35361","longitude":"-52.67861","feature_class":"P","feature_code":"PPL","country_code":"BR","cc2":"","admin1_code":"29","admin2_code":"5218102","admin3_code":"","admin4_code":"","population":"4120","elevation":"848","dem":"857","timezone":"America/Sao_Paulo","modification_date":"2013-08-24"},{"geonameid":"6318165","name":"Rio Preto da Eva","asciiname":"Rio Preto da Eva","alternatenames":"","latitude":"-2.69795","longitude":"-59.70172","feature_class":"P","feature_code":"PPL","country_code":"BR","cc2":"","admin1_code":"04","admin2_code":"1303569","admin3_code":"","admin4_code":"","population":"24283","elevation":"","dem":"39","timezone":"America/Manaus","modification_date":"2014-06-30"},{"geonameid":"6318694","name":"Simões Filho","asciiname":"Simoes Filho","alternatenames":"","latitude":"-12.78444","longitude":"-38.40389","feature_class":"P","feature_code":"PPL","country_code":"BR","cc2":"","admin1_code":"05","admin2_code":"2930709","admin3_code":"","admin4_code":"","population":"116662","elevation":"","dem":"33","timezone":"America/Bahia","modification_date":"2012-08-03"},{"geonameid":"6318696","name":"Sinop","asciiname":"Sinop","alternatenames":"OPS","latitude":"-11.86417","longitude":"-55.5025","feature_class":"P","feature_code":"PPL","country_code":"BR","cc2":"","admin1_code":"14","admin2_code":"5107909","admin3_code":"","admin4_code":"","population":"116013","elevation":"","dem":"378","timezone":"America/Cuiaba","modification_date":"2013-01-09"},{"geonameid":"6318755","name":"Teixeira de Freitas","asciiname":"Teixeira de Freitas","alternatenames":"TXF,Teixeira de Freitas","latitude":"-17.535","longitude":"-39.74194","feature_class":"P","feature_code":"PPLA2","country_code":"BR","cc2":"","admin1_code":"05","admin2_code":"2931350","admin3_code":"","admin4_code":"","population":"0","elevation":"","dem":"118","timezone":"America/Bahia","modification_date":"2015-06-07"},{"geonameid":"6318864","name":"Vargem Grande Paulista","asciiname":"Vargem Grande Paulista","alternatenames":"","latitude":"-23.60333","longitude":"-47.02639","feature_class":"P","feature_code":"PPLA2","country_code":"BR","cc2":"","admin1_code":"27","admin2_code":"3556453","admin3_code":"","admin4_code":"","population":"0","elevation":"","dem":"879","timezone":"America/Sao_Paulo","modification_date":"2012-03-10"},{"geonameid":"6693804","name":"Cambebba","asciiname":"Cambebba","alternatenames":"","latitude":"-3.62092","longitude":"-38.82913","feature_class":"P","feature_code":"PPLG","country_code":"BR","cc2":"","admin1_code":"06","admin2_code":"2303709","admin3_code":"","admin4_code":"","population":"0","elevation":"","dem":"41","timezone":"America/Fortaleza","modification_date":"2012-08-03"},{"geonameid":"7874475","name":"Itacorubi","asciiname":"Itacorubi","alternatenames":"","latitude":"-27.58315","longitude":"-48.49503","feature_class":"P","feature_code":"PPLL","country_code":"BR","cc2":"","admin1_code":"26","admin2_code":"4205407","admin3_code":"","admin4_code":"","population":"12000","elevation":"10","dem":"38","timezone":"America/Sao_Paulo","modification_date":"2012-08-03"},{"geonameid":"7874476","name":"Corrego Grande","asciiname":"Corrego Grande","alternatenames":"","latitude":"-27.60141","longitude":"-48.50593","feature_class":"P","feature_code":"PPLL","country_code":"BR","cc2":"","admin1_code":"26","admin2_code":"4205407","admin3_code":"","admin4_code":"","population":"5000","elevation":"10","dem":"18","timezone":"America/Sao_Paulo","modification_date":"2012-08-03"},{"geonameid":"7874477","name":"Santa Monica","asciiname":"Santa Monica","alternatenames":"","latitude":"-27.59137","longitude":"-48.50756","feature_class":"P","feature_code":"PPLL","country_code":"BR","cc2":"","admin1_code":"26","admin2_code":"4205407","admin3_code":"","admin4_code":"","population":"5100","elevation":"5","dem":"5","timezone":"America/Sao_Paulo","modification_date":"2012-08-03"},{"geonameid":"7874478","name":"Carvoeira","asciiname":"Carvoeira","alternatenames":"","latitude":"-27.59898","longitude":"-48.52618","feature_class":"P","feature_code":"PPLL","country_code":"BR","cc2":"","admin1_code":"26","admin2_code":"4205407","admin3_code":"","admin4_code":"","population":"3000","elevation":"100","dem":"30","timezone":"America/Sao_Paulo","modification_date":"2012-08-03"},{"geonameid":"7874479","name":"Trindade","asciiname":"Trindade","alternatenames":"","latitude":"-27.58612","longitude":"-48.52335","feature_class":"P","feature_code":"PPLL","country_code":"BR","cc2":"","admin1_code":"26","admin2_code":"4205407","admin3_code":"","admin4_code":"","population":"15100","elevation":"20","dem":"10","timezone":"America/Sao_Paulo","modification_date":"2012-08-03"},{"geonameid":"7874480","name":"Morro da Cruz","asciiname":"Morro da Cruz","alternatenames":"","latitude":"-27.5849","longitude":"-48.53562","feature_class":"P","feature_code":"PPLL","country_code":"BR","cc2":"","admin1_code":"26","admin2_code":"4205407","admin3_code":"","admin4_code":"","population":"5000","elevation":"300","dem":"156","timezone":"America/Sao_Paulo","modification_date":"2012-08-03"},{"geonameid":"7874481","name":"Saco dos Limoes","asciiname":"Saco dos Limoes","alternatenames":"","latitude":"-27.60864","longitude":"-48.53605","feature_class":"P","feature_code":"PPLL","country_code":"BR","cc2":"","admin1_code":"26","admin2_code":"4205407","admin3_code":"","admin4_code":"","population":"14000","elevation":"20","dem":"7","timezone":"America/Sao_Paulo","modification_date":"2012-08-03"},{"geonameid":"7874482","name":"Pantanal","asciiname":"Pantanal","alternatenames":"","latitude":"-27.60985","longitude":"-48.51648","feature_class":"P","feature_code":"PPLL","country_code":"BR","cc2":"","admin1_code":"26","admin2_code":"4205407","admin3_code":"","admin4_code":"","population":"4700","elevation":"20","dem":"42","timezone":"America/Sao_Paulo","modification_date":"2012-08-03"},{"geonameid":"7874483","name":"Costeira do Pirajubae","asciiname":"Costeira do Pirajubae","alternatenames":"","latitude":"-27.63586","longitude":"-48.5212","feature_class":"P","feature_code":"PPLL","country_code":"BR","cc2":"","admin1_code":"26","admin2_code":"4205407","admin3_code":"","admin4_code":"","population":"9300","elevation":"10","dem":"40","timezone":"America/Sao_Paulo","modification_date":"2012-08-03"},{"geonameid":"7874484","name":"Carianos","asciiname":"Carianos","alternatenames":"","latitude":"-27.66088","longitude":"-48.54318","feature_class":"P","feature_code":"PPLL","country_code":"BR","cc2":"","admin1_code":"26","admin2_code":"4205407","admin3_code":"","admin4_code":"","population":"3700","elevation":"2","dem":"5","timezone":"America/Sao_Paulo","modification_date":"2012-08-03"},{"geonameid":"7874485","name":"Tapera","asciiname":"Tapera","alternatenames":"","latitude":"-27.68528","longitude":"-48.55124","feature_class":"P","feature_code":"PPLL","country_code":"BR","cc2":"","admin1_code":"26","admin2_code":"4205407","admin3_code":"","admin4_code":"","population":"1500","elevation":"2","dem":"4","timezone":"America/Sao_Paulo","modification_date":"2012-08-03"},{"geonameid":"7874492","name":"Freguesia do Ribeirao da Ilha","asciiname":"Freguesia do Ribeirao da Ilha","alternatenames":"","latitude":"-27.71773","longitude":"-48.56266","feature_class":"P","feature_code":"PPLL","country_code":"BR","cc2":"","admin1_code":"26","admin2_code":"4205407","admin3_code":"","admin4_code":"","population":"21000","elevation":"3","dem":"13","timezone":"America/Sao_Paulo","modification_date":"2012-08-03"},{"geonameid":"8617600","name":"Atins","asciiname":"Atins","alternatenames":"","latitude":"-2.57017","longitude":"-42.74229","feature_class":"P","feature_code":"PPL","country_code":"BR","cc2":"","admin1_code":"13","admin2_code":"2101707","admin3_code":"","admin4_code":"","population":"2000","elevation":"","dem":"3","timezone":"America/Belem","modification_date":"2013-09-30"},{"geonameid":"8739860","name":"Gavea","asciiname":"Gavea","alternatenames":"","latitude":"-26.90967","longitude":"-49.36547","feature_class":"P","feature_code":"PPL","country_code":"BR","cc2":"","admin1_code":"26","admin2_code":"4215109","admin3_code":"","admin4_code":"","population":"10000","elevation":"88","dem":"96","timezone":"America/Sao_Paulo","modification_date":"2014-03-16"},{"geonameid":"9257573","name":"Beira Rio","asciiname":"Beira Rio","alternatenames":"","latitude":"-12.25438","longitude":"-42.75529","feature_class":"P","feature_code":"PPL","country_code":"BR","cc2":"","admin1_code":"05","admin2_code":"2923209","admin3_code":"","admin4_code":"","population":"3500","elevation":"","dem":"443","timezone":"America/Bahia","modification_date":"2014-08-01"},{"geonameid":"9848171","name":"Butia Inferior","asciiname":"Butia Inferior","alternatenames":"","latitude":"-28.07115","longitude":"-54.88533","feature_class":"P","feature_code":"PPLA3","country_code":"BR","cc2":"","admin1_code":"23","admin2_code":"4319372","admin3_code":"","admin4_code":"","population":"0","elevation":"","dem":"192","timezone":"America/Sao_Paulo","modification_date":"2014-11-14"},{"geonameid":"9881694","name":"Nova Olina do Marnhao","asciiname":"Nova Olina do Marnhao","alternatenames":"","latitude":"-2.84206","longitude":"-45.69789","feature_class":"P","feature_code":"PPLA3","country_code":"BR","cc2":"","admin1_code":"13","admin2_code":"2107357","admin3_code":"","admin4_code":"","population":"0","elevation":"","dem":"24","timezone":"America/Fortaleza","modification_date":"2014-12-12"},{"geonameid":"3571224","name":"West End","asciiname":"West End","alternatenames":"WTD,West End,West End Settlement","latitude":"26.68711","longitude":"-78.97702","feature_class":"P","feature_code":"PPLA","country_code":"BS","cc2":"","admin1_code":"54","admin2_code":"","admin3_code":"","admin4_code":"","population":"12724","elevation":"","dem":"5","timezone":"America/Nassau","modification_date":"2014-09-21"},{"geonameid":"3571375","name":"Spanish Wells","asciiname":"Spanish Wells","alternatenames":"SWL,Spanish Wells,Spanish Wells Settlement","latitude":"25.54717","longitude":"-76.76405","feature_class":"P","feature_code":"PPLA","country_code":"BS","cc2":"","admin1_code":"53","admin2_code":"","admin3_code":"","admin4_code":"","population":"1500","elevation":"","dem":"9","timezone":"America/Nassau","modification_date":"2014-01-19"},{"geonameid":"3571523","name":"San Andros","asciiname":"San Andros","alternatenames":"SAQ,San Andros,San Andros Bahama Village","latitude":"25.06667","longitude":"-78.05","feature_class":"P","feature_code":"PPLA","country_code":"BS","cc2":"","admin1_code":"47","admin2_code":"","admin3_code":"","admin4_code":"","population":"7800","elevation":"","dem":"15","timezone":"America/Nassau","modification_date":"2013-08-08"},{"geonameid":"3571650","name":"Port Nelson","asciiname":"Port Nelson","alternatenames":"Port Nelson,RCY","latitude":"23.64967","longitude":"-74.84157","feature_class":"P","feature_code":"PPLA","country_code":"BS","cc2":"","admin1_code":"49","admin2_code":"","admin3_code":"","admin4_code":"","population":"91","elevation":"","dem":"4","timezone":"America/Nassau","modification_date":"2014-01-18"},{"geonameid":"3571824","name":"Nassau","asciiname":"Nassau","alternatenames":"City of Nassau,Gorad Nasau,NAS,Nasau,Nasauo,Nasaŭo,Naso,Nassaou,Nassau,Nassau City,Nassau pa Bahamas,Nassau på Bahamas,Nasáu,na sao,nasa'u,nasau,nasaw,nasayw,nasea,naso,nasso,neco,nsaw,Νασσάου,Горад Насау,Насау,Нассау,Նասաու,נסאו,ناسائو,ناساو,نساؤ,नासाउ,নাসাউ,ਨਸਾਊ,நேசோ,നാസോ,แนสซอ,ན་སའོ།,ნასაუ,ናሶ,ナッソー,拿騷,拿骚,나소","latitude":"25.05823","longitude":"-77.34306","feature_class":"P","feature_code":"PPLC","country_code":"BS","cc2":"","admin1_code":"23","admin2_code":"","admin3_code":"","admin4_code":"","population":"227940","elevation":"","dem":"5","timezone":"America/Nassau","modification_date":"2010-05-30"},{"geonameid":"3571898","name":"Matthew Town","asciiname":"Matthew Town","alternatenames":"IGA,Mathew Town,Matthew Town","latitude":"20.94982","longitude":"-73.67346","feature_class":"P","feature_code":"PPLA","country_code":"BS","cc2":"","admin1_code":"13","admin2_code":"","admin3_code":"","admin4_code":"","population":"452","elevation":"","dem":"11","timezone":"America/Nassau","modification_date":"2014-01-18"},{"geonameid":"3571908","name":"Masons Bay","asciiname":"Masons Bay","alternatenames":"","latitude":"22.54352","longitude":"-73.8778","feature_class":"P","feature_code":"PPLA","country_code":"BS","cc2":"","admin1_code":"24","admin2_code":"","admin3_code":"","admin4_code":"","population":"0","elevation":"","dem":"6","timezone":"America/Nassau","modification_date":"2013-07-11"},{"geonameid":"3571913","name":"Marsh Harbour","asciiname":"Marsh Harbour","alternatenames":"MHH,Marsh Harbour","latitude":"26.54124","longitude":"-77.0636","feature_class":"P","feature_code":"PPLA","country_code":"BS","cc2":"","admin1_code":"37","admin2_code":"","admin3_code":"","admin4_code":"","population":"5314","elevation":"","dem":"4","timezone":"America/Nassau","modification_date":"2014-01-18"},{"geonameid":"3571971","name":"Lucaya","asciiname":"Lucaya","alternatenames":"Lucaya","latitude":"26.53333","longitude":"-78.66667","feature_class":"P","feature_code":"PPL","country_code":"BS","cc2":"","admin1_code":"25","admin2_code":"","admin3_code":"","admin4_code":"","population":"46525","elevation":"","dem":"7","timezone":"America/Nassau","modification_date":"2012-01-18"},{"geonameid":"3572189","name":"High Rock","asciiname":"High Rock","alternatenames":"High Rock,High Rock Village,High Rocks","latitude":"26.60999","longitude":"-78.27863","feature_class":"P","feature_code":"PPLA","country_code":"BS","cc2":"","admin1_code":"41","admin2_code":"","admin3_code":"","admin4_code":"","population":"3744","elevation":"","dem":"-9999","timezone":"America/Nassau","modification_date":"2013-05-05"},{"geonameid":"3572233","name":"Hard Bargain","asciiname":"Hard Bargain","alternatenames":"Hard Bargain,Hard Bargin","latitude":"26.31667","longitude":"-77.56667","feature_class":"P","feature_code":"PPLA","country_code":"BS","cc2":"","admin1_code":"45","admin2_code":"","admin3_code":"","admin4_code":"","population":"0","elevation":"","dem":"7","timezone":"America/Nassau","modification_date":"2012-02-12"},{"geonameid":"3572313","name":"Governor’s Harbour","asciiname":"Governor's Harbour","alternatenames":"Governor Harbor,Governor Harbour,Governor's Harbour,Governors Harbor,Governor’s Harbour","latitude":"25.16667","longitude":"-76.23333","feature_class":"P","feature_code":"PPLA","country_code":"BS","cc2":"","admin1_code":"39","admin2_code":"","admin3_code":"","admin4_code":"","population":"0","elevation":"","dem":"-9999","timezone":"America/Nassau","modification_date":"2013-07-07"},{"geonameid":"3572349","name":"George Town","asciiname":"George Town","alternatenames":"GGT,George Town","latitude":"23.51616","longitude":"-75.78665","feature_class":"P","feature_code":"PPLA","country_code":"BS","cc2":"","admin1_code":"10","admin2_code":"","admin3_code":"","admin4_code":"","population":"7314","elevation":"","dem":"15","timezone":"America/Nassau","modification_date":"2013-08-02"},{"geonameid":"3572375","name":"Freeport","asciiname":"Freeport","alternatenames":"FPO,Freeport,Freeport City,Friport,Фрипорт","latitude":"26.53333","longitude":"-78.7","feature_class":"P","feature_code":"PPLA","country_code":"BS","cc2":"BS","admin1_code":"25","admin2_code":"","admin3_code":"","admin4_code":"","population":"26910","elevation":"","dem":"6","timezone":"America/Nassau","modification_date":"2014-10-15"},{"geonameid":"3572462","name":"Dunmore Town","asciiname":"Dunmore Town","alternatenames":"Dunmore Town,Harbour Island","latitude":"25.50216","longitude":"-76.63633","feature_class":"P","feature_code":"PPL","country_code":"BS","cc2":"","admin1_code":"22","admin2_code":"","admin3_code":"","admin4_code":"","population":"1523","elevation":"","dem":"18","timezone":"America/Nassau","modification_date":"2014-01-19"},{"geonameid":"3572467","name":"Duncan Town","asciiname":"Duncan Town","alternatenames":"DCT,Duncan Town","latitude":"22.19083","longitude":"-75.72583","feature_class":"P","feature_code":"PPLA","country_code":"BS","cc2":"","admin1_code":"18","admin2_code":"","admin3_code":"","admin4_code":"","population":"70","elevation":"","dem":"27","timezone":"America/Nassau","modification_date":"2013-05-05"},{"geonameid":"3572601","name":"Cooper’s Town","asciiname":"Cooper's Town","alternatenames":"","latitude":"26.86667","longitude":"-77.51667","feature_class":"P","feature_code":"PPL","country_code":"BS","cc2":"","admin1_code":"46","admin2_code":"","admin3_code":"","admin4_code":"","population":"8413","elevation":"","dem":"-9999","timezone":"America/Nassau","modification_date":"2011-11-05"},{"geonameid":"3572620","name":"Colonel Hill","asciiname":"Colonel Hill","alternatenames":"CRI,Colonel Hill","latitude":"22.7545","longitude":"-74.20415","feature_class":"P","feature_code":"PPLA","country_code":"BS","cc2":"","admin1_code":"40","admin2_code":"","admin3_code":"","admin4_code":"","population":"240","elevation":"","dem":"5","timezone":"America/Nassau","modification_date":"2013-05-08"},{"geonameid":"3572627","name":"Cockburn Town","asciiname":"Cockburn Town","alternatenames":"Cockburn Town,Riding Rocks","latitude":"24.05179","longitude":"-74.53138","feature_class":"P","feature_code":"PPLA","country_code":"BS","cc2":"","admin1_code":"35","admin2_code":"","admin3_code":"","admin4_code":"","population":"831","elevation":"","dem":"10","timezone":"America/Nassau","modification_date":"2015-03-01"},{"geonameid":"3572640","name":"Clarence Town","asciiname":"Clarence Town","alternatenames":"Clarence,Clarence Town","latitude":"23.1","longitude":"-74.98333","feature_class":"P","feature_code":"PPLA","country_code":"BS","cc2":"","admin1_code":"15","admin2_code":"","admin3_code":"","admin4_code":"","population":"1752","elevation":"","dem":"20","timezone":"America/Nassau","modification_date":"2012-02-19"},{"geonameid":"3572796","name":"Black Point","asciiname":"Black Point","alternatenames":"","latitude":"24.1","longitude":"-76.38333","feature_class":"P","feature_code":"PPLA","country_code":"BS","cc2":"","admin1_code":"36","admin2_code":"","admin3_code":"","admin4_code":"","population":"0","elevation":"","dem":"-9999","timezone":"America/Nassau","modification_date":"2013-08-08"},{"geonameid":"3572897","name":"Arthur’s Town","asciiname":"Arthur's Town","alternatenames":"ATC,Arthur Town,Arthur's Town,Arthur’s Town","latitude":"24.6224","longitude":"-75.67151","feature_class":"P","feature_code":"PPLA","country_code":"BS","cc2":"","admin1_code":"06","admin2_code":"","admin3_code":"","admin4_code":"","population":"1175","elevation":"","dem":"5","timezone":"America/Nassau","modification_date":"2013-08-08"},{"geonameid":"3572906","name":"Andros Town","asciiname":"Andros Town","alternatenames":"ASD,Andros Town,Fresh Creek","latitude":"24.7","longitude":"-77.76667","feature_class":"P","feature_code":"PPL","country_code":"BS","cc2":"","admin1_code":"47","admin2_code":"","admin3_code":"","admin4_code":"","population":"2455","elevation":"","dem":"13","timezone":"America/Nassau","modification_date":"2012-01-18"},{"geonameid":"3572924","name":"Alice Town","asciiname":"Alice Town","alternatenames":"Alice Town","latitude":"25.728","longitude":"-79.29721","feature_class":"P","feature_code":"PPLA","country_code":"BS","cc2":"","admin1_code":"05","admin2_code":"","admin3_code":"","admin4_code":"","population":"949","elevation":"","dem":"1","timezone":"America/Nassau","modification_date":"2015-08-11"},{"geonameid":"3572940","name":"Abraham’s Bay","asciiname":"Abraham's Bay","alternatenames":"Abraham Bay,Abraham's Bay,Abraham’s Bay,The Charlton","latitude":"22.36667","longitude":"-72.96667","feature_class":"P","feature_code":"PPLA","country_code":"BS","cc2":"","admin1_code":"16","admin2_code":"","admin3_code":"","admin4_code":"","population":"235","elevation":"","dem":"7","timezone":"America/Nassau","modification_date":"2013-08-08"},{"geonameid":"1252395","name":"Wangdue Phodrang","asciiname":"Wangdue Phodrang","alternatenames":"Du Phodrang,Wangdiphodrang,Wangdu Phodrang,Wangdue Phodrang,Wangdü Phodrang","latitude":"27.48615","longitude":"89.89915","feature_class":"P","feature_code":"PPLA","country_code":"BT","cc2":"","admin1_code":"22","admin2_code":"","admin3_code":"","admin4_code":"","population":"7507","elevation":"","dem":"1273","timezone":"Asia/Thimphu","modification_date":"2013-08-02"},{"geonameid":"1252408","name":"Trongsa","asciiname":"Trongsa","alternatenames":"Tongsa,Tongsa Dzong,Trongsa,Тонгса","latitude":"27.5026","longitude":"90.50716","feature_class":"P","feature_code":"PPLA","country_code":"BT","cc2":"","admin1_code":"21","admin2_code":"","admin3_code":"","admin4_code":"","population":"2805","elevation":"","dem":"2108","timezone":"Asia/Thimphu","modification_date":"2012-02-01"},{"geonameid":"1252416","name":"Thimphu","asciiname":"Thimphu","alternatenames":"Gorad Tkhimpkhu,Tempu,Thimbu,Thimfou,Thimpago,Thimphou,Thimphu,Thimpu,Timbu,Timbuo,Timfou,Timfu,Timfú,Timphu,Timpou (therine) Pounaka (cheimerine),Timpu,Timpû,Tkhimpkhu,Tėmpu,thim phu,thimphu,thimpu,thiphu,thymphw,timbu,timphu,timpu,ting bu,tinpu,tymfw,tymfww,tympw,Θίμφου,Τιμπού (θερινή) Πουνάκα (χειμερινή),Горад Тхімпху,Тимбу,Тхимпху,Тхімпху,Թհիմփհու,טהימפהו,تىمپۇ,تيمفو,تھمپو,تیمفو,تیمفوو,تیمپو,ٹھمپھو,थिंफू,थिम्पु,थिम्पू,थिम्फू,থিম্ফু,ਥਿੰਫੂ,ଥିମ୍ପୁ,திம்பு,థింపూ,ಥಿಂಪು,തിംഫു,තිම්පු,ทิมพู,ཐིམ་ཕུ།,ཐིམ་ཕུུུུ,თიმფუ,ጢምጱ,ティンプー,廷布,팀부","latitude":"27.46609","longitude":"89.64191","feature_class":"P","feature_code":"PPLC","country_code":"BT","cc2":"BT","admin1_code":"20","admin2_code":"","admin3_code":"","admin4_code":"","population":"98676","elevation":"2320","dem":"2307","timezone":"Asia/Thimphu","modification_date":"2010-05-30"},{"geonameid":"1252422","name":"Trashi Yangtse","asciiname":"Trashi Yangtse","alternatenames":"Tashi Tang-tsi Dzong,Tashi Yang-tsi Dzong,Tashi Yangtse,Tashi Yāng-tsi Dzong,Tashigang,Tashigangtsi,Trashi Yangtse","latitude":"27.6116","longitude":"91.498","feature_class":"P","feature_code":"PPLA","country_code":"BT","cc2":"","admin1_code":"24","admin2_code":"","admin3_code":"","admin4_code":"","population":"3025","elevation":"","dem":"1788","timezone":"Asia/Thimphu","modification_date":"2012-02-01"},{"geonameid":"1252423","name":"Trashigang","asciiname":"Trashigang","alternatenames":"Benkar,Tashi Gang Dzong,Tashigang,Trashigang,YON","latitude":"27.3331","longitude":"91.55424","feature_class":"P","feature_code":"PPLA","country_code":"BT","cc2":"","admin1_code":"19","admin2_code":"","admin3_code":"","admin4_code":"","population":"872","elevation":"","dem":"1174","timezone":"Asia/Thimphu","modification_date":"2014-08-19"},{"geonameid":"1252433","name":"Daga","asciiname":"Daga","alternatenames":"Daga,Ta-Ga-Na,Taga Dzong","latitude":"27.07529","longitude":"89.87688","feature_class":"P","feature_code":"PPLA","country_code":"BT","cc2":"","admin1_code":"08","admin2_code":"","admin3_code":"","admin4_code":"","population":"2243","elevation":"","dem":"1558","timezone":"Asia/Thimphu","modification_date":"2012-02-01"},{"geonameid":"1252451","name":"Shemgang","asciiname":"Shemgang","alternatenames":"Shamgong Dzong,Shangong Dzong,Shemgang,Zhemgang,Шемганг","latitude":"27.21689","longitude":"90.65793","feature_class":"P","feature_code":"PPLA","country_code":"BT","cc2":"","admin1_code":"18","admin2_code":"","admin3_code":"","admin4_code":"","population":"852","elevation":"","dem":"1900","timezone":"Asia/Thimphu","modification_date":"2012-02-01"},{"geonameid":"1252460","name":"Sarpang","asciiname":"Sarpang","alternatenames":"Sarbhang,Sarbhāng,Sarpang","latitude":"26.86395","longitude":"90.26745","feature_class":"P","feature_code":"PPLA","country_code":"BT","cc2":"","admin1_code":"09","admin2_code":"","admin3_code":"","admin4_code":"","population":"10416","elevation":"","dem":"344","timezone":"Asia/Thimphu","modification_date":"2013-08-02"},{"geonameid":"1252479","name":"Punākha","asciiname":"Punakha","alternatenames":"Distrito de Punakha,Dzongkhag Punakha,Punaka,Punakha,Punakkha,Punakla,Punāka,Punākla,pu na ka,Пунакха,སྤུ་ན་ཁ་,普那卡","latitude":"27.59137","longitude":"89.87743","feature_class":"P","feature_code":"PPLA","country_code":"BT","cc2":"","admin1_code":"15","admin2_code":"","admin3_code":"","admin4_code":"","population":"21500","elevation":"","dem":"1293","timezone":"Asia/Thimphu","modification_date":"2013-08-11"},{"geonameid":"1252484","name":"Phuntsholing","asciiname":"Phuntsholing","alternatenames":"Gorad Pkhuncholing,Phuentsholing,Phuentsolingo,Phuentŝolingo,Phunchholing,Phuntsoling,Pkhuncholing,Puncolingas,Punčolingas,peng cuo lin,phuncholinga,puncholling,Горад Пхунчолінг,Пхунчолинг,Пхунчолінг,پھونتشولنگ,फुन्छोलिङ्ग,ཕུན་ཚོགས་གླིང་,彭措林,푼촐링","latitude":"26.85164","longitude":"89.38837","feature_class":"P","feature_code":"PPL","country_code":"BT","cc2":"","admin1_code":"06","admin2_code":"","admin3_code":"","admin4_code":"","population":"17043","elevation":"","dem":"330","timezone":"Asia/Thimphu","modification_date":"2010-03-31"},{"geonameid":"1252490","name":"Paro","asciiname":"Paro","alternatenames":"Gorad Paro,PBH,Paras,Paro,Paro Dzong,Rimpung Dzong,pa luo,palo,paro,paro-bhutana,Πάρο,Горад Паро,Паро,پارو، بھوٹان,पारो-भूटान,პარო,パロ,帕羅,파로","latitude":"27.4305","longitude":"89.41334","feature_class":"P","feature_code":"PPLA","country_code":"BT","cc2":"","admin1_code":"13","admin2_code":"","admin3_code":"","admin4_code":"","population":"2169","elevation":"","dem":"2266","timezone":"Asia/Thimphu","modification_date":"2014-08-18"},{"geonameid":"1252495","name":"Pajo","asciiname":"Pajo","alternatenames":"Pajo","latitude":"27.53333","longitude":"89.88333","feature_class":"P","feature_code":"PPL","country_code":"BT","cc2":"","admin1_code":"15","admin2_code":"","admin3_code":"","admin4_code":"","population":"3032","elevation":"","dem":"1438","timezone":"Asia/Thimphu","modification_date":"2012-10-18"},{"geonameid":"1252514","name":"Mongar","asciiname":"Mongar","alternatenames":"Mongar,Mongar Dzong,Монгар","latitude":"27.27471","longitude":"91.23963","feature_class":"P","feature_code":"PPLA","country_code":"BT","cc2":"","admin1_code":"12","admin2_code":"","admin3_code":"","admin4_code":"","population":"2969","elevation":"","dem":"1648","timezone":"Asia/Thimphu","modification_date":"2012-02-01"},{"geonameid":"1252526","name":"Lhuentse","asciiname":"Lhuentse","alternatenames":"Lenlung,Lhuentse,Lhuntshi,Lhuntsi Dzong,Lingshi Dzong","latitude":"27.66787","longitude":"91.18393","feature_class":"P","feature_code":"PPLA","country_code":"BT","cc2":"","admin1_code":"11","admin2_code":"","admin3_code":"","admin4_code":"","population":"100","elevation":"","dem":"1403","timezone":"Asia/Thimphu","modification_date":"2013-08-02"},{"geonameid":"1252563","name":"Ha","asciiname":"Ha","alternatenames":"Ha,Ha Dzong","latitude":"27.38747","longitude":"89.28074","feature_class":"P","feature_code":"PPLA","country_code":"BT","cc2":"","admin1_code":"10","admin2_code":"","admin3_code":"","admin4_code":"","population":"1449","elevation":"","dem":"2718","timezone":"Asia/Thimphu","modification_date":"2013-06-27"},{"geonameid":"1252578","name":"Gasa","asciiname":"Gasa","alternatenames":"Gasa,Gasa Dzong","latitude":"27.90372","longitude":"89.72689","feature_class":"P","feature_code":"PPLA","country_code":"BT","cc2":"","admin1_code":"23","admin2_code":"","admin3_code":"","admin4_code":"","population":"548","elevation":"","dem":"2761","timezone":"Asia/Thimphu","modification_date":"2013-08-26"},{"geonameid":"1252601","name":"Daphu","asciiname":"Daphu","alternatenames":"Daphu","latitude":"26.96667","longitude":"89.38333","feature_class":"P","feature_code":"PPL","country_code":"BT","cc2":"","admin1_code":"06","admin2_code":"","admin3_code":"","admin4_code":"","population":"1666","elevation":"","dem":"914","timezone":"Asia/Thimphu","modification_date":"2013-08-18"},{"geonameid":"1252608","name":"Tsirang","asciiname":"Tsirang","alternatenames":"Chirang,Tsirang","latitude":"27.0219","longitude":"90.12291","feature_class":"P","feature_code":"PPLA","country_code":"BT","cc2":"","admin1_code":"07","admin2_code":"","admin3_code":"","admin4_code":"","population":"18667","elevation":"","dem":"1410","timezone":"Asia/Thimphu","modification_date":"2013-08-02"},{"geonameid":"1252610","name":"Tsimasham","asciiname":"Tsimasham","alternatenames":"Chhukha,Chhukha Dzong,Chukha,Chukkha,Tsimasham,Чукха","latitude":"27.0989","longitude":"89.53604","feature_class":"P","feature_code":"PPLA","country_code":"BT","cc2":"","admin1_code":"06","admin2_code":"","admin3_code":"","admin4_code":"","population":"2855","elevation":"","dem":"2245","timezone":"Asia/Thimphu","modification_date":"2013-08-02"},{"geonameid":"1337301","name":"Jakar","asciiname":"Jakar","alternatenames":"BUT,Bjakar,Bya-kar,Dzakar,Dzakaras,Dzhakar,Džakaras,Jakar,Jakaro,Jokhar Dzong,jakr,Џакар,Джакар,جاکر","latitude":"27.54918","longitude":"90.7525","feature_class":"P","feature_code":"PPLA","country_code":"BT","cc2":"","admin1_code":"05","admin2_code":"","admin3_code":"","admin4_code":"","population":"4829","elevation":"","dem":"2587","timezone":"Asia/Thimphu","modification_date":"2014-08-20"},{"geonameid":"1337356","name":"Panbang","asciiname":"Panbang","alternatenames":"Panbang","latitude":"26.86667","longitude":"90.98333","feature_class":"P","feature_code":"PPL","country_code":"BT","cc2":"","admin1_code":"18","admin2_code":"","admin3_code":"","admin4_code":"","population":"1360","elevation":"","dem":"214","timezone":"Asia/Thimphu","modification_date":"2012-01-19"},{"geonameid":"1337360","name":"Samtse","asciiname":"Samtse","alternatenames":"Samchi,Samtse","latitude":"26.89903","longitude":"89.09951","feature_class":"P","feature_code":"PPLA","country_code":"BT","cc2":"","admin1_code":"16","admin2_code":"","admin3_code":"","admin4_code":"","population":"5479","elevation":"","dem":"417","timezone":"Asia/Thimphu","modification_date":"2013-08-02"},{"geonameid":"1337379","name":"Pemagatshel","asciiname":"Pemagatshel","alternatenames":"Pemagatsel,Pemagatshel","latitude":"27.03795","longitude":"91.40305","feature_class":"P","feature_code":"PPLA","country_code":"BT","cc2":"","admin1_code":"14","admin2_code":"","admin3_code":"","admin4_code":"","population":"13864","elevation":"","dem":"1207","timezone":"Asia/Thimphu","modification_date":"2013-08-08"},{"geonameid":"1337388","name":"Samdrup Jongkhar","asciiname":"Samdrup Jongkhar","alternatenames":"Samdrup Jongkhar","latitude":"26.80069","longitude":"91.50519","feature_class":"P","feature_code":"PPLA","country_code":"BT","cc2":"","admin1_code":"17","admin2_code":"","admin3_code":"","admin4_code":"","population":"7507","elevation":"","dem":"173","timezone":"Asia/Thimphu","modification_date":"2013-08-02"},{"geonameid":"10172752","name":"Lungtenzampa","asciiname":"Lungtenzampa","alternatenames":"","latitude":"27.46821","longitude":"89.64441","feature_class":"P","feature_code":"PPLA","country_code":"BT","cc2":"","admin1_code":"20","admin2_code":"","admin3_code":"","admin4_code":"","population":"0","elevation":"","dem":"2319","timezone":"Asia/Thimphu","modification_date":"2015-03-15"},{"geonameid":"932960","name":"Werda","asciiname":"Werda","alternatenames":"Werda","latitude":"-25.26667","longitude":"23.28333","feature_class":"P","feature_code":"PPL","country_code":"BW","cc2":"","admin1_code":"04","admin2_code":"","admin3_code":"","admin4_code":"","population":"2149","elevation":"","dem":"1034","timezone":"Africa/Gaborone","modification_date":"2013-06-06"},{"geonameid":"932987","name":"Tshabong","asciiname":"Tshabong","alternatenames":"Cabongas,Chabong,Gorad Chabong,TBY,Tsabong,Tsampon'nk,Tshabong,cha bang,chabong,tshabwng  bwtswana,tsu~abon,Čabongas,Τσαμπόνγκ,Горад Чабонг,Чабонг,טסאבונג,تشابونگ، بوتسوانا,ツァボン,察邦,차봉","latitude":"-26.05","longitude":"22.45","feature_class":"P","feature_code":"PPLA","country_code":"BW","cc2":"BW","admin1_code":"04","admin2_code":"","admin3_code":"","admin4_code":"","population":"6591","elevation":"","dem":"976","timezone":"Africa/Gaborone","modification_date":"2012-01-18"},{"geonameid":"932993","name":"Tsau","asciiname":"Tsau","alternatenames":"","latitude":"-20.15","longitude":"22.45","feature_class":"P","feature_code":"PPL","country_code":"BW","cc2":"","admin1_code":"00","admin2_code":"","admin3_code":"","admin4_code":"","population":"1409","elevation":"","dem":"945","timezone":"Africa/Gaborone","modification_date":"2006-01-27"},{"geonameid":"933000","name":"Tonota","asciiname":"Tonota","alternatenames":"Tonota,Tonoto","latitude":"-21.44236","longitude":"27.46153","feature_class":"P","feature_code":"PPL","country_code":"BW","cc2":"","admin1_code":"01","admin2_code":"","admin3_code":"","admin4_code":"","population":"17759","elevation":"","dem":"959","timezone":"Africa/Gaborone","modification_date":"2012-04-10"},{"geonameid":"933002","name":"Tobane","asciiname":"Tobane","alternatenames":"Tobane","latitude":"-21.95","longitude":"27.9","feature_class":"P","feature_code":"PPL","country_code":"BW","cc2":"","admin1_code":"01","admin2_code":"","admin3_code":"","admin4_code":"","population":"1925","elevation":"","dem":"844","timezone":"Africa/Gaborone","modification_date":"2012-01-18"},{"geonameid":"933018","name":"Thamaga","asciiname":"Thamaga","alternatenames":"Thamaga","latitude":"-24.67014","longitude":"25.53975","feature_class":"P","feature_code":"PPL","country_code":"BW","cc2":"","admin1_code":"06","admin2_code":"","admin3_code":"","admin4_code":"","population":"20756","elevation":"","dem":"1073","timezone":"Africa/Gaborone","modification_date":"2012-01-18"},{"geonameid":"933030","name":"Tamasane","asciiname":"Tamasane","alternatenames":"","latitude":"-22.4184","longitude":"27.40127","feature_class":"P","feature_code":"PPL","country_code":"BW","cc2":"","admin1_code":"01","admin2_code":"","admin3_code":"","admin4_code":"","population":"1070","elevation":"","dem":"946","timezone":"Africa/Gaborone","modification_date":"2011-02-08"},{"geonameid":"933040","name":"Sua","asciiname":"Sua","alternatenames":"","latitude":"-20.05","longitude":"26.2","feature_class":"P","feature_code":"PPL","country_code":"BW","cc2":"","admin1_code":"01","admin2_code":"","admin3_code":"","admin4_code":"","population":"3141","elevation":"","dem":"929","timezone":"Africa/Gaborone","modification_date":"2013-06-06"},{"geonameid":"933077","name":"Shakawe","asciiname":"Shakawe","alternatenames":"SWX,Shakawe","latitude":"-18.36536","longitude":"21.84219","feature_class":"P","feature_code":"PPL","country_code":"BW","cc2":"","admin1_code":"11","admin2_code":"","admin3_code":"","admin4_code":"","population":"5651","elevation":"","dem":"1000","timezone":"Africa/Gaborone","modification_date":"2013-06-10"},{"geonameid":"933088","name":"Serowe","asciiname":"Serowe","alternatenames":"Serooue,Serova,Serove,Serovė,Serowe,sai luo wei,selowe,serou~e,srwbh,srwwh  bwtswana,Σερόουε,Серова,Серове,סרובה,سرووه، بوتسوانا,セロウェ,塞罗韦,세로웨","latitude":"-22.38754","longitude":"26.71077","feature_class":"P","feature_code":"PPLA","country_code":"BW","cc2":"","admin1_code":"01","admin2_code":"","admin3_code":"","admin4_code":"","population":"47419","elevation":"","dem":"1147","timezone":"Africa/Gaborone","modification_date":"2012-04-10"},{"geonameid":"933099","name":"Selebi-Phikwe","asciiname":"Selebi-Phikwe","alternatenames":"PKW,Phikwe,Pikwe,Pikwe-Selibe,Selebi,Selebi Pikve,Selebi Pikvė,Selebi Pikwe,Selebi-Phikwe,Selebi-Pikwe,Selebi-Pkhikve,Selempi-Fikoue,Selibe,Selibe Phikwe,Selibe-Phikwe,Selibe-Pikwe Mine Lease Area,sai lai bi-pi kui,sellebipikwe,slyb fykwh  bwtswana,Σελέμπι-Φίκουε,Селеби-Пхикве,Селебі-Пхікве,سلیب فیکوه، بوتسوانا,سیلیبی-فیکوے,セレビ・ピクウェ,塞莱比-皮奎,셀레비피퀘","latitude":"-21.97895","longitude":"27.84296","feature_class":"P","feature_code":"PPL","country_code":"BW","cc2":"","admin1_code":"01","admin2_code":"","admin3_code":"","admin4_code":"","population":"53727","elevation":"","dem":"870","timezone":"Africa/Gaborone","modification_date":"2012-04-10"},{"geonameid":"933102","name":"Sekoma","asciiname":"Sekoma","alternatenames":"","latitude":"-24.4","longitude":"23.88333","feature_class":"P","feature_code":"PPL","country_code":"BW","cc2":"","admin1_code":"10","admin2_code":"","admin3_code":"","admin4_code":"","population":"1083","elevation":"","dem":"1096","timezone":"Africa/Gaborone","modification_date":"2011-07-10"},{"geonameid":"933109","name":"Sehithwa","asciiname":"Sehithwa","alternatenames":"Sehithwa,Sehithwe","latitude":"-20.46667","longitude":"22.71667","feature_class":"P","feature_code":"PPL","country_code":"BW","cc2":"","admin1_code":"00","admin2_code":"","admin3_code":"","admin4_code":"","population":"1614","elevation":"","dem":"931","timezone":"Africa/Gaborone","modification_date":"2012-01-18"},{"geonameid":"933112","name":"Sefophe","asciiname":"Sefophe","alternatenames":"Sefophe","latitude":"-22.18333","longitude":"27.96667","feature_class":"P","feature_code":"PPL","country_code":"BW","cc2":"","admin1_code":"01","admin2_code":"","admin3_code":"","admin4_code":"","population":"4114","elevation":"","dem":"848","timezone":"Africa/Gaborone","modification_date":"2013-04-04"},{"geonameid":"933117","name":"Sebina","asciiname":"Sebina","alternatenames":"","latitude":"-20.86667","longitude":"27.25","feature_class":"P","feature_code":"PPL","country_code":"BW","cc2":"","admin1_code":"08","admin2_code":"","admin3_code":"","admin4_code":"","population":"3030","elevation":"","dem":"1071","timezone":"Africa/Gaborone","modification_date":"2013-06-06"},{"geonameid":"933137","name":"Ratholo","asciiname":"Ratholo","alternatenames":"Ratholo,Ratolo","latitude":"-22.72454","longitude":"27.57199","feature_class":"P","feature_code":"PPL","country_code":"BW","cc2":"","admin1_code":"01","admin2_code":"","admin3_code":"","admin4_code":"","population":"2377","elevation":"","dem":"924","timezone":"Africa/Gaborone","modification_date":"2012-01-18"},{"geonameid":"933141","name":"Ramotswa","asciiname":"Ramotswa","alternatenames":"Ramotswa,Ramoutsa","latitude":"-24.87158","longitude":"25.86989","feature_class":"P","feature_code":"PPLA","country_code":"BW","cc2":"","admin1_code":"09","admin2_code":"","admin3_code":"","admin4_code":"","population":"21450","elevation":"","dem":"1039","timezone":"Africa/Gaborone","modification_date":"2014-04-06"},{"geonameid":"933148","name":"Ramokgonami","asciiname":"Ramokgonami","alternatenames":"Ramakonami,Ramokgonami","latitude":"-22.8645","longitude":"27.42391","feature_class":"P","feature_code":"PPL","country_code":"BW","cc2":"","admin1_code":"01","admin2_code":"","admin3_code":"","admin4_code":"","population":"3681","elevation":"","dem":"915","timezone":"Africa/Gaborone","modification_date":"2012-01-18"},{"geonameid":"933151","name":"Rakops","asciiname":"Rakops","alternatenames":"Bakops,Rakops,Tsienyane","latitude":"-21.02257","longitude":"24.36052","feature_class":"P","feature_code":"PPL","country_code":"BW","cc2":"","admin1_code":"01","admin2_code":"","admin3_code":"","admin4_code":"","population":"5222","elevation":"","dem":"918","timezone":"Africa/Gaborone","modification_date":"2013-08-06"},{"geonameid":"933162","name":"Pilikwe","asciiname":"Pilikwe","alternatenames":"","latitude":"-22.79904","longitude":"27.19376","feature_class":"P","feature_code":"PPL","country_code":"BW","cc2":"","admin1_code":"01","admin2_code":"","admin3_code":"","admin4_code":"","population":"1375","elevation":"","dem":"981","timezone":"Africa/Gaborone","modification_date":"2011-07-10"},{"geonameid":"933164","name":"Pilane","asciiname":"Pilane","alternatenames":"Pilane","latitude":"-24.45","longitude":"26.13333","feature_class":"P","feature_code":"PPL","country_code":"BW","cc2":"","admin1_code":"00","admin2_code":"","admin3_code":"","admin4_code":"","population":"1277","elevation":"","dem":"957","timezone":"Africa/Gaborone","modification_date":"2012-02-02"},{"geonameid":"933178","name":"Pandamatenga","asciiname":"Pandamatenga","alternatenames":"","latitude":"-18.52779","longitude":"25.62698","feature_class":"P","feature_code":"PPL","country_code":"BW","cc2":"","admin1_code":"00","admin2_code":"","admin3_code":"","admin4_code":"","population":"1685","elevation":"","dem":"1072","timezone":"Africa/Gaborone","modification_date":"2011-10-28"},{"geonameid":"933182","name":"Palapye","asciiname":"Palapye","alternatenames":"Palap'e,Palapaye Road,Palape,Palapie,Palapye,Palapye Road,Palatswe,QPH,pa la pei,palapy  bwtswana,Παλάπιε,Палапье,Палапє,پالاپی، بوتسوانا,帕拉佩","latitude":"-22.54605","longitude":"27.12507","feature_class":"P","feature_code":"PPL","country_code":"BW","cc2":"","admin1_code":"01","admin2_code":"","admin3_code":"","admin4_code":"","population":"30650","elevation":"","dem":"926","timezone":"Africa/Gaborone","modification_date":"2012-01-18"},{"geonameid":"933184","name":"Otse","asciiname":"Otse","alternatenames":"Ootsi,Ootsi Siding,Otse","latitude":"-25.01667","longitude":"25.73333","feature_class":"P","feature_code":"PPL","country_code":"BW","cc2":"","admin1_code":"09","admin2_code":"","admin3_code":"","admin4_code":"","population":"6275","elevation":"","dem":"1361","timezone":"Africa/Gaborone","modification_date":"2012-01-18"},{"geonameid":"933186","name":"Orapa","asciiname":"Orapa","alternatenames":"ORP,Orapa,Орапа","latitude":"-21.3115","longitude":"25.37642","feature_class":"P","feature_code":"PPL","country_code":"BW","cc2":"","admin1_code":"01","admin2_code":"","admin3_code":"","admin4_code":"","population":"9189","elevation":"","dem":"965","timezone":"Africa/Gaborone","modification_date":"2013-08-06"},{"geonameid":"933211","name":"Nokaneng","asciiname":"Nokaneng","alternatenames":"Nokanen,Nokaneng,Nokaning","latitude":"-19.66667","longitude":"22.26667","feature_class":"P","feature_code":"PPL","country_code":"BW","cc2":"","admin1_code":"00","admin2_code":"","admin3_code":"","admin4_code":"","population":"1763","elevation":"","dem":"957","timezone":"Africa/Gaborone","modification_date":"2012-01-18"},{"geonameid":"933238","name":"Nata","asciiname":"Nata","alternatenames":"Nata","latitude":"-20.21667","longitude":"26.18333","feature_class":"P","feature_code":"PPL","country_code":"BW","cc2":"","admin1_code":"01","admin2_code":"","admin3_code":"","admin4_code":"","population":"4794","elevation":"","dem":"912","timezone":"Africa/Gaborone","modification_date":"2014-04-06"},{"geonameid":"933271","name":"Mosopa","asciiname":"Mosopa","alternatenames":"Moshupa,Mosopa","latitude":"-24.7718","longitude":"25.42156","feature_class":"P","feature_code":"PPL","country_code":"BW","cc2":"","admin1_code":"10","admin2_code":"","admin3_code":"","admin4_code":"","population":"19561","elevation":"","dem":"1136","timezone":"Africa/Gaborone","modification_date":"2012-01-18"},{"geonameid":"933277","name":"Mosetse","asciiname":"Mosetse","alternatenames":"","latitude":"-20.75","longitude":"26.65","feature_class":"P","feature_code":"PPL","country_code":"BW","cc2":"","admin1_code":"01","admin2_code":"","admin3_code":"","admin4_code":"","population":"1780","elevation":"","dem":"1034","timezone":"Africa/Gaborone","modification_date":"2013-08-06"},{"geonameid":"933288","name":"Mopipi","asciiname":"Mopipi","alternatenames":"Mopipi","latitude":"-21.18333","longitude":"24.88333","feature_class":"P","feature_code":"PPL","country_code":"BW","cc2":"","admin1_code":"01","admin2_code":"","admin3_code":"","admin4_code":"","population":"3301","elevation":"","dem":"906","timezone":"Africa/Gaborone","modification_date":"2013-06-06"},{"geonameid":"933290","name":"Mookane","asciiname":"Mookane","alternatenames":"Mookane","latitude":"-23.68805","longitude":"26.65948","feature_class":"P","feature_code":"PPL","country_code":"BW","cc2":"","admin1_code":"01","admin2_code":"","admin3_code":"","admin4_code":"","population":"2397","elevation":"","dem":"957","timezone":"Africa/Gaborone","modification_date":"2013-04-04"},{"geonameid":"933292","name":"Maunatlala","asciiname":"Maunatlala","alternatenames":"Maunatlala,Monnatlala","latitude":"-22.59701","longitude":"27.63006","feature_class":"P","feature_code":"PPL","country_code":"BW","cc2":"","admin1_code":"01","admin2_code":"","admin3_code":"","admin4_code":"","population":"3361","elevation":"","dem":"856","timezone":"Africa/Gaborone","modification_date":"2012-01-18"},{"geonameid":"933305","name":"Molepolole","asciiname":"Molepolole","alternatenames":"Molepolole,Molepololė,mo lai bo luo lai,mollepollolle,moreporore,mwlpwlwlh,mwlpwlwlh  bwtswana,Μολεπολόλε,Молепололе,מולפולולה,مولپولوله، بوتسوانا,モレポロレ,莫萊波洛萊,몰레폴롤레","latitude":"-24.40659","longitude":"25.49508","feature_class":"P","feature_code":"PPLA","country_code":"BW","cc2":"","admin1_code":"06","admin2_code":"","admin3_code":"","admin4_code":"","population":"63248","elevation":"","dem":"1146","timezone":"Africa/Gaborone","modification_date":"2012-01-18"},{"geonameid":"933313","name":"Makobeng","asciiname":"Makobeng","alternatenames":"Makobeng,Mokobeng","latitude":"-22.99637","longitude":"27.66766","feature_class":"P","feature_code":"PPL","country_code":"BW","cc2":"","admin1_code":"01","admin2_code":"","admin3_code":"","admin4_code":"","population":"1822","elevation":"","dem":"841","timezone":"Africa/Gaborone","modification_date":"2012-01-18"},{"geonameid":"933329","name":"Moijabana","asciiname":"Moijabana","alternatenames":"Moijabana,Moiyabana","latitude":"-22.43333","longitude":"26.41667","feature_class":"P","feature_code":"PPL","country_code":"BW","cc2":"","admin1_code":"01","admin2_code":"","admin3_code":"","admin4_code":"","population":"2768","elevation":"","dem":"1214","timezone":"Africa/Gaborone","modification_date":"2013-06-06"},{"geonameid":"933331","name":"Mogoditshane","asciiname":"Mogoditshane","alternatenames":"Mogoditsane,Mogoditshane","latitude":"-24.62694","longitude":"25.86556","feature_class":"P","feature_code":"PPL","country_code":"BW","cc2":"","admin1_code":"06","admin2_code":"","admin3_code":"","admin4_code":"","population":"43394","elevation":"","dem":"1026","timezone":"Africa/Gaborone","modification_date":"2012-01-18"},{"geonameid":"933332","name":"Mogapinyana","asciiname":"Mogapinyana","alternatenames":"","latitude":"-22.36667","longitude":"27.6","feature_class":"P","feature_code":"PPL","country_code":"BW","cc2":"","admin1_code":"00","admin2_code":"","admin3_code":"","admin4_code":"","population":"1515","elevation":"","dem":"915","timezone":"Africa/Gaborone","modification_date":"2006-01-17"},{"geonameid":"933333","name":"Mogapi","asciiname":"Mogapi","alternatenames":"Mogapi","latitude":"-22.32301","longitude":"27.83492","feature_class":"P","feature_code":"PPL","country_code":"BW","cc2":"","admin1_code":"01","admin2_code":"","admin3_code":"","admin4_code":"","population":"1917","elevation":"","dem":"921","timezone":"Africa/Gaborone","modification_date":"2013-04-04"},{"geonameid":"933340","name":"Mochudi","asciiname":"Mochudi","alternatenames":"Mochudi,Mochudi Village,Mocudis,Motsounti,Močudis,mo qiu di,mochudi,mwchwdy  bwtswana,Μοτσούντι,Мочуди,Мочуді,موچودی، بوتسوانا,モチュディ,莫丘迪,모추디","latitude":"-24.41667","longitude":"26.15","feature_class":"P","feature_code":"PPLA","country_code":"BW","cc2":"BW","admin1_code":"05","admin2_code":"","admin3_code":"","admin4_code":"","population":"36962","elevation":"","dem":"952","timezone":"Africa/Gaborone","modification_date":"2012-01-18"},{"geonameid":"933347","name":"Mmathubudukwane","asciiname":"Mmathubudukwane","alternatenames":"Mathobudukwane,Mathubudukwane,Mmathubudkwane,Mmathubudukwane","latitude":"-24.6","longitude":"26.43333","feature_class":"P","feature_code":"PPL","country_code":"BW","cc2":"","admin1_code":"05","admin2_code":"","admin3_code":"","admin4_code":"","population":"2221","elevation":"","dem":"930","timezone":"Africa/Gaborone","modification_date":"2013-06-06"},{"geonameid":"933366","name":"Maun","asciiname":"Maun","alternatenames":"Gorad Maun,MUB,Maoun,Maun,Maunas,ma weng,maun,mawn  bwtswana,Μαούν,Горад Маўн,Маун,מאון,ماون، بوتسوانا,マウン,馬翁,마운","latitude":"-19.98333","longitude":"23.41667","feature_class":"P","feature_code":"PPLA","country_code":"BW","cc2":"","admin1_code":"11","admin2_code":"","admin3_code":"","admin4_code":"","population":"49945","elevation":"","dem":"947","timezone":"Africa/Gaborone","modification_date":"2014-07-21"},{"geonameid":"933377","name":"Mathakola","asciiname":"Mathakola","alternatenames":"Mathakola,Matlakola","latitude":"-22.72125","longitude":"27.31057","feature_class":"P","feature_code":"PPL","country_code":"BW","cc2":"","admin1_code":"01","admin2_code":"","admin3_code":"","admin4_code":"","population":"1159","elevation":"","dem":"959","timezone":"Africa/Gaborone","modification_date":"2012-01-18"},{"geonameid":"933383","name":"Mathathane","asciiname":"Mathathane","alternatenames":"Mathathane","latitude":"-22.26875","longitude":"28.74946","feature_class":"P","feature_code":"PPL","country_code":"BW","cc2":"","admin1_code":"01","admin2_code":"","admin3_code":"","admin4_code":"","population":"1987","elevation":"","dem":"676","timezone":"Africa/Gaborone","modification_date":"2013-04-04"},{"geonameid":"933387","name":"Mathambgwane","asciiname":"Mathambgwane","alternatenames":"Matangwan,Matangwan Stad,Mathambgwane","latitude":"-20.99075","longitude":"27.33158","feature_class":"P","feature_code":"PPL","country_code":"BW","cc2":"","admin1_code":"01","admin2_code":"","admin3_code":"","admin4_code":"","population":"4675","elevation":"","dem":"1048","timezone":"Africa/Gaborone","modification_date":"2012-01-18"},{"geonameid":"933390","name":"Masunga","asciiname":"Masunga","alternatenames":"Masunga,Masungas","latitude":"-20.62455","longitude":"27.44875","feature_class":"P","feature_code":"PPLA2","country_code":"BW","cc2":"","admin1_code":"08","admin2_code":"","admin3_code":"","admin4_code":"","population":"3639","elevation":"","dem":"1199","timezone":"Africa/Gaborone","modification_date":"2014-04-14"},{"geonameid":"933416","name":"Manyana","asciiname":"Manyana","alternatenames":"Manyana,Manyane","latitude":"-23.4","longitude":"21.71667","feature_class":"P","feature_code":"PPL","country_code":"BW","cc2":"","admin1_code":"04","admin2_code":"","admin3_code":"","admin4_code":"","population":"3338","elevation":"","dem":"1191","timezone":"Africa/Gaborone","modification_date":"2013-06-06"},{"geonameid":"933437","name":"Makwata","asciiname":"Makwata","alternatenames":"","latitude":"-23.28333","longitude":"27.3","feature_class":"P","feature_code":"PPL","country_code":"BW","cc2":"","admin1_code":"01","admin2_code":"","admin3_code":"","admin4_code":"","population":"1660","elevation":"","dem":"888","timezone":"Africa/Gaborone","modification_date":"2011-06-06"},{"geonameid":"933446","name":"Makoba","asciiname":"Makoba","alternatenames":"","latitude":"-23.48333","longitude":"27.11667","feature_class":"P","feature_code":"PPL","country_code":"BW","cc2":"","admin1_code":"00","admin2_code":"","admin3_code":"","admin4_code":"","population":"1006","elevation":"","dem":"848","timezone":"Africa/Gaborone","modification_date":"2006-01-27"},{"geonameid":"933456","name":"Makaleng","asciiname":"Makaleng","alternatenames":"","latitude":"-20.9","longitude":"27.28333","feature_class":"P","feature_code":"PPL","country_code":"BW","cc2":"","admin1_code":"00","admin2_code":"","admin3_code":"","admin4_code":"","population":"1166","elevation":"","dem":"1064","timezone":"Africa/Gaborone","modification_date":"2006-01-17"},{"geonameid":"933471","name":"Mahalapye","asciiname":"Mahalapye","alternatenames":"Gorad Makhalape,Mahalapje,Mahalapjė,Mahalapye,Mahalatswe,Makhalap'e,ma ha la pei,mahalapyh  bwtswana,mahallapie,maharapie,Горад Махалапе,Махалапье,ماهالاپیه، بوتسوانا,マハラピエ,馬哈拉佩,마할라피에","latitude":"-23.10407","longitude":"26.81421","feature_class":"P","feature_code":"PPL","country_code":"BW","cc2":"","admin1_code":"01","admin2_code":"","admin3_code":"","admin4_code":"","population":"44471","elevation":"","dem":"1025","timezone":"Africa/Gaborone","modification_date":"2012-01-18"},{"geonameid":"933474","name":"Magothla","asciiname":"Magothla","alternatenames":"","latitude":"-23.56667","longitude":"27","feature_class":"P","feature_code":"PPL","country_code":"BW","cc2":"","admin1_code":"00","admin2_code":"","admin3_code":"","admin4_code":"","population":"1174","elevation":"","dem":"860","timezone":"Africa/Gaborone","modification_date":"2006-01-27"},{"geonameid":"933488","name":"Machaneng","asciiname":"Machaneng","alternatenames":"Machaneng,Machenen","latitude":"-23.18621","longitude":"27.48856","feature_class":"P","feature_code":"PPL","country_code":"BW","cc2":"","admin1_code":"01","admin2_code":"","admin3_code":"","admin4_code":"","population":"2139","elevation":"","dem":"844","timezone":"Africa/Gaborone","modification_date":"2012-01-18"},{"geonameid":"933491","name":"Mabuli","asciiname":"Mabuli","alternatenames":"","latitude":"-25.78333","longitude":"24.6","feature_class":"P","feature_code":"PPL","country_code":"BW","cc2":"","admin1_code":"00","admin2_code":"","admin3_code":"","admin4_code":"","population":"1665","elevation":"","dem":"1113","timezone":"Africa/Gaborone","modification_date":"2006-01-27"},{"geonameid":"933498","name":"Maapi","asciiname":"Maapi","alternatenames":"","latitude":"-22.75785","longitude":"27.35001","feature_class":"P","feature_code":"PPL","country_code":"BW","cc2":"","admin1_code":"01","admin2_code":"","admin3_code":"","admin4_code":"","population":"1275","elevation":"","dem":"938","timezone":"Africa/Gaborone","modification_date":"2011-06-06"},{"geonameid":"933510","name":"Lokwabe","asciiname":"Lokwabe","alternatenames":"","latitude":"-24.16667","longitude":"21.83333","feature_class":"P","feature_code":"PPL","country_code":"BW","cc2":"","admin1_code":"00","admin2_code":"","admin3_code":"","admin4_code":"","population":"1473","elevation":"","dem":"1120","timezone":"Africa/Gaborone","modification_date":"2006-01-27"},{"geonameid":"933521","name":"Lobatse","asciiname":"Lobatse","alternatenames":"LOQ,Lobace,Lobatse,Lobatsi,Lompatse,lobache,luo ba ce,lwbats  bwtswana,robatsu~e,Λομπάτσε,Лобаце,لوباتس، بوتسوانا,لوباٹسے,ロバツェ,洛巴策,로바체","latitude":"-25.22435","longitude":"25.67728","feature_class":"P","feature_code":"PPL","country_code":"BW","cc2":"","admin1_code":"09","admin2_code":"","admin3_code":"","admin4_code":"","population":"30883","elevation":"","dem":"1191","timezone":"Africa/Gaborone","modification_date":"2013-06-06"},{"geonameid":"933534","name":"Letlhakeng","asciiname":"Letlhakeng","alternatenames":"Letlaking,Letlhakeng","latitude":"-24.09442","longitude":"25.02977","feature_class":"P","feature_code":"PPL","country_code":"BW","cc2":"","admin1_code":"06","admin2_code":"","admin3_code":"","admin4_code":"","population":"6781","elevation":"","dem":"1075","timezone":"Africa/Gaborone","modification_date":"2013-06-06"},{"geonameid":"933535","name":"Letlhakane","asciiname":"Letlhakane","alternatenames":"Lethakane,Letlhakane,Letlhakawe","latitude":"-21.41494","longitude":"25.59263","feature_class":"P","feature_code":"PPL","country_code":"BW","cc2":"","admin1_code":"01","admin2_code":"","admin3_code":"","admin4_code":"","population":"18136","elevation":"","dem":"984","timezone":"Africa/Gaborone","modification_date":"2013-08-06"},{"geonameid":"933541","name":"Lenchwe Le Tau","asciiname":"Lenchwe Le Tau","alternatenames":"","latitude":"-24.38333","longitude":"25.85","feature_class":"P","feature_code":"PPL","country_code":"BW","cc2":"","admin1_code":"06","admin2_code":"","admin3_code":"","admin4_code":"","population":"4992","elevation":"","dem":"1107","timezone":"Africa/Gaborone","modification_date":"2013-06-06"},{"geonameid":"933548","name":"Lehututu","asciiname":"Lehututu","alternatenames":"Lehututu","latitude":"-23.96667","longitude":"21.86667","feature_class":"P","feature_code":"PPL","country_code":"BW","cc2":"","admin1_code":"00","admin2_code":"","admin3_code":"","admin4_code":"","population":"1942","elevation":"","dem":"1133","timezone":"Africa/Gaborone","modification_date":"2012-01-18"},{"geonameid":"933555","name":"Letsheng","asciiname":"Letsheng","alternatenames":"Lechen,Letsheng","latitude":"-22.66384","longitude":"27.2239","feature_class":"P","feature_code":"PPL","country_code":"BW","cc2":"","admin1_code":"01","admin2_code":"","admin3_code":"","admin4_code":"","population":"2696","elevation":"","dem":"977","timezone":"Africa/Gaborone","modification_date":"2012-01-18"},{"geonameid":"933573","name":"Kurametsi","asciiname":"Kurametsi","alternatenames":"Kudumatsi,Kurametse,Kurametsi","latitude":"-23.4","longitude":"27.06667","feature_class":"P","feature_code":"PPL","country_code":"BW","cc2":"","admin1_code":"00","admin2_code":"","admin3_code":"","admin4_code":"","population":"1397","elevation":"","dem":"879","timezone":"Africa/Gaborone","modification_date":"2012-01-18"},{"geonameid":"933596","name":"Kopong","asciiname":"Kopong","alternatenames":"Kopong,Kopong Villages","latitude":"-24.48333","longitude":"25.88333","feature_class":"P","feature_code":"PPL","country_code":"BW","cc2":"","admin1_code":"09","admin2_code":"","admin3_code":"","admin4_code":"","population":"6895","elevation":"","dem":"984","timezone":"Africa/Gaborone","modification_date":"2012-01-18"},{"geonameid":"933633","name":"Khudumelapye","asciiname":"Khudumelapye","alternatenames":"Khudumelapye,Kudumalapshwe","latitude":"-23.88333","longitude":"24.75","feature_class":"P","feature_code":"PPL","country_code":"BW","cc2":"","admin1_code":"06","admin2_code":"","admin3_code":"","admin4_code":"","population":"2035","elevation":"","dem":"1100","timezone":"Africa/Gaborone","modification_date":"2013-06-06"},{"geonameid":"933649","name":"Khakhea","asciiname":"Khakhea","alternatenames":"Kakia,Khakhea","latitude":"-24.68954","longitude":"23.49403","feature_class":"P","feature_code":"PPL","country_code":"BW","cc2":"","admin1_code":"10","admin2_code":"","admin3_code":"","admin4_code":"","population":"2133","elevation":"","dem":"1055","timezone":"Africa/Gaborone","modification_date":"2012-01-18"},{"geonameid":"933677","name":"Kasane","asciiname":"Kasane","alternatenames":"BBK,Kasane,ka sa nei,kasan  bwtswana,kasane,Касане,کاسان، بوتسوانا,カサネ,卡薩內,카사네","latitude":"-17.81667","longitude":"25.15","feature_class":"P","feature_code":"PPL","country_code":"BW","cc2":"","admin1_code":"11","admin2_code":"","admin3_code":"","admin4_code":"","population":"9250","elevation":"","dem":"994","timezone":"Africa/Gaborone","modification_date":"2012-01-18"},{"geonameid":"933685","name":"Kanye","asciiname":"Kanye","alternatenames":"Gorad Kane,Kan'e,Kane,Kanie,Kanje,Kanjė,Kanye,ka nei,kanie,kanyh  bwtswana,qnyh,Κάνιε,Горад Кане,Канье,Каньє,Кање,קניה,کانیه، بوتسوانا,カニエ,卡內,카니에","latitude":"-24.96675","longitude":"25.33273","feature_class":"P","feature_code":"PPLA","country_code":"BW","cc2":"","admin1_code":"10","admin2_code":"","admin3_code":"","admin4_code":"","population":"44716","elevation":"","dem":"1406","timezone":"Africa/Gaborone","modification_date":"2012-01-18"},{"geonameid":"933692","name":"Kang","asciiname":"Kang","alternatenames":"","latitude":"-23.67518","longitude":"22.78762","feature_class":"P","feature_code":"PPL","country_code":"BW","cc2":"","admin1_code":"04","admin2_code":"","admin3_code":"","admin4_code":"","population":"4229","elevation":"","dem":"1139","timezone":"Africa/Gaborone","modification_date":"2013-06-06"},{"geonameid":"933696","name":"Kalamare","asciiname":"Kalamare","alternatenames":"Kalamare","latitude":"-22.93369","longitude":"26.57032","feature_class":"P","feature_code":"PPL","country_code":"BW","cc2":"","admin1_code":"01","admin2_code":"","admin3_code":"","admin4_code":"","population":"2339","elevation":"","dem":"1182","timezone":"Africa/Gaborone","modification_date":"2013-04-04"},{"geonameid":"933719","name":"Janeng","asciiname":"Janeng","alternatenames":"","latitude":"-25.41667","longitude":"25.55","feature_class":"P","feature_code":"PPL","country_code":"BW","cc2":"","admin1_code":"09","admin2_code":"","admin3_code":"","admin4_code":"","population":"16853","elevation":"","dem":"1311","timezone":"Africa/Gaborone","modification_date":"2013-06-06"},{"geonameid":"933726","name":"Hukuntsi","asciiname":"Hukuntsi","alternatenames":"HUK,Hukuntsi","latitude":"-23.9988","longitude":"21.77962","feature_class":"P","feature_code":"PPL","country_code":"BW","cc2":"","admin1_code":"04","admin2_code":"","admin3_code":"","admin4_code":"","population":"4403","elevation":"","dem":"1141","timezone":"Africa/Gaborone","modification_date":"2013-06-09"},{"geonameid":"933734","name":"Gweta","asciiname":"Gweta","alternatenames":"Gweta","latitude":"-20.18333","longitude":"25.23333","feature_class":"P","feature_code":"PPL","country_code":"BW","cc2":"","admin1_code":"01","admin2_code":"","admin3_code":"","admin4_code":"","population":"4689","elevation":"","dem":"929","timezone":"Africa/Gaborone","modification_date":"2013-06-06"},{"geonameid":"933753","name":"Gobojango","asciiname":"Gobojango","alternatenames":"Gobojango,Gubujango,Kobajango,Kobojango","latitude":"-21.8327","longitude":"28.72882","feature_class":"P","feature_code":"PPL","country_code":"BW","cc2":"","admin1_code":"01","admin2_code":"","admin3_code":"","admin4_code":"","population":"1756","elevation":"","dem":"737","timezone":"Africa/Gaborone","modification_date":"2012-01-18"},{"geonameid":"933759","name":"Ghanzi","asciiname":"Ghanzi","alternatenames":"GNZ,Ghanzi,Khanzi","latitude":"-21.56667","longitude":"21.78333","feature_class":"P","feature_code":"PPLA","country_code":"BW","cc2":"BW","admin1_code":"03","admin2_code":"","admin3_code":"","admin4_code":"","population":"9934","elevation":"","dem":"1153","timezone":"Africa/Gaborone","modification_date":"2012-01-18"},{"geonameid":"933773","name":"Gaborone","asciiname":"Gaborone","alternatenames":"GBE,Gaberones,Gaberones Village,Gaberono,Gaboron,Gaboronas,Gaborone,Gaboròn,Gaboróne,Gorad Gabaroneh,IGaborone,Nkamporone,Qaborone,gabolone,gaborone,gaboroni,gabwrwn,gbrwn,gebaroni,goborni,haborone,jabwrwn,jia bai long li,jia bo long li,ka bo rone,kaparoni,Γκαμπορόνε,Габороне,Горад Габаронэ,Գաբորոնե,גאבאראן,גאבורון,جابورون,گابورون,گابۆرۆن,گبرون,गॅबारोनी,गोबोर्नी,ਗਾਬੋਰੋਨੀ,காபரோனி,กาโบโรเน,ག་བོ་རོ་ནི།,გაბორონე,ጋበሮኔ,ጋቦሮን,ハボローネ,嘉柏隆里,嘉波隆里,가보로네","latitude":"-24.65451","longitude":"25.90859","feature_class":"P","feature_code":"PPLC","country_code":"BW","cc2":"","admin1_code":"09","admin2_code":"","admin3_code":"","admin4_code":"","population":"208411","elevation":"","dem":"1011","timezone":"Africa/Gaborone","modification_date":"2010-05-30"},{"geonameid":"933777","name":"Gabane","asciiname":"Gabane","alternatenames":"Gabane,Khabane","latitude":"-24.66667","longitude":"25.78222","feature_class":"P","feature_code":"PPL","country_code":"BW","cc2":"","admin1_code":"06","admin2_code":"","admin3_code":"","admin4_code":"","population":"12884","elevation":"","dem":"1090","timezone":"Africa/Gaborone","modification_date":"2012-01-18"},{"geonameid":"933778","name":"Francistown","asciiname":"Francistown","alternatenames":"FRW,Francistown,Fransistaoun,Fransistaun,Frensistaun,Frensistaunas,Gorad Fransistaun,fransystwwn  bwtswana,fu lang xi si dui,furanshisutaun,peulaensiseutaun,Φράνσισταουν,Горад Франсістаўн,Франсистаун,פרנסיסטאון,فرانسس ٹاؤن,فرانسیستوون، بوتسوانا,แฟรนซิสทาวน์,フランシスタウン,弗朗西斯敦,프랜시스타운","latitude":"-21.16995","longitude":"27.50787","feature_class":"P","feature_code":"PPLA","country_code":"BW","cc2":"","admin1_code":"08","admin2_code":"","admin3_code":"","admin4_code":"","population":"89979","elevation":"","dem":"989","timezone":"Africa/Gaborone","modification_date":"2012-01-18"},{"geonameid":"933787","name":"Dutlwe","asciiname":"Dutlwe","alternatenames":"Dutlwe,Luzwe","latitude":"-23.98333","longitude":"23.9","feature_class":"P","feature_code":"PPL","country_code":"BW","cc2":"","admin1_code":"00","admin2_code":"","admin3_code":"","admin4_code":"","population":"1126","elevation":"","dem":"1109","timezone":"Africa/Gaborone","modification_date":"2012-01-18"},{"geonameid":"933790","name":"Dukwe","asciiname":"Dukwe","alternatenames":"Dukwe,Dukwe Quarantine Camp","latitude":"-20.58333","longitude":"26.41667","feature_class":"P","feature_code":"PPL","country_code":"BW","cc2":"","admin1_code":"08","admin2_code":"","admin3_code":"","admin4_code":"","population":"2037","elevation":"","dem":"961","timezone":"Africa/Gaborone","modification_date":"2013-08-06"},{"geonameid":"933815","name":"Dekar","asciiname":"Dekar","alternatenames":"Dekar","latitude":"-21.53333","longitude":"21.93333","feature_class":"P","feature_code":"PPL","country_code":"BW","cc2":"","admin1_code":"03","admin2_code":"","admin3_code":"","admin4_code":"","population":"1043","elevation":"","dem":"1139","timezone":"Africa/Gaborone","modification_date":"2014-10-29"},{"geonameid":"933862","name":"Botlhapatlou","asciiname":"Botlhapatlou","alternatenames":"Botlapatla,Botlhapatlou","latitude":"-24.02591","longitude":"25.48976","feature_class":"P","feature_code":"PPL","country_code":"BW","cc2":"","admin1_code":"06","admin2_code":"","admin3_code":"","admin4_code":"","population":"1013","elevation":"","dem":"1175","timezone":"Africa/Gaborone","modification_date":"2012-01-18"},{"geonameid":"933881","name":"Bokaa","asciiname":"Bokaa","alternatenames":"Bokaa","latitude":"-24.45","longitude":"26.01667","feature_class":"P","feature_code":"PPL","country_code":"BW","cc2":"","admin1_code":"05","admin2_code":"","admin3_code":"","admin4_code":"","population":"4131","elevation":"","dem":"962","timezone":"Africa/Gaborone","modification_date":"2013-06-06"},{"geonameid":"1106203","name":"Gaphatshwe","asciiname":"Gaphatshwe","alternatenames":"","latitude":"-24.57389","longitude":"25.83417","feature_class":"P","feature_code":"PPLL","country_code":"BW","cc2":"","admin1_code":"06","admin2_code":"","admin3_code":"","admin4_code":"","population":"1678","elevation":"","dem":"1010","timezone":"Africa/Gaborone","modification_date":"2006-01-27"},{"geonameid":"1106206","name":"Metsemotlhaba","asciiname":"Metsemotlhaba","alternatenames":"","latitude":"-24.55139","longitude":"25.80306","feature_class":"P","feature_code":"PPL","country_code":"BW","cc2":"","admin1_code":"06","admin2_code":"","admin3_code":"","admin4_code":"","population":"5544","elevation":"","dem":"996","timezone":"Africa/Gaborone","modification_date":"2006-01-27"},{"geonameid":"1106213","name":"Mmopone","asciiname":"Mmopone","alternatenames":"","latitude":"-24.56694","longitude":"25.87417","feature_class":"P","feature_code":"PPL","country_code":"BW","cc2":"","admin1_code":"06","admin2_code":"","admin3_code":"","admin4_code":"","population":"4927","elevation":"","dem":"1009","timezone":"Africa/Gaborone","modification_date":"2006-01-27"},{"geonameid":"1106215","name":"Nkoyaphiri","asciiname":"Nkoyaphiri","alternatenames":"","latitude":"-24.63222","longitude":"25.83139","feature_class":"P","feature_code":"PPLL","country_code":"BW","cc2":"","admin1_code":"06","admin2_code":"","admin3_code":"","admin4_code":"","population":"1578","elevation":"","dem":"1053","timezone":"Africa/Gaborone","modification_date":"2006-01-17"},{"geonameid":"556386","name":"Indura","asciiname":"Indura","alternatenames":"Indura,Індура,Индура","latitude":"53.4605","longitude":"23.8823","feature_class":"P","feature_code":"PPL","country_code":"BY","cc2":"","admin1_code":"03","admin2_code":"","admin3_code":"","admin4_code":"","population":"1500","elevation":"","dem":"142","timezone":"Europe/Minsk","modification_date":"2013-07-11"},{"geonameid":"611866","name":"Skidal’","asciiname":"Skidal'","alternatenames":"Skidal',Skidal’,Skidel',Skidel’,Скидель,Скідаль","latitude":"53.5904","longitude":"24.2478","feature_class":"P","feature_code":"PPL","country_code":"BY","cc2":"","admin1_code":"03","admin2_code":"","admin3_code":"","admin4_code":"","population":"10700","elevation":"","dem":"113","timezone":"Europe/Minsk","modification_date":"2012-02-01"},{"geonameid":"618723","name":"Znamenka","asciiname":"Znamenka","alternatenames":"Durichi,Durychy,Znamenka,Дуричи,Дурычы,Знаменка","latitude":"51.88168","longitude":"23.65545","feature_class":"P","feature_code":"PPL","country_code":"BY","cc2":"","admin1_code":"01","admin2_code":"","admin3_code":"","admin4_code":"","population":"1324","elevation":"","dem":"147","timezone":"Europe/Minsk","modification_date":"2016-01-13"},