{"nextFile":"cities.33.json","rows":[{"geonameid":"2842884","name":"Rüsselsheim","asciiname":"Ruesselsheim","alternatenames":"Gorad Rusel'sgajm,Riselsheima,Riselskhajm,Rjussel'sgajm-am-Majn,Rjussel'skhajm,Rjusselskhajm,Rouselschaim,Ruesselsheim,Ruesselsheim am Main,Russelsheim,Rüsselsheim,Rüsselsheim am Main,lu sai er si hai mu,rwslshaym,rwslshyym,rwslzhaym,ryusserusuhaimu,Ρουσελσχάιμ,Горад Русельсгайм,Риселсхајм,Рюсселсхайм,Рюссельсгайм-ам-Майн,Рюссельсхайм,רוסלסהיים,روسلزهایم,روسلسهايم,リュッセルスハイム,吕塞尔斯海姆","latitude":"49.98955","longitude":"8.42251","feature_class":"P","feature_code":"PPL","country_code":"DE","cc2":"","admin1_code":"05","admin2_code":"064","admin3_code":"06433","admin4_code":"06433012","population":"59730","elevation":"","dem":"89","timezone":"Europe/Berlin","modification_date":"2015-09-04"},{"geonameid":"2842928","name":"Rüscheid","asciiname":"Ruscheid","alternatenames":"Ruescheid,Rüscheid","latitude":"50.53333","longitude":"7.56667","feature_class":"P","feature_code":"PPLA4","country_code":"DE","cc2":"","admin1_code":"08","admin2_code":"00","admin3_code":"07138","admin4_code":"07138066","population":"786","elevation":"","dem":"374","timezone":"Europe/Berlin","modification_date":"2015-03-04"},{"geonameid":"2842930","name":"Ruschberg","asciiname":"Ruschberg","alternatenames":"","latitude":"49.61667","longitude":"7.28333","feature_class":"P","feature_code":"PPLA4","country_code":"DE","cc2":"","admin1_code":"08","admin2_code":"00","admin3_code":"07134","admin4_code":"07134075","population":"857","elevation":"","dem":"462","timezone":"Europe/Berlin","modification_date":"2011-04-25"},{"geonameid":"2842960","name":"Ruppichteroth","asciiname":"Ruppichteroth","alternatenames":"Rupikhterot,Ruppikhterot,lu pi xi te luo te,Рупихтерот,Руппихтерот,Руппіхтерот,鲁皮希特罗特","latitude":"50.84367","longitude":"7.48409","feature_class":"P","feature_code":"PPLA4","country_code":"DE","cc2":"","admin1_code":"07","admin2_code":"053","admin3_code":"05382","admin4_code":"05382052","population":"10749","elevation":"","dem":"169","timezone":"Europe/Berlin","modification_date":"2011-10-26"},{"geonameid":"2842964","name":"Ruppertsweiler","asciiname":"Ruppertsweiler","alternatenames":"","latitude":"49.19707","longitude":"7.68957","feature_class":"P","feature_code":"PPLA4","country_code":"DE","cc2":"","admin1_code":"08","admin2_code":"00","admin3_code":"07340","admin4_code":"07340040","population":"1449","elevation":"","dem":"294","timezone":"Europe/Berlin","modification_date":"2011-04-25"},{"geonameid":"2842972","name":"Ruppertshofen","asciiname":"Ruppertshofen","alternatenames":"","latitude":"50.20086","longitude":"7.80553","feature_class":"P","feature_code":"PPLA4","country_code":"DE","cc2":"","admin1_code":"08","admin2_code":"00","admin3_code":"07141","admin4_code":"07141120","population":"402","elevation":"","dem":"327","timezone":"Europe/Berlin","modification_date":"2011-12-29"},{"geonameid":"2842974","name":"Ruppertshofen","asciiname":"Ruppertshofen","alternatenames":"","latitude":"48.88275","longitude":"9.81506","feature_class":"P","feature_code":"PPLA4","country_code":"DE","cc2":"","admin1_code":"01","admin2_code":"081","admin3_code":"08136","admin4_code":"08136061","population":"1868","elevation":"","dem":"509","timezone":"Europe/Berlin","modification_date":"2011-04-25"},{"geonameid":"2842979","name":"Ruppertsecken","asciiname":"Ruppertsecken","alternatenames":"","latitude":"49.65","longitude":"7.88333","feature_class":"P","feature_code":"PPLA4","country_code":"DE","cc2":"","admin1_code":"08","admin2_code":"00","admin3_code":"07333","admin4_code":"07333065","population":"406","elevation":"","dem":"416","timezone":"Europe/Berlin","modification_date":"2011-04-25"},{"geonameid":"2842981","name":"Ruppertsberg","asciiname":"Ruppertsberg","alternatenames":"","latitude":"49.40028","longitude":"8.19611","feature_class":"P","feature_code":"PPLA4","country_code":"DE","cc2":"","admin1_code":"08","admin2_code":"00","admin3_code":"07332","admin4_code":"07332043","population":"1416","elevation":"","dem":"123","timezone":"Europe/Berlin","modification_date":"2011-04-25"},{"geonameid":"2843042","name":"Runkel","asciiname":"Runkel","alternatenames":"Runkel,Runkel',lun ke er,rwnkl,Рункел,Рункель,رونكل,رونکل,伦克尔","latitude":"50.40574","longitude":"8.15457","feature_class":"P","feature_code":"PPL","country_code":"DE","cc2":"","admin1_code":"05","admin2_code":"065","admin3_code":"06533","admin4_code":"06533013","population":"9872","elevation":"","dem":"126","timezone":"Europe/Berlin","modification_date":"2013-08-14"},{"geonameid":"2843054","name":"Runding","asciiname":"Runding","alternatenames":"Runding,Runting,lun ding,Рундинг,Рундінг,Ռունդինգ,伦丁","latitude":"49.21513","longitude":"12.76208","feature_class":"P","feature_code":"PPLA4","country_code":"DE","cc2":"","admin1_code":"02","admin2_code":"093","admin3_code":"09372","admin4_code":"09372155","population":"2336","elevation":"","dem":"478","timezone":"Europe/Berlin","modification_date":"2012-11-09"},{"geonameid":"2843094","name":"Rümpel","asciiname":"Rumpel","alternatenames":"Ruempel,Rumpel,Rümpel","latitude":"53.78333","longitude":"10.35","feature_class":"P","feature_code":"PPLA4","country_code":"DE","cc2":"","admin1_code":"10","admin2_code":"00","admin3_code":"01062","admin4_code":"01062065","population":"1289","elevation":"","dem":"18","timezone":"Europe/Berlin","modification_date":"2015-03-04"},{"geonameid":"2843097","name":"Rumohr","asciiname":"Rumohr","alternatenames":"Rumohr","latitude":"54.25","longitude":"10.03333","feature_class":"P","feature_code":"PPLA4","country_code":"DE","cc2":"","admin1_code":"10","admin2_code":"00","admin3_code":"01058","admin4_code":"01058139","population":"736","elevation":"","dem":"16","timezone":"Europe/Berlin","modification_date":"2011-04-25"},{"geonameid":"2843099","name":"Rümmingen","asciiname":"Rummingen","alternatenames":"Rimingen,Rjummingen,lu ming gen,Риминген,Рюмминген,Рюммінген,吕明根","latitude":"47.65","longitude":"7.65","feature_class":"P","feature_code":"PPLA4","country_code":"DE","cc2":"","admin1_code":"01","admin2_code":"083","admin3_code":"08336","admin4_code":"08336073","population":"1494","elevation":"","dem":"302","timezone":"Europe/Berlin","modification_date":"2011-04-25"},{"geonameid":"2843104","name":"Rümmelsheim","asciiname":"Rummelsheim","alternatenames":"Rimelskhajm,Rjummel'skhajm,lu mei er si hai mu,Римелсхајм,Рюммельсхайм,吕梅尔斯海姆","latitude":"49.93307","longitude":"7.85977","feature_class":"P","feature_code":"PPLA4","country_code":"DE","cc2":"","admin1_code":"08","admin2_code":"00","admin3_code":"07133","admin4_code":"07133087","population":"1435","elevation":"","dem":"186","timezone":"Europe/Berlin","modification_date":"2011-07-31"},{"geonameid":"2843106","name":"Rummelsburg","asciiname":"Rummelsburg","alternatenames":"Berlin-Rummelsburg","latitude":"52.50146","longitude":"13.4934","feature_class":"P","feature_code":"PPLX","country_code":"DE","cc2":"","admin1_code":"16","admin2_code":"00","admin3_code":"11000","admin4_code":"11000000","population":"20414","elevation":"","dem":"40","timezone":"Europe/Berlin","modification_date":"2012-06-09"},{"geonameid":"2843145","name":"Rumbach","asciiname":"Rumbach","alternatenames":"","latitude":"49.0966","longitude":"7.78765","feature_class":"P","feature_code":"PPLA4","country_code":"DE","cc2":"","admin1_code":"08","admin2_code":"00","admin3_code":"07340","admin4_code":"07340039","population":"521","elevation":"","dem":"223","timezone":"Europe/Berlin","modification_date":"2011-08-07"},{"geonameid":"2843146","name":"Rülzheim","asciiname":"Rulzheim","alternatenames":"Ruelzheim,Rülzheim","latitude":"49.16278","longitude":"8.28583","feature_class":"P","feature_code":"PPLA4","country_code":"DE","cc2":"","admin1_code":"08","admin2_code":"00","admin3_code":"07334","admin4_code":"07334025","population":"7917","elevation":"","dem":"127","timezone":"Europe/Berlin","modification_date":"2015-03-04"},{"geonameid":"2843148","name":"Rullstorf","asciiname":"Rullstorf","alternatenames":"","latitude":"53.28645","longitude":"10.52972","feature_class":"P","feature_code":"PPLA4","country_code":"DE","cc2":"","admin1_code":"06","admin2_code":"00","admin3_code":"03355","admin4_code":"03355032","population":"1819","elevation":"","dem":"22","timezone":"Europe/Berlin","modification_date":"2011-09-07"},{"geonameid":"2843177","name":"Ruhwinkel","asciiname":"Ruhwinkel","alternatenames":"Ruhwinkel,Rukhvinkel,Ruvinkel,Ruvinkel',lu wen ke er,Рувинкел,Рувинкель,Рухвинкел,鲁温克尔","latitude":"54.1","longitude":"10.21667","feature_class":"P","feature_code":"PPLA4","country_code":"DE","cc2":"","admin1_code":"10","admin2_code":"00","admin3_code":"01057","admin4_code":"01057069","population":"1069","elevation":"","dem":"36","timezone":"Europe/Berlin","modification_date":"2011-04-25"},{"geonameid":"2843185","name":"Ruhstorf","asciiname":"Ruhstorf","alternatenames":"","latitude":"48.53976","longitude":"12.68305","feature_class":"P","feature_code":"PPL","country_code":"DE","cc2":"","admin1_code":"02","admin2_code":"092","admin3_code":"09279","admin4_code":"09279135","population":"7098","elevation":"","dem":"444","timezone":"Europe/Berlin","modification_date":"2013-02-19"},{"geonameid":"2843190","name":"Rühstädt","asciiname":"Ruhstadt","alternatenames":"Rikhshtet,Rishtet,Rjushtedt,lu he si te,Рихштет,Риштет,Рюштедт,吕赫斯特","latitude":"52.91667","longitude":"11.86667","feature_class":"P","feature_code":"PPLA4","country_code":"DE","cc2":"","admin1_code":"11","admin2_code":"00","admin3_code":"12070","admin4_code":"12070348","population":"606","elevation":"","dem":"26","timezone":"Europe/Berlin","modification_date":"2011-04-25"},{"geonameid":"2843203","name":"Ruhpolding","asciiname":"Ruhpolding","alternatenames":"Ruahpading,Ruhpolding,Ruhpoldingi vald,Rupol'ding,Rupolding,Rupoldinga,Rupolting,Rūpoldinga,lu bo er ding,rwpwldyng,Руполдинг,Рупольдинг,Рупольдінг,Ռուփոլդինգ,روپولدینگ,鲁波尔丁","latitude":"47.76667","longitude":"12.65","feature_class":"P","feature_code":"PPLA4","country_code":"DE","cc2":"","admin1_code":"02","admin2_code":"091","admin3_code":"09189","admin4_code":"09189140","population":"6419","elevation":"","dem":"648","timezone":"Europe/Berlin","modification_date":"2011-07-31"},{"geonameid":"2843223","name":"Ruhmannsfelden","asciiname":"Ruhmannsfelden","alternatenames":"Ruemansfelden,Ruhmannsfelden,Rumannsfel'den,Rumansfel'den,Rumansfelden,lu man si fei er deng,rwmansfldn,Руманнсфельден,Румансфелден,Румансфельден,Ռումանսֆելդեն,رومانسفلدن,鲁曼斯费尔登","latitude":"48.98327","longitude":"12.98347","feature_class":"P","feature_code":"PPL","country_code":"DE","cc2":"","admin1_code":"02","admin2_code":"092","admin3_code":"09276","admin4_code":"09276142","population":"2190","elevation":"","dem":"530","timezone":"Europe/Berlin","modification_date":"2013-02-19"},{"geonameid":"2843256","name":"Ruhland","asciiname":"Ruhland","alternatenames":"Rolany,Ruhland,Ruland,Rólany,lu lan,rwhland,rwhlnd,Руланд,Ռուլանդ,روهلاند,روهلند,鲁兰","latitude":"51.45755","longitude":"13.86643","feature_class":"P","feature_code":"PPL","country_code":"DE","cc2":"","admin1_code":"11","admin2_code":"00","admin3_code":"12066","admin4_code":"12066272","population":"4083","elevation":"","dem":"101","timezone":"Europe/Berlin","modification_date":"2015-09-05"},{"geonameid":"2843258","name":"Ruhla","asciiname":"Ruhla","alternatenames":"Ruhla,Rula,rura,rwla,Рула,رولا,ルーラ","latitude":"50.89296","longitude":"10.36573","feature_class":"P","feature_code":"PPL","country_code":"DE","cc2":"","admin1_code":"15","admin2_code":"00","admin3_code":"16063","admin4_code":"16063066","population":"6757","elevation":"","dem":"418","timezone":"Europe/Berlin","modification_date":"2015-09-05"},{"geonameid":"2843272","name":"Rühen","asciiname":"Ruhen","alternatenames":"Rijen,Rjuehn,Ruehen,Ruhen,Rühen,lu heng,Ријен,Рюэн,吕亨","latitude":"52.4856","longitude":"10.88642","feature_class":"P","feature_code":"PPLA4","country_code":"DE","cc2":"","admin1_code":"06","admin2_code":"00","admin3_code":"03151","admin4_code":"03151024","population":"4452","elevation":"","dem":"68","timezone":"Europe/Berlin","modification_date":"2015-03-04"},{"geonameid":"2843290","name":"Rügland","asciiname":"Rugland","alternatenames":"Rigland,Rjugland,Rugland,Ryugland,Rügland,lu ge lan,ryukuranto,Ригланд,Рюгланд,Ռյուգլանդ,リュクラント,吕格兰","latitude":"49.4","longitude":"10.58333","feature_class":"P","feature_code":"PPLA4","country_code":"DE","cc2":"","admin1_code":"02","admin2_code":"095","admin3_code":"09571","admin4_code":"09571194","population":"1258","elevation":"","dem":"390","timezone":"Europe/Berlin","modification_date":"2011-04-25"},{"geonameid":"2843302","name":"Rügge","asciiname":"Rugge","alternatenames":"Ruegge,Rugge,Rügge","latitude":"54.68333","longitude":"9.76667","feature_class":"P","feature_code":"PPLA4","country_code":"DE","cc2":"","admin1_code":"10","admin2_code":"00","admin3_code":"01059","admin4_code":"01059070","population":"226","elevation":"","dem":"45","timezone":"Europe/Berlin","modification_date":"2015-03-04"},{"geonameid":"2843318","name":"Rugendorf","asciiname":"Rugendorf","alternatenames":"Rugendorf,lu gen duo fu,rugendorufu,Ругендорф,Ռուգենդորֆ,ルーゲンドルフ,鲁根多夫","latitude":"50.2","longitude":"11.46667","feature_class":"P","feature_code":"PPLA4","country_code":"DE","cc2":"","admin1_code":"02","admin2_code":"094","admin3_code":"09477","admin4_code":"09477151","population":"1071","elevation":"","dem":"392","timezone":"Europe/Berlin","modification_date":"2011-04-25"},{"geonameid":"2843350","name":"Rudow","asciiname":"Rudow","alternatenames":"Berlin-Rudow","latitude":"52.42407","longitude":"13.48529","feature_class":"P","feature_code":"PPLX","country_code":"DE","cc2":"","admin1_code":"16","admin2_code":"00","admin3_code":"11000","admin4_code":"11000000","population":"40802","elevation":"","dem":"38","timezone":"Europe/Berlin","modification_date":"2012-06-09"},{"geonameid":"2843355","name":"Rudolstadt","asciiname":"Rudolstadt","alternatenames":"Rudol'shtadt,Rudolphopolis,Rudolshhat,Rudolshtat,Rudolstadt,lu duo er si ta te,rwdwlshtat,Рудолштат,Рудолщат,Рудольштадт,رودل‌اشتات,رودولشتات,鲁多尔斯塔特","latitude":"50.72043","longitude":"11.34046","feature_class":"P","feature_code":"PPL","country_code":"DE","cc2":"","admin1_code":"15","admin2_code":"00","admin3_code":"16073","admin4_code":"16073076","population":"25476","elevation":"","dem":"197","timezone":"Europe/Berlin","modification_date":"2015-09-05"},{"geonameid":"2843368","name":"Rüdnitz","asciiname":"Rudnitz","alternatenames":"Ridnic,Rjudnic,lu de ni ci,Ридниц,Рюдниц,Ռյուդնից,吕德尼茨","latitude":"52.72137","longitude":"13.62502","feature_class":"P","feature_code":"PPLA4","country_code":"DE","cc2":"","admin1_code":"11","admin2_code":"00","admin3_code":"12060","admin4_code":"12060192","population":"1875","elevation":"","dem":"61","timezone":"Europe/Berlin","modification_date":"2011-04-25"},{"geonameid":"2843395","name":"Rüdesheim am Rhein","asciiname":"Ruedesheim am Rhein","alternatenames":"QSY,Rideskhajm na Rajni,Rjudesgajm-am-Rajn,Rjudeskhajm-am-Rajn,Rjudeskhajm-na-Rejne,Rudesheim,Rudesheim am Rhein,Ruedesheim am Rhein,Rüdesheim,Rüdesheim am Rhein,lai yin he pan lu de si hai mu,rwdzhaym am rayn,Ридесхајм на Рајни,Рюдесгайм-ам-Райн,Рюдесхайм-ам-Райн,Рюдесхайм-на-Рейне,رودزهایم آم راین,リューデスハイム・アム・ライン,莱茵河畔吕德斯海姆","latitude":"49.98214","longitude":"7.92964","feature_class":"P","feature_code":"PPL","country_code":"DE","cc2":"","admin1_code":"05","admin2_code":"064","admin3_code":"06439","admin4_code":"06439013","population":"9921","elevation":"","dem":"117","timezone":"Europe/Berlin","modification_date":"2015-09-05"},{"geonameid":"2843396","name":"Rüdesheim","asciiname":"Rudesheim","alternatenames":"Rideskhajm,Rjudeskhajm,Ruedesheim am Rhein,Ruedesheim an der Nahe,Rüdesheim am Rhein,Rüdesheim an der Nahe,lu de si hai mu,Ридесхајм,Рюдесхайм,吕德斯海姆","latitude":"49.85","longitude":"7.81667","feature_class":"P","feature_code":"PPLA4","country_code":"DE","cc2":"","admin1_code":"08","admin2_code":"00","admin3_code":"07133","admin4_code":"07133117","population":"2408","elevation":"","dem":"144","timezone":"Europe/Berlin","modification_date":"2015-03-04"},{"geonameid":"2843399","name":"Ruderting","asciiname":"Ruderting","alternatenames":"Ruderting,lu de ting,rwdrtyng,Рудертинг,Рудертінг,Ռուդերթինգ,رودرتینگ,鲁德廷","latitude":"48.65","longitude":"13.41667","feature_class":"P","feature_code":"PPLA4","country_code":"DE","cc2":"","admin1_code":"02","admin2_code":"092","admin3_code":"09275","admin4_code":"09275144","population":"3074","elevation":"","dem":"448","timezone":"Europe/Berlin","modification_date":"2011-04-25"},{"geonameid":"2843404","name":"Rüdershausen","asciiname":"Rudershausen","alternatenames":"Riderskhauzen,Rjuderskhauzen,lu de er si hao sen,ryudasuhauzen,Ридерсхаузен,Рюдерсхаузен,リューダースハウゼン,吕德尔斯豪森","latitude":"51.58333","longitude":"10.26667","feature_class":"P","feature_code":"PPLA4","country_code":"DE","cc2":"","admin1_code":"06","admin2_code":"00","admin3_code":"03152","admin4_code":"03152022","population":"996","elevation":"","dem":"154","timezone":"Europe/Berlin","modification_date":"2011-04-25"},{"geonameid":"2843409","name":"Rudersdorf","asciiname":"Rudersdorf","alternatenames":"","latitude":"51.1","longitude":"11.45","feature_class":"P","feature_code":"PPLA4","country_code":"DE","cc2":"","admin1_code":"15","admin2_code":"00","admin3_code":"16068","admin4_code":"16068046","population":"370","elevation":"","dem":"210","timezone":"Europe/Berlin","modification_date":"2011-04-25"},{"geonameid":"2843415","name":"Rudersberg","asciiname":"Rudersberg","alternatenames":"Rudersberg,lu de si bei ge,Рудерсберг,鲁德斯贝格","latitude":"48.88515","longitude":"9.52927","feature_class":"P","feature_code":"PPLA4","country_code":"DE","cc2":"","admin1_code":"01","admin2_code":"081","admin3_code":"08119","admin4_code":"08119061","population":"11726","elevation":"","dem":"280","timezone":"Europe/Berlin","modification_date":"2011-04-25"},{"geonameid":"2843431","name":"Ruderatshofen","asciiname":"Ruderatshofen","alternatenames":"Ruderatsgofen,Ruderatshofen,Ruderatskhofen,lu de la ci huo fen,ruderatsuhofen,Рудератсгофен,Рудератсхофен,Ռուդերատսհոֆեն,ルーデラーツホーフェン,鲁德拉茨霍芬","latitude":"47.81667","longitude":"10.58333","feature_class":"P","feature_code":"PPLA4","country_code":"DE","cc2":"","admin1_code":"02","admin2_code":"097","admin3_code":"09777","admin4_code":"09777167","population":"1709","elevation":"","dem":"742","timezone":"Europe/Berlin","modification_date":"2011-04-25"},{"geonameid":"2843441","name":"Rüdenau","asciiname":"Rudenau","alternatenames":"Ridenau,Rjudenau,Ryudenau,lu de nao,ryudenau,Риденау,Рюденау,Ռյուդենաու,リューデナウ,吕德瑙","latitude":"49.71139","longitude":"9.17917","feature_class":"P","feature_code":"PPLA4","country_code":"DE","cc2":"","admin1_code":"02","admin2_code":"096","admin3_code":"09676","admin4_code":"09676153","population":"866","elevation":"","dem":"195","timezone":"Europe/Berlin","modification_date":"2011-04-25"},{"geonameid":"2843445","name":"Rudelzhausen","asciiname":"Rudelzhausen","alternatenames":"","latitude":"48.6","longitude":"11.76667","feature_class":"P","feature_code":"PPLA4","country_code":"DE","cc2":"","admin1_code":"02","admin2_code":"091","admin3_code":"09178","admin4_code":"09178122","population":"3114","elevation":"","dem":"462","timezone":"Europe/Berlin","modification_date":"2011-04-25"},{"geonameid":"2843464","name":"Rückweiler","asciiname":"Ruckweiler","alternatenames":"Rueckweiler,Rückweiler","latitude":"49.58333","longitude":"7.23333","feature_class":"P","feature_code":"PPLA4","country_code":"DE","cc2":"","admin1_code":"08","admin2_code":"00","admin3_code":"07134","admin4_code":"07134074","population":"447","elevation":"","dem":"531","timezone":"Europe/Berlin","modification_date":"2015-03-04"},{"geonameid":"2843472","name":"Rückholz","asciiname":"Ruckholz","alternatenames":"Rikkholc,Rjukgol'c,Rjukkhol'c,lu ke huo er ci,ryukkuhorutsu,Рикхолц,Рюкгольц,Рюкхольц,Ռյուկհոլց,リュックホルツ,吕克霍尔茨","latitude":"47.66667","longitude":"10.55","feature_class":"P","feature_code":"PPLA4","country_code":"DE","cc2":"","admin1_code":"02","admin2_code":"097","admin3_code":"09777","admin4_code":"09777168","population":"835","elevation":"","dem":"864","timezone":"Europe/Berlin","modification_date":"2011-04-25"},{"geonameid":"2843493","name":"Rückersdorf","asciiname":"Ruckersdorf","alternatenames":"","latitude":"51.58333","longitude":"13.56667","feature_class":"P","feature_code":"PPLA4","country_code":"DE","cc2":"","admin1_code":"11","admin2_code":"00","admin3_code":"12062","admin4_code":"12062417","population":"1773","elevation":"","dem":"95","timezone":"Europe/Berlin","modification_date":"2011-04-25"},{"geonameid":"2843495","name":"Rückersdorf","asciiname":"Ruckersdorf","alternatenames":"","latitude":"50.82193","longitude":"12.22032","feature_class":"P","feature_code":"PPLA4","country_code":"DE","cc2":"","admin1_code":"15","admin2_code":"00","admin3_code":"16076","admin4_code":"16076062","population":"0","elevation":"","dem":"322","timezone":"Europe/Berlin","modification_date":"2015-01-07"},{"geonameid":"2843497","name":"Rückersdorf","asciiname":"Ruckersdorf","alternatenames":"","latitude":"49.49757","longitude":"11.24751","feature_class":"P","feature_code":"PPLA4","country_code":"DE","cc2":"","admin1_code":"02","admin2_code":"095","admin3_code":"09574","admin4_code":"09574154","population":"4518","elevation":"","dem":"330","timezone":"Europe/Berlin","modification_date":"2011-07-31"},{"geonameid":"2843503","name":"Rückeroth","asciiname":"Ruckeroth","alternatenames":"Rueckeroth,Rückeroth","latitude":"50.56667","longitude":"7.75","feature_class":"P","feature_code":"PPLA4","country_code":"DE","cc2":"","admin1_code":"08","admin2_code":"00","admin3_code":"07143","admin4_code":"07143064","population":"494","elevation":"","dem":"287","timezone":"Europe/Berlin","modification_date":"2015-03-04"},{"geonameid":"2843551","name":"Rüber","asciiname":"Ruber","alternatenames":"Rueber,Rüber","latitude":"50.3","longitude":"7.36667","feature_class":"P","feature_code":"PPLA4","country_code":"DE","cc2":"","admin1_code":"08","admin2_code":"00","admin3_code":"07137","admin4_code":"07137095","population":"877","elevation":"","dem":"223","timezone":"Europe/Berlin","modification_date":"2015-03-04"},{"geonameid":"2843574","name":"Rübeland","asciiname":"Ruebeland","alternatenames":"Rubeland,Rübeland","latitude":"51.75591","longitude":"10.8466","feature_class":"P","feature_code":"PPL","country_code":"DE","cc2":"","admin1_code":"14","admin2_code":"00","admin3_code":"15085","admin4_code":"15085228","population":"1201","elevation":"","dem":"390","timezone":"Europe/Berlin","modification_date":"2015-09-04"},{"geonameid":"2843591","name":"Roxheim","asciiname":"Roxheim","alternatenames":"Rokskhajm,luo ke si hai mu,Роксхайм,Роксхајм,罗克斯海姆","latitude":"49.86667","longitude":"7.81667","feature_class":"P","feature_code":"PPLA4","country_code":"DE","cc2":"","admin1_code":"08","admin2_code":"00","admin3_code":"07133","admin4_code":"07133086","population":"2375","elevation":"","dem":"160","timezone":"Europe/Berlin","modification_date":"2011-04-25"},{"geonameid":"2843603","name":"Rövershagen","asciiname":"Roevershagen","alternatenames":"Mittelrovershagen,Mittelrövershagen,Reverskhagen,Rjoverskhagen,Roevershagen,Rövershagen,lei fei er si ha gen,Реверсхаген,Рёверсхаген,勒费尔斯哈根","latitude":"54.17668","longitude":"12.24276","feature_class":"P","feature_code":"PPL","country_code":"DE","cc2":"","admin1_code":"12","admin2_code":"00","admin3_code":"13072","admin4_code":"13072088","population":"2483","elevation":"","dem":"12","timezone":"Europe/Berlin","modification_date":"2015-09-04"},{"geonameid":"2843617","name":"Rötz","asciiname":"Roetz","alternatenames":"Rec,Retz,Rjoc,Rotz,Rötz,lei ci,rwts,Рец,Рёц,Ռյոց,روتس,勒茨","latitude":"49.34316","longitude":"12.52963","feature_class":"P","feature_code":"PPL","country_code":"DE","cc2":"","admin1_code":"02","admin2_code":"093","admin3_code":"09372","admin4_code":"09372154","population":"3548","elevation":"","dem":"461","timezone":"Europe/Berlin","modification_date":"2013-02-19"},{"geonameid":"2843636","name":"Rottweil","asciiname":"Rottweil","alternatenames":"Rottovilla,Rottweil,Rotvajl,Rotvajl',loteubail,luo te wei er,rtwayl,rwtfayl,rwtwwyyl,Ротвайл,Ротвайль,Ротвајл,רוטווייל,رتوایل,روتفايل,როტვაილი,罗特魏尔,로트바일","latitude":"48.16783","longitude":"8.62719","feature_class":"P","feature_code":"PPLA3","country_code":"DE","cc2":"","admin1_code":"01","admin2_code":"083","admin3_code":"08325","admin4_code":"08325049","population":"25510","elevation":"","dem":"605","timezone":"Europe/Berlin","modification_date":"2014-01-17"},{"geonameid":"2843667","name":"Rottleberode","asciiname":"Rottleberode","alternatenames":"Rotleberode,Rottleberode,Ротлебероде","latitude":"51.51636","longitude":"10.94658","feature_class":"P","feature_code":"PPL","country_code":"DE","cc2":"","admin1_code":"14","admin2_code":"00","admin3_code":"15087","admin4_code":"15087412","population":"1599","elevation":"","dem":"205","timezone":"Europe/Berlin","modification_date":"2015-09-04"},{"geonameid":"2843673","name":"Röttingen","asciiname":"Rottingen","alternatenames":"Retingen,Rettingen,Rjottingen,Roettingen,Rottingen,Röttingen,lei ting gen,rettingen,rwtynghn,rwtyngn,Ретинген,Реттінген,Рёттинген,Ռյոթինգեն,روتينغن,روتینگن,レッティンゲン,勒廷根","latitude":"49.50969","longitude":"9.97082","feature_class":"P","feature_code":"PPL","country_code":"DE","cc2":"","admin1_code":"02","admin2_code":"096","admin3_code":"09679","admin4_code":"09679182","population":"1679","elevation":"","dem":"242","timezone":"Europe/Berlin","modification_date":"2015-03-04"},{"geonameid":"2843682","name":"Rotthalmünster","asciiname":"Rotthalmunster","alternatenames":"Minster,Rotalminster,Rottal'mjunster,Rotthalmuenster,Rotthalmünster,luo ta er ming si te er,rwthal mwnstr,Роталминстер,Роттальмюнстер,Ռոթալմյունսթեր,روتهال مونستر,罗塔尔明斯特尔","latitude":"48.35825","longitude":"13.20162","feature_class":"P","feature_code":"PPL","country_code":"DE","cc2":"","admin1_code":"02","admin2_code":"092","admin3_code":"09275","admin4_code":"09275143","population":"5115","elevation":"","dem":"370","timezone":"Europe/Berlin","modification_date":"2015-03-04"},{"geonameid":"2843708","name":"Rotterode","asciiname":"Rotterode","alternatenames":"Rotterode","latitude":"50.71222","longitude":"10.55374","feature_class":"P","feature_code":"PPLA4","country_code":"DE","cc2":"","admin1_code":"15","admin2_code":"00","admin3_code":"16066","admin4_code":"16066062","population":"854","elevation":"","dem":"542","timezone":"Europe/Berlin","modification_date":"2015-01-07"},{"geonameid":"2843724","name":"Rottendorf","asciiname":"Rottendorf","alternatenames":"Rotendorf,Rottendorf,luo teng duo fu,rottendorufu,Ротендорф,Роттендорф,Ռոթենդորֆ,ロッテンドルフ,罗滕多夫","latitude":"49.8","longitude":"10.03333","feature_class":"P","feature_code":"PPLA4","country_code":"DE","cc2":"","admin1_code":"02","admin2_code":"096","admin3_code":"09679","admin4_code":"09679185","population":"5234","elevation":"","dem":"249","timezone":"Europe/Berlin","modification_date":"2011-07-31"},{"geonameid":"2843728","name":"Rottenburg an der Laaber","asciiname":"Rottenburg an der Laaber","alternatenames":"Rotenburg an der Laber,Rottenburg,Rottenburg an der Laaber,Rottenburg-an-der-Laaber,Rottenburg-an-der-Laber,Rottenburg-na-Labere,rtnbwrg an dr labr,rwtnbwrgh an dr labr,Ротенбург ан дер Лабер,Роттенбург-ан-дер-Лаабер,Роттенбург-ан-дер-Лабер,Роттенбург-на-Лабере,Լաբերի Ռոթենբուրգ,رتنبورگ آن در لابر,روتنبورغ أن در لآبر","latitude":"48.70233","longitude":"12.02717","feature_class":"P","feature_code":"PPL","country_code":"DE","cc2":"","admin1_code":"02","admin2_code":"092","admin3_code":"09274","admin4_code":"09274176","population":"7702","elevation":"","dem":"446","timezone":"Europe/Berlin","modification_date":"2013-02-19"},{"geonameid":"2843729","name":"Rottenburg","asciiname":"Rottenburg","alternatenames":"","latitude":"48.47629","longitude":"8.93528","feature_class":"P","feature_code":"PPL","country_code":"DE","cc2":"","admin1_code":"01","admin2_code":"084","admin3_code":"08416","admin4_code":"08416036","population":"42721","elevation":"","dem":"349","timezone":"Europe/Berlin","modification_date":"2013-02-15"},{"geonameid":"2843731","name":"Rottenbuch","asciiname":"Rottenbuch","alternatenames":"Raitenbuch,Rotenbukh,Rottenbuch,Rottenbukh,luo teng bu,rottenbufu,rwtnbwkh,Ротенбух,Роттенбух,Ռոթենբուխ,روتنبوخ,ロッテンブーフ,罗滕布","latitude":"47.73333","longitude":"10.96667","feature_class":"P","feature_code":"PPLA4","country_code":"DE","cc2":"","admin1_code":"02","admin2_code":"091","admin3_code":"09190","admin4_code":"09190145","population":"1771","elevation":"","dem":"768","timezone":"Europe/Berlin","modification_date":"2011-04-25"},{"geonameid":"2843738","name":"Rottenbach","asciiname":"Rottenbach","alternatenames":"Rottenbach","latitude":"50.68782","longitude":"11.16674","feature_class":"P","feature_code":"PPL","country_code":"DE","cc2":"","admin1_code":"15","admin2_code":"00","admin3_code":"16073","admin4_code":"16073112","population":"2036","elevation":"","dem":"280","timezone":"Europe/Berlin","modification_date":"2015-09-05"},{"geonameid":"2843741","name":"Röttenbach","asciiname":"Rottenbach","alternatenames":"","latitude":"49.66429","longitude":"10.92607","feature_class":"P","feature_code":"PPLA4","country_code":"DE","cc2":"","admin1_code":"02","admin2_code":"095","admin3_code":"09572","admin4_code":"09572149","population":"4649","elevation":"","dem":"311","timezone":"Europe/Berlin","modification_date":"2011-04-25"},{"geonameid":"2843743","name":"Röttenbach","asciiname":"Rottenbach","alternatenames":"","latitude":"49.15","longitude":"11.03333","feature_class":"P","feature_code":"PPLA4","country_code":"DE","cc2":"","admin1_code":"02","admin2_code":"095","admin3_code":"09576","admin4_code":"09576141","population":"2890","elevation":"","dem":"373","timezone":"Europe/Berlin","modification_date":"2011-04-25"},{"geonameid":"2843747","name":"Rottenacker","asciiname":"Rottenacker","alternatenames":"Rotenaker,Rottenaker,Rottenakker,luo te na ke er,Ротенакер,Роттенакер,Роттенаккер,Ռոթենակեր,როტენაკერი,罗特纳克尔","latitude":"48.23485","longitude":"9.68956","feature_class":"P","feature_code":"PPLA4","country_code":"DE","cc2":"","admin1_code":"01","admin2_code":"084","admin3_code":"08425","admin4_code":"08425104","population":"2192","elevation":"","dem":"523","timezone":"Europe/Berlin","modification_date":"2011-04-25"},{"geonameid":"2843775","name":"Rottach-Egern","asciiname":"Rottach-Egern","alternatenames":"Rotakh-Egern,Rottakh-Egern,Rottakh-Ehgern,luo ta-ai ge er en,rwtakh-agrn,Ротах-Егерн,Роттах-Егерн,Роттах-Эгерн,Ռոթախ Էգերն,روتاخ-اگرن,罗塔-埃格尔恩","latitude":"47.68966","longitude":"11.77065","feature_class":"P","feature_code":"PPLA4","country_code":"DE","cc2":"","admin1_code":"02","admin2_code":"091","admin3_code":"09182","admin4_code":"09182129","population":"5106","elevation":"","dem":"738","timezone":"Europe/Berlin","modification_date":"2011-07-31"},{"geonameid":"2843798","name":"Rott","asciiname":"Rott","alternatenames":"","latitude":"50.63333","longitude":"7.51667","feature_class":"P","feature_code":"PPLA4","country_code":"DE","cc2":"","admin1_code":"08","admin2_code":"00","admin3_code":"07132","admin4_code":"07132097","population":"0","elevation":"","dem":"257","timezone":"Europe/Berlin","modification_date":"2011-04-25"},{"geonameid":"2843803","name":"Rott","asciiname":"Rott","alternatenames":"","latitude":"47.92008","longitude":"12.08771","feature_class":"P","feature_code":"PPL","country_code":"DE","cc2":"","admin1_code":"02","admin2_code":"091","admin3_code":"09187","admin4_code":"09187137","population":"3616","elevation":"","dem":"465","timezone":"Europe/Berlin","modification_date":"2013-02-19"},{"geonameid":"2843804","name":"Rott","asciiname":"Rott","alternatenames":"Rot,Rott,rotto,rwt,Рот,Ротт,Ռոթ,روت,ロット","latitude":"47.9","longitude":"10.96667","feature_class":"P","feature_code":"PPLA4","country_code":"DE","cc2":"","admin1_code":"02","admin2_code":"091","admin3_code":"09181","admin4_code":"09181137","population":"0","elevation":"","dem":"679","timezone":"Europe/Berlin","modification_date":"2011-04-25"},{"geonameid":"2843810","name":"Rötsweiler-Nockenthal","asciiname":"Rotsweiler-Nockenthal","alternatenames":"Roetsweiler-Nockenthal,Rötsweiler-Nockenthal","latitude":"49.71667","longitude":"7.26667","feature_class":"P","feature_code":"PPLA4","country_code":"DE","cc2":"","admin1_code":"08","admin2_code":"00","admin3_code":"07134","admin4_code":"07134072","population":"525","elevation":"","dem":"403","timezone":"Europe/Berlin","modification_date":"2015-03-04"},{"geonameid":"2843858","name":"Rothselberg","asciiname":"Rothselberg","alternatenames":"Rotselberg,Rotzel'berg,luo te se er bei ge,Ротзельберг,Ротселберг,罗特瑟尔贝格","latitude":"49.55","longitude":"7.6","feature_class":"P","feature_code":"PPLA4","country_code":"DE","cc2":"","admin1_code":"08","admin2_code":"00","admin3_code":"07336","admin4_code":"07336087","population":"726","elevation":"","dem":"335","timezone":"Europe/Berlin","modification_date":"2011-04-25"},{"geonameid":"2843897","name":"Röthlein","asciiname":"Rothlein","alternatenames":"Retlajn,Retljajn,Rjotlajn,Roethlein,Röthlein,lei te lai yin,rwtlayn,Ретлајн,Ретляйн,Рётлайн,روتلاین,勒特莱因","latitude":"49.98333","longitude":"10.21667","feature_class":"P","feature_code":"PPLA4","country_code":"DE","cc2":"","admin1_code":"02","admin2_code":"096","admin3_code":"09678","admin4_code":"09678170","population":"4875","elevation":"","dem":"205","timezone":"Europe/Berlin","modification_date":"2015-03-04"},{"geonameid":"2843978","name":"Rothenstein","asciiname":"Rothenstein","alternatenames":"","latitude":"50.85","longitude":"11.6","feature_class":"P","feature_code":"PPLA4","country_code":"DE","cc2":"","admin1_code":"15","admin2_code":"00","admin3_code":"16074","admin4_code":"16074079","population":"1432","elevation":"","dem":"180","timezone":"Europe/Berlin","modification_date":"2011-04-25"},{"geonameid":"2844042","name":"Rothenfels","asciiname":"Rothenfels","alternatenames":"Rotenfel's,Rotenfels,Rothenfels,luo teng fei er si,rtnflz,rwtnflz,Ротенфелс,Ротенфельс,Ռոթենֆելս,رتنفلز,روتنفلز,罗滕费尔斯","latitude":"49.89135","longitude":"9.5926","feature_class":"P","feature_code":"PPL","country_code":"DE","cc2":"","admin1_code":"02","admin2_code":"096","admin3_code":"09677","admin4_code":"09677181","population":"1088","elevation":"","dem":"152","timezone":"Europe/Berlin","modification_date":"2013-02-19"},{"geonameid":"2844056","name":"Rothenburg ob der Tauber","asciiname":"Rothenburg ob der Tauber","alternatenames":"Rotenburg ob der Tauber,Rotenburg povrkh Taubera,Rotenburg-Tauber-langso,Rotenburg-na-Taubere,Rotenburg-na-Tauberi,Rotenburg-ob-der-Tauber,Rotenburga pie Tauberes,Rothenburg,Rothenburg nad Tauber,Rothenburg ob der Tauber,Rothenburg upon Tauber,Tauberei Rotenburg,lotenbuleukeu opeu deeo taubeo,luo teng bao,rtnbwrg ab dr tawbr,rwtnbwrgh ab dyr tawbr,Ротенбург об дер Таубер,Ротенбург поврх Таубера,Ротенбург-Таубер-лангсо,Ротенбург-на-Таубере,Ротенбург-на-Таубері,Ротенбург-об-дер-Таубер,Տաուբերեի Ռոտենբուրգ,ראטנבורג,רוטנבורג על הטאובר,رتنبورگ آب در تاوبر,روتنبورغ أب دير تاوبر,ローテンブルク・オプ・デア・タウバー,罗滕堡,로텐부르크 오프 데어 타우버","latitude":"49.37885","longitude":"10.18711","feature_class":"P","feature_code":"PPL","country_code":"DE","cc2":"","admin1_code":"02","admin2_code":"095","admin3_code":"09571","admin4_code":"09571193","population":"11106","elevation":"","dem":"434","timezone":"Europe/Berlin","modification_date":"2016-01-07"},{"geonameid":"2844062","name":"Rothenburg","asciiname":"Rothenburg","alternatenames":"","latitude":"51.334","longitude":"14.96874","feature_class":"P","feature_code":"PPL","country_code":"DE","cc2":"","admin1_code":"13","admin2_code":"00","admin3_code":"14626","admin4_code":"14626480","population":"5841","elevation":"","dem":"163","timezone":"Europe/Berlin","modification_date":"2015-09-05"},{"geonameid":"2844072","name":"Rothenbuch","asciiname":"Rothenbuch","alternatenames":"Rotenbukh,Rotenbux,rotenbufu,Ротенбух,Ռոտենբուխ,ローテンブーフ","latitude":"49.96528","longitude":"9.39389","feature_class":"P","feature_code":"PPLA4","country_code":"DE","cc2":"","admin1_code":"02","admin2_code":"096","admin3_code":"09671","admin4_code":"09671148","population":"1976","elevation":"","dem":"385","timezone":"Europe/Berlin","modification_date":"2011-04-25"},{"geonameid":"2844089","name":"Rothenberg","asciiname":"Rothenberg","alternatenames":"Rotenberg,luo teng bei ge,rotenberuku,Ротенберг,ローテンベルク,罗滕贝格","latitude":"49.49917","longitude":"8.91917","feature_class":"P","feature_code":"PPLA4","country_code":"DE","cc2":"","admin1_code":"05","admin2_code":"064","admin3_code":"06437","admin4_code":"06437014","population":"2515","elevation":"","dem":"416","timezone":"Europe/Berlin","modification_date":"2011-04-25"},{"geonameid":"2844126","name":"Röthenbach an der Pegnitz","asciiname":"Rothenbach an der Pegnitz","alternatenames":"Retenbakh na Pegnicu,Retenbakh-an-der-Pegnic,Rjotenbakh-an-der-Pegnic,Roethenbach an der Pegnitz,Rothenbach,Röthenbach,Röthenbach an der Pegnitz,pei ge ni ci he pan lei teng ba he,rwtnbakh an dr bghnytz,rwtnbakh an dr pgnytz,Ретенбах на Пегницу,Ретенбах-ан-дер-Пегніц,Рётенбах-ан-дер-Пегниц,Պեգնիցի Ռյոթենբախ,روتنباخ آن در بغنيتز,روتنباخ آن در پگنیتز,佩格尼茨河畔勒滕巴赫","latitude":"49.48301","longitude":"11.24116","feature_class":"P","feature_code":"PPL","country_code":"DE","cc2":"","admin1_code":"02","admin2_code":"095","admin3_code":"09574","admin4_code":"09574152","population":"12224","elevation":"","dem":"331","timezone":"Europe/Berlin","modification_date":"2015-03-04"},{"geonameid":"2844143","name":"Rothenbach","asciiname":"Rothenbach","alternatenames":"","latitude":"50.56667","longitude":"7.88333","feature_class":"P","feature_code":"PPLA4","country_code":"DE","cc2":"","admin1_code":"08","admin2_code":"00","admin3_code":"07143","admin4_code":"07143289","population":"921","elevation":"","dem":"439","timezone":"Europe/Berlin","modification_date":"2011-04-25"},{"geonameid":"2844148","name":"Röthenbach","asciiname":"Rothenbach","alternatenames":"Retenbakh,Rjotenbakh,Rothenbach,Röthenbach,Ретенбах,Рётенбах,Ռյոթենբախ","latitude":"47.62303","longitude":"9.97387","feature_class":"P","feature_code":"PPL","country_code":"DE","cc2":"","admin1_code":"02","admin2_code":"097","admin3_code":"09776","admin4_code":"09776124","population":"1783","elevation":"","dem":"658","timezone":"Europe/Berlin","modification_date":"2014-04-27"},{"geonameid":"2844245","name":"Rötha","asciiname":"Roetha","alternatenames":"Reta,Rjota,Roetha,Rotha,Rötha,Rēta,lei ta,rwta,Рета,Рёта,Рөта,روتا,勒塔","latitude":"51.19783","longitude":"12.41447","feature_class":"P","feature_code":"PPL","country_code":"DE","cc2":"","admin1_code":"13","admin2_code":"00","admin3_code":"14729","admin4_code":"14729370","population":"4199","elevation":"","dem":"139","timezone":"Europe/Berlin","modification_date":"2015-09-05"},{"geonameid":"2844249","name":"Roth","asciiname":"Roth","alternatenames":"","latitude":"50.75","longitude":"7.7","feature_class":"P","feature_code":"PPLA4","country_code":"DE","cc2":"","admin1_code":"08","admin2_code":"00","admin3_code":"07132","admin4_code":"07132096","population":"1554","elevation":"","dem":"241","timezone":"Europe/Berlin","modification_date":"2011-04-25"},{"geonameid":"2844256","name":"Roth","asciiname":"Roth","alternatenames":"","latitude":"50.26691","longitude":"7.89634","feature_class":"P","feature_code":"PPLA4","country_code":"DE","cc2":"","admin1_code":"08","admin2_code":"00","admin3_code":"07141","admin4_code":"07141118","population":"221","elevation":"","dem":"327","timezone":"Europe/Berlin","modification_date":"2013-02-21"},{"geonameid":"2844260","name":"Roth","asciiname":"Roth","alternatenames":"","latitude":"50.08333","longitude":"7.45","feature_class":"P","feature_code":"PPLA4","country_code":"DE","cc2":"","admin1_code":"08","admin2_code":"00","admin3_code":"07140","admin4_code":"07140131","population":"256","elevation":"","dem":"423","timezone":"Europe/Berlin","modification_date":"2011-04-25"},{"geonameid":"2844262","name":"Roth","asciiname":"Roth","alternatenames":"Rot,Рот","latitude":"49.93333","longitude":"7.8","feature_class":"P","feature_code":"PPLA4","country_code":"DE","cc2":"","admin1_code":"08","admin2_code":"00","admin3_code":"07133","admin4_code":"07133085","population":"0","elevation":"","dem":"291","timezone":"Europe/Berlin","modification_date":"2011-07-31"},{"geonameid":"2844265","name":"Roth","asciiname":"Roth","alternatenames":"Rot,Rota,Roth,Roth bei Nuernberg,Roth bei Nürnberg,luo te,rosu,roto,rwt,rwth bay nwrnbrg,Рот,Рота,רות,روث بای نورنبرگ,ロス,ロート,罗特","latitude":"49.24762","longitude":"11.09111","feature_class":"P","feature_code":"PPLA3","country_code":"DE","cc2":"","admin1_code":"02","admin2_code":"095","admin3_code":"09576","admin4_code":"09576143","population":"25083","elevation":"","dem":"334","timezone":"Europe/Berlin","modification_date":"2014-01-17"},{"geonameid":"2844274","name":"Rötgesbüttel","asciiname":"Rotgesbuttel","alternatenames":"Retgesbitel,Rjotgesbjuttel',Roetgesbuettel,Rötgesbüttel,lei te ge si bi te er,Ретгесбител,Рётгесбюттель,勒特格斯比特尔","latitude":"52.41667","longitude":"10.53333","feature_class":"P","feature_code":"PPLA4","country_code":"DE","cc2":"","admin1_code":"06","admin2_code":"00","admin3_code":"03151","admin4_code":"03151023","population":"2216","elevation":"","dem":"66","timezone":"Europe/Berlin","modification_date":"2015-03-04"},{"geonameid":"2844277","name":"Roetgen","asciiname":"Roetgen","alternatenames":"Li Reutxhene,Retgen,Rjotgen,Roetgen,Rotgen,Ruutsje,Rötgen,luo ai te gen,Ретген,Рётген,罗埃特根","latitude":"50.65","longitude":"6.2","feature_class":"P","feature_code":"PPLA4","country_code":"DE","cc2":"","admin1_code":"07","admin2_code":"053","admin3_code":"05334","admin4_code":"05334024","population":"8177","elevation":"","dem":"400","timezone":"Europe/Berlin","modification_date":"2011-04-25"},{"geonameid":"2844421","name":"Rotenhain","asciiname":"Rotenhain","alternatenames":"","latitude":"50.6","longitude":"7.88333","feature_class":"P","feature_code":"PPLA4","country_code":"DE","cc2":"","admin1_code":"08","admin2_code":"00","admin3_code":"07143","admin4_code":"07143288","population":"572","elevation":"","dem":"455","timezone":"Europe/Berlin","modification_date":"2011-04-25"},{"geonameid":"2844434","name":"Rotenburg an der Fulda","asciiname":"Rotenburg an der Fulda","alternatenames":"Gorad Rotehnburg-na-Ful'dze,Rotemburgo do Fulda,Rotenburg,Rotenburg an der Fulda,Rotenburg na Fulda,Rotenburg-na-Ful'de,Rotenburg-na-Ful'di,rwtnbwrg an dr fwlda,rwtnbwrgh an dr fwlda,Горад Ротэнбург-на-Фульдзе,Ротенбург ан дер Фулда,Ротенбург на Фулда,Ротенбург-на-Фульде,Ротенбург-на-Фульді,روتنبورغ أن در فولدا,روتنبورگ آن در فولدا","latitude":"50.99556","longitude":"9.72838","feature_class":"P","feature_code":"PPL","country_code":"DE","cc2":"","admin1_code":"05","admin2_code":"066","admin3_code":"06632","admin4_code":"06632018","population":"14271","elevation":"","dem":"188","timezone":"Europe/Berlin","modification_date":"2015-09-04"},{"geonameid":"2844437","name":"Rotenburg","asciiname":"Rotenburg","alternatenames":"Rotenburg,Ротенбург","latitude":"53.11125","longitude":"9.41082","feature_class":"P","feature_code":"PPLA3","country_code":"DE","cc2":"","admin1_code":"06","admin2_code":"00","admin3_code":"03357","admin4_code":"03357039","population":"22139","elevation":"","dem":"20","timezone":"Europe/Berlin","modification_date":"2015-09-05"},{"geonameid":"2844566","name":"Rot an der Rot","asciiname":"Rot an der Rot","alternatenames":"Rot an der Rot,Rot-an-der-Rot,luo te he pan luo te,Рот ан дер Рот,Рот-ан-дер-Рот,罗特河畔罗特","latitude":"48.01295","longitude":"10.03026","feature_class":"P","feature_code":"PPLA4","country_code":"DE","cc2":"","admin1_code":"01","admin2_code":"084","admin3_code":"08426","admin4_code":"08426100","population":"0","elevation":"","dem":"609","timezone":"Europe/Berlin","modification_date":"2011-05-31"},{"geonameid":"2844567","name":"Rot am See","asciiname":"Rot am See","alternatenames":"Rot,Rot am See,Rot am Ze,Rot-am-Ze,bin hu luo te,Рот ам Зе,Рот-ам-Зе,ロート・アム・ゼー,滨湖罗特","latitude":"49.25","longitude":"10.01667","feature_class":"P","feature_code":"PPLA4","country_code":"DE","cc2":"","admin1_code":"01","admin2_code":"081","admin3_code":"08127","admin4_code":"08127071","population":"5166","elevation":"","dem":"422","timezone":"Europe/Berlin","modification_date":"2011-04-25"},{"geonameid":"2844579","name":"Rot","asciiname":"Rot","alternatenames":"","latitude":"47.92278","longitude":"9.10485","feature_class":"P","feature_code":"PPL","country_code":"DE","cc2":"","admin1_code":"01","admin2_code":"084","admin3_code":"08437","admin4_code":"08437123","population":"4402","elevation":"","dem":"657","timezone":"Europe/Berlin","modification_date":"2013-02-19"},{"geonameid":"2844588","name":"Rostock","asciiname":"Rostock","alternatenames":"Gorad Rostak,RLG,Roshhok,Roshtok,Rostochium,Rostock,Rostok,Rostoka,Rostokas,Roztok,loseutokeu,luo si tuo ke,rosutokku,rwstwk,rwstwq,rxs thxkh,Ρόστοκ,Горад Ростак,Росток,Рошток,Рощок,רוסטוק,روستوك,روستوک,روسٹاک,รอสทอค,როსტოკი,ロストック,罗斯托克,로스토크","latitude":"54.0887","longitude":"12.14049","feature_class":"P","feature_code":"PPLA3","country_code":"DE","cc2":"","admin1_code":"12","admin2_code":"00","admin3_code":"13003","admin4_code":"13003000","population":"198293","elevation":"","dem":"18","timezone":"Europe/Berlin","modification_date":"2014-07-19"},{"geonameid":"2844604","name":"Roßwein","asciiname":"Rosswein","alternatenames":"Rosswein,Rosvajn,Rosveina,Roswin,Roßwein,luo si wei yin,rswayn,rwsfayn,Росвайн,Росвајн,رسواین,روسفاين,罗斯韦因","latitude":"51.06589","longitude":"13.18308","feature_class":"P","feature_code":"PPL","country_code":"DE","cc2":"","admin1_code":"13","admin2_code":"00","admin3_code":"14522","admin4_code":"14522510","population":"7568","elevation":"","dem":"208","timezone":"Europe/Berlin","modification_date":"2015-09-05"},{"geonameid":"2844616","name":"Roßtal","asciiname":"Rosstal","alternatenames":"Rosstal,Rostal,Rostal',Roßtal,luo si ta er,Ростал,Росталь,Ռոսթալ,罗斯塔尔","latitude":"49.39567","longitude":"10.88848","feature_class":"P","feature_code":"PPL","country_code":"DE","cc2":"","admin1_code":"02","admin2_code":"095","admin3_code":"09573","admin4_code":"09573125","population":"10052","elevation":"","dem":"367","timezone":"Europe/Berlin","modification_date":"2015-03-04"},{"geonameid":"2844651","name":"Roßleben","asciiname":"Rossleben","alternatenames":"Rosleben,Rossleben,Roßleben,luo si lai ben,rwslbn,rwslybn,Рослебен,روسلبن,روسليبن,罗斯莱本","latitude":"51.29886","longitude":"11.43435","feature_class":"P","feature_code":"PPL","country_code":"DE","cc2":"","admin1_code":"15","admin2_code":"00","admin3_code":"16065","admin4_code":"16065061","population":"6216","elevation":"","dem":"131","timezone":"Europe/Berlin","modification_date":"2015-09-05"},{"geonameid":"2844654","name":"Roßlau","asciiname":"Rosslau","alternatenames":"Roslau,Rosslau,Roßlau,luo si lao,Рослау,罗斯劳","latitude":"51.88736","longitude":"12.24192","feature_class":"P","feature_code":"PPLX","country_code":"DE","cc2":"","admin1_code":"14","admin2_code":"00","admin3_code":"15001","admin4_code":"15001000","population":"13900","elevation":"","dem":"71","timezone":"Europe/Berlin","modification_date":"2015-09-04"},{"geonameid":"2844658","name":"Roßla","asciiname":"Rossla","alternatenames":"Rosla,Росла","latitude":"51.46331","longitude":"11.07576","feature_class":"P","feature_code":"PPL","country_code":"DE","cc2":"","admin1_code":"14","admin2_code":"00","admin3_code":"15087","admin4_code":"15087412","population":"2378","elevation":"","dem":"155","timezone":"Europe/Berlin","modification_date":"2015-09-04"},{"geonameid":"2844701","name":"Roßhaupten","asciiname":"Rosshaupten","alternatenames":"","latitude":"48.42943","longitude":"10.46911","feature_class":"P","feature_code":"PPL","country_code":"DE","cc2":"","admin1_code":"02","admin2_code":"097","admin3_code":"09774","admin4_code":"09774178","population":"2189","elevation":"","dem":"512","timezone":"Europe/Berlin","modification_date":"2013-02-19"},{"geonameid":"2844702","name":"Roßhaupten","asciiname":"Rosshaupten","alternatenames":"Rosgaupten,Roshaupten,Roskhaupten,luo si hao pu teng,rosuhauputen,Росгауптен,Росхауптен,Ռոսհաուպտեն,ロスハウプテン,罗斯豪普滕","latitude":"47.65","longitude":"10.71667","feature_class":"P","feature_code":"PPLA4","country_code":"DE","cc2":"","admin1_code":"02","admin2_code":"097","admin3_code":"09777","admin4_code":"09777166","population":"0","elevation":"","dem":"819","timezone":"Europe/Berlin","modification_date":"2011-04-25"},{"geonameid":"2844753","name":"Roßdorf","asciiname":"Rossdorf","alternatenames":"","latitude":"50.7","longitude":"10.21667","feature_class":"P","feature_code":"PPLA4","country_code":"DE","cc2":"","admin1_code":"15","admin2_code":"00","admin3_code":"16066","admin4_code":"16066061","population":"716","elevation":"","dem":"403","timezone":"Europe/Berlin","modification_date":"2011-04-25"},{"geonameid":"2844756","name":"Roßdorf","asciiname":"Rossdorf","alternatenames":"Rossdorf,Roßdorf","latitude":"49.85972","longitude":"8.76167","feature_class":"P","feature_code":"PPLA4","country_code":"DE","cc2":"","admin1_code":"05","admin2_code":"064","admin3_code":"06432","admin4_code":"06432020","population":"12199","elevation":"","dem":"186","timezone":"Europe/Berlin","modification_date":"2015-03-04"},{"geonameid":"2844829","name":"Rossbach","asciiname":"Rossbach","alternatenames":"","latitude":"48.58333","longitude":"12.95","feature_class":"P","feature_code":"PPLL","country_code":"DE","cc2":"","admin1_code":"02","admin2_code":"092","admin3_code":"09277","admin4_code":"09277142","population":"2944","elevation":"","dem":"400","timezone":"Europe/Berlin","modification_date":"2013-02-19"},{"geonameid":"2844836","name":"Roßbach","asciiname":"Rossbach","alternatenames":"","latitude":"50.61667","longitude":"7.68333","feature_class":"P","feature_code":"PPLA4","country_code":"DE","cc2":"","admin1_code":"08","admin2_code":"00","admin3_code":"07143","admin4_code":"07143287","population":"0","elevation":"","dem":"315","timezone":"Europe/Berlin","modification_date":"2011-04-25"},{"geonameid":"2844837","name":"Roßbach","asciiname":"Rossbach","alternatenames":"","latitude":"50.58333","longitude":"7.41667","feature_class":"P","feature_code":"PPLA4","country_code":"DE","cc2":"","admin1_code":"08","admin2_code":"00","admin3_code":"07138","admin4_code":"07138065","population":"937","elevation":"","dem":"226","timezone":"Europe/Berlin","modification_date":"2011-04-25"},{"geonameid":"2844844","name":"Roßbach","asciiname":"Rossbach","alternatenames":"","latitude":"48.6","longitude":"12.93333","feature_class":"P","feature_code":"PPLA4","country_code":"DE","cc2":"","admin1_code":"02","admin2_code":"092","admin3_code":"09277","admin4_code":"09277142","population":"0","elevation":"","dem":"344","timezone":"Europe/Berlin","modification_date":"2011-04-25"},{"geonameid":"2844862","name":"Rösrath","asciiname":"Roesrath","alternatenames":"Resrat,Rjosrat,Roesrath,Roesrod,Rösrath,Rösrod,lei si la te,rsrath,rwsrat,Ресрат,Рёсрат,رسراث,روسرات,勒斯拉特","latitude":"50.89559","longitude":"7.18175","feature_class":"P","feature_code":"PPL","country_code":"DE","cc2":"","admin1_code":"07","admin2_code":"053","admin3_code":"05378","admin4_code":"05378028","population":"26868","elevation":"","dem":"89","timezone":"Europe/Berlin","modification_date":"2015-09-04"},{"geonameid":"2844880","name":"Roskow","asciiname":"Roskow","alternatenames":"Roskov,luo si ke,Росков,Ռոսկով,罗斯科","latitude":"52.46667","longitude":"12.73333","feature_class":"P","feature_code":"PPLA4","country_code":"DE","cc2":"","admin1_code":"11","admin2_code":"00","admin3_code":"12069","admin4_code":"12069541","population":"1281","elevation":"","dem":"28","timezone":"Europe/Berlin","modification_date":"2011-04-25"},{"geonameid":"2844883","name":"Rositz","asciiname":"Rositz","alternatenames":"Rositz,Rozic,luo xi ci,Розиц,罗西茨","latitude":"51.03333","longitude":"12.36667","feature_class":"P","feature_code":"PPLA4","country_code":"DE","cc2":"","admin1_code":"15","admin2_code":"00","admin3_code":"16077","admin4_code":"16077042","population":"3232","elevation":"","dem":"209","timezone":"Europe/Berlin","modification_date":"2011-07-31"},{"geonameid":"2844910","name":"Rosenthal","asciiname":"Rosenthal","alternatenames":"Berlin-Rosenthal,Rozental',Розенталь","latitude":"52.59976","longitude":"13.37774","feature_class":"P","feature_code":"PPLX","country_code":"DE","cc2":"DE","admin1_code":"16","admin2_code":"00","admin3_code":"11000","admin4_code":"11000000","population":"8992","elevation":"","dem":"47","timezone":"Europe/Berlin","modification_date":"2012-06-09"},{"geonameid":"2844924","name":"Rosenthal","asciiname":"Rosenthal","alternatenames":"Rosenthal","latitude":"50.97439","longitude":"8.86736","feature_class":"P","feature_code":"PPL","country_code":"DE","cc2":"","admin1_code":"05","admin2_code":"066","admin3_code":"06635","admin4_code":"06635017","population":"2209","elevation":"","dem":"276","timezone":"Europe/Berlin","modification_date":"2015-09-05"},{"geonameid":"2844947","name":"Rosenow","asciiname":"Rosenow","alternatenames":"Rosenow","latitude":"53.62966","longitude":"13.03849","feature_class":"P","feature_code":"PPL","country_code":"DE","cc2":"","admin1_code":"12","admin2_code":"00","admin3_code":"13071","admin4_code":"13071127","population":"1215","elevation":"","dem":"71","timezone":"Europe/Berlin","modification_date":"2015-09-05"},{"geonameid":"2844956","name":"Rosenkopf","asciiname":"Rosenkopf","alternatenames":"","latitude":"49.35","longitude":"7.43333","feature_class":"P","feature_code":"PPLA4","country_code":"DE","cc2":"","admin1_code":"08","admin2_code":"00","admin3_code":"07340","admin4_code":"07340223","population":"329","elevation":"","dem":"381","timezone":"Europe/Berlin","modification_date":"2011-04-25"},{"geonameid":"2844988","name":"Rosenheim","asciiname":"Rosenheim","alternatenames":"Gorad Rozenkhajm,Pons Aeni,Rosenheim,Rousnam,Rozengajm,Rozenkhajm,ZPR,lojenhaim,luo sen hai mu,rozenhaimu,rznhaym,Горад Розенхайм,Розенгайм,Розенхайм,Розенхајм,رزنهایم,ローゼンハイム,罗森海姆,로젠하임","latitude":"47.85637","longitude":"12.12247","feature_class":"P","feature_code":"PPLA3","country_code":"DE","cc2":"","admin1_code":"02","admin2_code":"091","admin3_code":"09163","admin4_code":"09163000","population":"60167","elevation":"","dem":"448","timezone":"Europe/Berlin","modification_date":"2015-10-17"},{"geonameid":"2845027","name":"Rosenfeld","asciiname":"Rosenfeld","alternatenames":"","latitude":"48.28639","longitude":"8.72357","feature_class":"P","feature_code":"PPL","country_code":"DE","cc2":"","admin1_code":"01","admin2_code":"084","admin3_code":"08417","admin4_code":"08417054","population":"6405","elevation":"","dem":"630","timezone":"Europe/Berlin","modification_date":"2013-02-15"},{"geonameid":"2845033","name":"Rosendorf","asciiname":"Rosendorf","alternatenames":"","latitude":"50.76667","longitude":"11.78333","feature_class":"P","feature_code":"PPLA4","country_code":"DE","cc2":"","admin1_code":"15","admin2_code":"00","admin3_code":"16075","admin4_code":"16075093","population":"179","elevation":"","dem":"384","timezone":"Europe/Berlin","modification_date":"2011-04-25"},{"geonameid":"2845054","name":"Rosenberg","asciiname":"Rosenberg","alternatenames":"Rozenberg,rozenberuku,Розенберг,ローゼンベルク","latitude":"49.45583","longitude":"9.47306","feature_class":"P","feature_code":"PPLA4","country_code":"DE","cc2":"","admin1_code":"01","admin2_code":"082","admin3_code":"08225","admin4_code":"08225082","population":"0","elevation":"","dem":"285","timezone":"Europe/Berlin","modification_date":"2011-04-25"},{"geonameid":"2845056","name":"Rosenberg","asciiname":"Rosenberg","alternatenames":"","latitude":"49.01667","longitude":"10.01667","feature_class":"P","feature_code":"PPLA4","country_code":"DE","cc2":"","admin1_code":"01","admin2_code":"081","admin3_code":"08136","admin4_code":"08136060","population":"2656","elevation":"","dem":"485","timezone":"Europe/Berlin","modification_date":"2011-04-25"},{"geonameid":"2845123","name":"Roseburg","asciiname":"Roseburg","alternatenames":"Roseburg","latitude":"53.53333","longitude":"10.63333","feature_class":"P","feature_code":"PPLA4","country_code":"DE","cc2":"","admin1_code":"10","admin2_code":"00","admin3_code":"01053","admin4_code":"01053104","population":"494","elevation":"","dem":"25","timezone":"Europe/Berlin","modification_date":"2011-04-25"},{"geonameid":"2845130","name":"Rosdorf","asciiname":"Rosdorf","alternatenames":"","latitude":"53.97802","longitude":"9.72739","feature_class":"P","feature_code":"PPLA4","country_code":"DE","cc2":"","admin1_code":"10","admin2_code":"00","admin3_code":"01061","admin4_code":"01061093","population":"401","elevation":"","dem":"11","timezone":"Europe/Berlin","modification_date":"2011-09-05"},{"geonameid":"2845131","name":"Rosdorf","asciiname":"Rosdorf","alternatenames":"Rosdorf,luo si duo fu,rosudorufu,Росдорф,ロスドルフ,罗斯多夫","latitude":"51.5","longitude":"9.9","feature_class":"P","feature_code":"PPLA4","country_code":"DE","cc2":"","admin1_code":"06","admin2_code":"00","admin3_code":"03152","admin4_code":"03152021","population":"11840","elevation":"","dem":"168","timezone":"Europe/Berlin","modification_date":"2011-07-31"},{"geonameid":"2845143","name":"Roscheid","asciiname":"Roscheid","alternatenames":"","latitude":"50.11667","longitude":"6.18333","feature_class":"P","feature_code":"PPLA4","country_code":"DE","cc2":"","admin1_code":"08","admin2_code":"00","admin3_code":"07232","admin4_code":"07232301","population":"68","elevation":"","dem":"485","timezone":"Europe/Berlin","modification_date":"2011-04-25"},{"geonameid":"2845146","name":"Rosche","asciiname":"Rosche","alternatenames":"Roshe,luo she,Роше,罗舍","latitude":"52.98663","longitude":"10.75184","feature_class":"P","feature_code":"PPLA4","country_code":"DE","cc2":"","admin1_code":"06","admin2_code":"00","admin3_code":"03360","admin4_code":"03360018","population":"2157","elevation":"","dem":"61","timezone":"Europe/Berlin","modification_date":"2011-04-25"},{"geonameid":"2845152","name":"Roschbach","asciiname":"Roschbach","alternatenames":"","latitude":"49.24611","longitude":"8.11889","feature_class":"P","feature_code":"PPLA4","country_code":"DE","cc2":"","admin1_code":"08","admin2_code":"00","admin3_code":"07337","admin4_code":"07337069","population":"841","elevation":"","dem":"168","timezone":"Europe/Berlin","modification_date":"2011-04-25"},{"geonameid":"2845160","name":"Rosbach vor der Höhe","asciiname":"Rosbach vor der Hoehe","alternatenames":"Rosbach,Rosbach vor der Hoehe,Rosbach vor der Höhe,Rosbakh for der Khee,Rosbakh-for-der-Gee,Rosbakh-for-der-Khjoeh,rwzbakh fwr dr hwyh,rwzbakh wr dr hwhh,shan qian luo si ba he,Росбах фор дер Хее,Росбах-фор-дер-Геє,Росбах-фор-дер-Хёэ,روزباخ فور در هويه,روزباخ ور در هوهه,ロスバッハ・フォア・デア・ヘーエ,山前罗斯巴赫","latitude":"50.30332","longitude":"8.68976","feature_class":"P","feature_code":"PPL","country_code":"DE","cc2":"","admin1_code":"05","admin2_code":"064","admin3_code":"06440","admin4_code":"06440023","population":"11741","elevation":"","dem":"184","timezone":"Europe/Berlin","modification_date":"2015-09-04"},{"geonameid":"2845171","name":"Rosa","asciiname":"Rosa","alternatenames":"","latitude":"50.712","longitude":"10.24999","feature_class":"P","feature_code":"PPLA4","country_code":"DE","cc2":"","admin1_code":"15","admin2_code":"00","admin3_code":"16066","admin4_code":"16066059","population":"826","elevation":"","dem":"350","timezone":"Europe/Berlin","modification_date":"2014-01-17"},{"geonameid":"2845175","name":"Rorodt","asciiname":"Rorodt","alternatenames":"","latitude":"49.76667","longitude":"7.05","feature_class":"P","feature_code":"PPLA4","country_code":"DE","cc2":"","admin1_code":"08","admin2_code":"00","admin3_code":"07231","admin4_code":"07231112","population":"59","elevation":"","dem":"461","timezone":"Europe/Berlin","modification_date":"2011-04-25"},{"geonameid":"2845209","name":"Ronshausen","asciiname":"Ronshausen","alternatenames":"Ronsgauzen,Ronskhauzen,long si hao sen,Ронсгаузен,Ронсхаузен,龙斯豪森","latitude":"50.95","longitude":"9.85","feature_class":"P","feature_code":"PPLA4","country_code":"DE","cc2":"","admin1_code":"05","admin2_code":"066","admin3_code":"06632","admin4_code":"06632017","population":"2409","elevation":"","dem":"219","timezone":"Europe/Berlin","modification_date":"2011-04-25"},{"geonameid":"2845212","name":"Ronsberg","asciiname":"Ronsberg","alternatenames":"Ronsberg,long si bei ge,ronsuberuku,rwnzbrg,Ронсберг,Ռոնսբերգ,رونزبرگ,ロンスベルク,龙斯贝格","latitude":"47.8958","longitude":"10.41571","feature_class":"P","feature_code":"PPL","country_code":"DE","cc2":"","admin1_code":"02","admin2_code":"097","admin3_code":"09777","admin4_code":"09777165","population":"1675","elevation":"","dem":"696","timezone":"Europe/Berlin","modification_date":"2013-02-19"},{"geonameid":"2845222","name":"Ronnenberg","asciiname":"Ronnenberg","alternatenames":"Ronenberg,Ronnenberg,luo nen bei ge,rnnbwrg,rwnnbrgh,Роненберг,Ронненберг,رننبورگ,روننبرغ,罗嫩贝格","latitude":"52.31939","longitude":"9.65544","feature_class":"P","feature_code":"PPL","country_code":"DE","cc2":"","admin1_code":"06","admin2_code":"00","admin3_code":"03241","admin4_code":"03241014","population":"23416","elevation":"","dem":"69","timezone":"Europe/Berlin","modification_date":"2015-09-04"},{"geonameid":"2845229","name":"Ronneburg","asciiname":"Ronneburg","alternatenames":"Roneburg,Ronneburg,rnnbwrg,Ронебург,Роннебург,رننبورگ","latitude":"50.8634","longitude":"12.18666","feature_class":"P","feature_code":"PPL","country_code":"DE","cc2":"","admin1_code":"15","admin2_code":"00","admin3_code":"16076","admin4_code":"16076061","population":"5482","elevation":"","dem":"284","timezone":"Europe/Berlin","modification_date":"2015-09-04"},{"geonameid":"2845258","name":"Rondeshagen","asciiname":"Rondeshagen","alternatenames":"Rondeshagen","latitude":"53.75","longitude":"10.63333","feature_class":"P","feature_code":"PPLA4","country_code":"DE","cc2":"","admin1_code":"10","admin2_code":"00","admin3_code":"01053","admin4_code":"01053103","population":"895","elevation":"","dem":"23","timezone":"Europe/Berlin","modification_date":"2011-04-25"},{"geonameid":"2845264","name":"Römstedt","asciiname":"Romstedt","alternatenames":"Remshtet,Rjomshtedt,lei mu si te,Ремштет,Рёмштедт,勒姆斯特","latitude":"53.1","longitude":"10.65","feature_class":"P","feature_code":"PPLA4","country_code":"DE","cc2":"","admin1_code":"06","admin2_code":"00","admin3_code":"03360","admin4_code":"03360017","population":"887","elevation":"","dem":"49","timezone":"Europe/Berlin","modification_date":"2011-04-25"},{"geonameid":"2845268","name":"Romrod","asciiname":"Romrod","alternatenames":"Romrod,luo mu luo de,rmrwd,romuroto,rwmrwd,Ромрод,رمرود,رومرود,ロムロート,罗姆罗德","latitude":"50.71341","longitude":"9.2201","feature_class":"P","feature_code":"PPL","country_code":"DE","cc2":"","admin1_code":"05","admin2_code":"065","admin3_code":"06535","admin4_code":"06535014","population":"3073","elevation":"","dem":"310","timezone":"Europe/Berlin","modification_date":"2015-09-05"},{"geonameid":"2845270","name":"Römnitz","asciiname":"Romnitz","alternatenames":"Romnitz,Römnitz","latitude":"53.71667","longitude":"10.76667","feature_class":"P","feature_code":"PPLA4","country_code":"DE","cc2":"","admin1_code":"10","admin2_code":"00","admin3_code":"01053","admin4_code":"01053102","population":"79","elevation":"","dem":"33","timezone":"Europe/Berlin","modification_date":"2011-04-25"},{"geonameid":"2845273","name":"Rommerskirchen","asciiname":"Rommerskirchen","alternatenames":"Romerskirkhen,Rommerskirchen,Rommerskirkhen,luo mei er si ji xing,Ромерскирхен,Роммерскирхен,Роммерскірхен,罗梅尔斯基兴","latitude":"51.03333","longitude":"6.68333","feature_class":"P","feature_code":"PPLA4","country_code":"DE","cc2":"","admin1_code":"07","admin2_code":"051","admin3_code":"05162","admin4_code":"05162028","population":"12554","elevation":"","dem":"74","timezone":"Europe/Berlin","modification_date":"2011-07-31"},{"geonameid":"2845275","name":"Rommersheim","asciiname":"Rommersheim","alternatenames":"","latitude":"50.2","longitude":"6.45","feature_class":"P","feature_code":"PPLA4","country_code":"DE","cc2":"","admin1_code":"08","admin2_code":"00","admin3_code":"07232","admin4_code":"07232300","population":"617","elevation":"","dem":"470","timezone":"Europe/Berlin","modification_date":"2011-04-25"},{"geonameid":"2845304","name":"Römhild","asciiname":"Roemhild","alternatenames":"R'omkhild,Remkhild,Rjomkhil'd,Romhild,Römhild,lei mu xi er de,rwhyld,rwmhyld,Ремхилд,Рьомхилд,Рёмхильд,رومهيلد,روهیلد,勒姆希尔德","latitude":"50.39639","longitude":"10.53889","feature_class":"P","feature_code":"PPL","country_code":"DE","cc2":"","admin1_code":"15","admin2_code":"00","admin3_code":"16069","admin4_code":"16069062","population":"1888","elevation":"","dem":"305","timezone":"Europe/Berlin","modification_date":"2015-09-05"},{"geonameid":"2845389","name":"Rollshausen","asciiname":"Rollshausen","alternatenames":"","latitude":"51.56667","longitude":"10.21667","feature_class":"P","feature_code":"PPLA4","country_code":"DE","cc2":"","admin1_code":"06","admin2_code":"00","admin3_code":"03152","admin4_code":"03152020","population":"987","elevation":"","dem":"160","timezone":"Europe/Berlin","modification_date":"2011-04-25"},{"geonameid":"2845433","name":"Röllbach","asciiname":"Rollbach","alternatenames":"Rel'bakh,Relbakh,Rjol'bakh,Ryolbax,rerubahha,Релбах,Рельбах,Рёльбах,Ռյոլբախ,レルバッハ","latitude":"49.77306","longitude":"9.24611","feature_class":"P","feature_code":"PPLA4","country_code":"DE","cc2":"","admin1_code":"02","admin2_code":"096","admin3_code":"09676","admin4_code":"09676151","population":"1719","elevation":"","dem":"218","timezone":"Europe/Berlin","modification_date":"2011-04-25"},{"geonameid":"2845466","name":"Roklum","asciiname":"Roklum","alternatenames":"","latitude":"52.06663","longitude":"10.74085","feature_class":"P","feature_code":"PPLA4","country_code":"DE","cc2":"","admin1_code":"06","admin2_code":"00","admin3_code":"03158","admin4_code":"03158025","population":"511","elevation":"","dem":"117","timezone":"Europe/Berlin","modification_date":"2011-05-03"},{"geonameid":"2845475","name":"Roitzsch","asciiname":"Roitzsch","alternatenames":"Roitzsch","latitude":"51.57526","longitude":"12.26331","feature_class":"P","feature_code":"PPL","country_code":"DE","cc2":"","admin1_code":"14","admin2_code":"00","admin3_code":"15082","admin4_code":"15082340","population":"2650","elevation":"","dem":"90","timezone":"Europe/Berlin","modification_date":"2015-09-05"},{"geonameid":"2845503","name":"Roigheim","asciiname":"Roigheim","alternatenames":"Gjorsbakh,Roigheim,Roigkhajm,Rojgajm,Rojgkhajm,lao ge hai mu,roikuhaimu,Гёрсбах,Роигхајм,Ройгайм,Ройгхайм,ロイクハイム,勞格海姆","latitude":"49.36472","longitude":"9.34","feature_class":"P","feature_code":"PPLA4","country_code":"DE","cc2":"","admin1_code":"01","admin2_code":"081","admin3_code":"08125","admin4_code":"08125084","population":"1462","elevation":"","dem":"216","timezone":"Europe/Berlin","modification_date":"2011-04-25"},{"geonameid":"2845540","name":"Röhrsen","asciiname":"Roehrsen","alternatenames":"Rohrsen,Röhrsen","latitude":"52.71078","longitude":"9.23139","feature_class":"P","feature_code":"PPL","country_code":"DE","cc2":"","admin1_code":"06","admin2_code":"00","admin3_code":"03256","admin4_code":"03256027","population":"1080","elevation":"","dem":"29","timezone":"Europe/Berlin","modification_date":"2015-09-05"},{"geonameid":"2845559","name":"Röhrnbach","asciiname":"Roehrnbach","alternatenames":"Rernbakh,Rjornbakh,Roehrnbach,Ryornbax,Röhrnbach,lei he er en ba he,rwrnbakh,Рернбах,Рёрнбах,Ռյորնբախ,رورنباخ,勒赫尔恩巴赫","latitude":"48.73859","longitude":"13.52271","feature_class":"P","feature_code":"PPLA4","country_code":"DE","cc2":"","admin1_code":"02","admin2_code":"092","admin3_code":"09272","admin4_code":"09272141","population":"4579","elevation":"","dem":"432","timezone":"Europe/Berlin","modification_date":"2015-03-04"},{"geonameid":"2845565","name":"Röhrmoos","asciiname":"Rohrmoos","alternatenames":"Rermos,Rjormos,Roehrmoos,Ryormos,Röhrmoos,lei he er mo si,rwrmws,Рермос,Рёрмос,Ռյորմոս,رورموس,勒赫尔莫斯","latitude":"48.32966","longitude":"11.44672","feature_class":"P","feature_code":"PPLA4","country_code":"DE","cc2":"","admin1_code":"02","admin2_code":"091","admin3_code":"09174","admin4_code":"09174141","population":"6199","elevation":"","dem":"494","timezone":"Europe/Berlin","modification_date":"2015-03-04"},{"geonameid":"2845589","name":"Röhrig","asciiname":"Rohrig","alternatenames":"Rohrig,Röhrig","latitude":"51.33333","longitude":"10.03333","feature_class":"P","feature_code":"PPLA4","country_code":"DE","cc2":"","admin1_code":"15","admin2_code":"00","admin3_code":"16061","admin4_code":"16061077","population":"260","elevation":"","dem":"436","timezone":"Europe/Berlin","modification_date":"2011-04-25"},{"geonameid":"2845625","name":"Rohrenfels","asciiname":"Rohrenfels","alternatenames":"Rorenfel's,Rorenfels,luo lun fei er si,rwrnfls,Роренфелс,Роренфельс,Ռորենֆելս,رورنفلس,罗伦费尔斯","latitude":"48.68654","longitude":"11.15619","feature_class":"P","feature_code":"PPLA4","country_code":"DE","cc2":"","admin1_code":"02","admin2_code":"091","admin3_code":"09185","admin4_code":"09185157","population":"1489","elevation":"","dem":"392","timezone":"Europe/Berlin","modification_date":"2013-02-15"},{"geonameid":"2845638","name":"Rohrdorf","asciiname":"Rohrdorf","alternatenames":"","latitude":"48.56667","longitude":"8.7","feature_class":"P","feature_code":"PPLA4","country_code":"DE","cc2":"","admin1_code":"01","admin2_code":"082","admin3_code":"08235","admin4_code":"08235060","population":"1959","elevation":"","dem":"439","timezone":"Europe/Berlin","modification_date":"2011-04-25"},{"geonameid":"2845641","name":"Rohrdorf","asciiname":"Rohrdorf","alternatenames":"","latitude":"47.79713","longitude":"12.1701","feature_class":"P","feature_code":"PPLA4","country_code":"DE","cc2":"","admin1_code":"02","admin2_code":"091","admin3_code":"09187","admin4_code":"09187169","population":"5460","elevation":"","dem":"476","timezone":"Europe/Berlin","modification_date":"2011-07-31"},{"geonameid":"2845652","name":"Rohrberg","asciiname":"Rohrberg","alternatenames":"","latitude":"52.7","longitude":"11.03333","feature_class":"P","feature_code":"PPLA4","country_code":"DE","cc2":"","admin1_code":"14","admin2_code":"00","admin3_code":"15081","admin4_code":"15081440","population":"613","elevation":"","dem":"38","timezone":"Europe/Berlin","modification_date":"2011-04-25"},{"geonameid":"2845653","name":"Rohrberg","asciiname":"Rohrberg","alternatenames":"","latitude":"51.41667","longitude":"10.01667","feature_class":"P","feature_code":"PPLA4","country_code":"DE","cc2":"","admin1_code":"15","admin2_code":"00","admin3_code":"16061","admin4_code":"16061078","population":"245","elevation":"","dem":"405","timezone":"Europe/Berlin","modification_date":"2011-04-25"},{"geonameid":"2845697","name":"Rohrbach","asciiname":"Rohrbach","alternatenames":"Rurbeke [a. 1250]","latitude":"51.06667","longitude":"11.4","feature_class":"P","feature_code":"PPLA4","country_code":"DE","cc2":"","admin1_code":"15","admin2_code":"00","admin3_code":"16071","admin4_code":"16071081","population":"228","elevation":"","dem":"250","timezone":"Europe/Berlin","modification_date":"2014-12-19"},{"geonameid":"2845699","name":"Rohrbach","asciiname":"Rohrbach","alternatenames":"","latitude":"50.6","longitude":"11.21667","feature_class":"P","feature_code":"PPLA4","country_code":"DE","cc2":"","admin1_code":"15","admin2_code":"00","admin3_code":"16073","admin4_code":"16073074","population":"0","elevation":"","dem":"469","timezone":"Europe/Berlin","modification_date":"2011-04-25"},{"geonameid":"2845704","name":"Rohrbach","asciiname":"Rohrbach","alternatenames":"","latitude":"49.88333","longitude":"7.41667","feature_class":"P","feature_code":"PPLA4","country_code":"DE","cc2":"","admin1_code":"08","admin2_code":"00","admin3_code":"07140","admin4_code":"07140130","population":"195","elevation":"","dem":"422","timezone":"Europe/Berlin","modification_date":"2011-04-25"},{"geonameid":"2845707","name":"Rohrbach","asciiname":"Rohrbach","alternatenames":"Rorbakh,Рорбах","latitude":"49.58333","longitude":"7.26667","feature_class":"P","feature_code":"PPLA4","country_code":"DE","cc2":"","admin1_code":"08","admin2_code":"00","admin3_code":"07134","admin4_code":"07134073","population":"0","elevation":"","dem":"441","timezone":"Europe/Berlin","modification_date":"2011-04-25"},{"geonameid":"2845714","name":"Rohrbach","asciiname":"Rohrbach","alternatenames":"","latitude":"49.13667","longitude":"8.12861","feature_class":"P","feature_code":"PPLA4","country_code":"DE","cc2":"","admin1_code":"08","admin2_code":"00","admin3_code":"07337","admin4_code":"07337068","population":"1699","elevation":"","dem":"135","timezone":"Europe/Berlin","modification_date":"2011-04-25"},{"geonameid":"2845721","name":"Rohrbach","asciiname":"Rohrbach","alternatenames":"Rohrbach","latitude":"48.61667","longitude":"11.56667","feature_class":"P","feature_code":"PPLA4","country_code":"DE","cc2":"","admin1_code":"02","admin2_code":"091","admin3_code":"09186","admin4_code":"09186149","population":"0","elevation":"","dem":"426","timezone":"Europe/Berlin","modification_date":"2011-04-25"},{"geonameid":"2845723","name":"Rohrbach","asciiname":"Rohrbach","alternatenames":"","latitude":"48.28933","longitude":"12.55603","feature_class":"P","feature_code":"PPL","country_code":"DE","cc2":"","admin1_code":"02","admin2_code":"091","admin3_code":"09183","admin4_code":"09183116","population":"5513","elevation":"","dem":"412","timezone":"Europe/Berlin","modification_date":"2013-02-19"},{"geonameid":"2845744","name":"Rohr","asciiname":"Rohr","alternatenames":"","latitude":"50.58333","longitude":"10.5","feature_class":"P","feature_code":"PPLA4","country_code":"DE","cc2":"","admin1_code":"15","admin2_code":"00","admin3_code":"16066","admin4_code":"16066058","population":"1062","elevation":"","dem":"403","timezone":"Europe/Berlin","modification_date":"2011-04-25"},{"geonameid":"2845747","name":"Rohr","asciiname":"Rohr","alternatenames":"","latitude":"49.35","longitude":"10.88333","feature_class":"P","feature_code":"PPLA4","country_code":"DE","cc2":"","admin1_code":"02","admin2_code":"095","admin3_code":"09576","admin4_code":"09576142","population":"3372","elevation":"","dem":"394","timezone":"Europe/Berlin","modification_date":"2011-04-25"},{"geonameid":"2845750","name":"Rohr","asciiname":"Rohr","alternatenames":"Rohr","latitude":"48.76768","longitude":"11.97152","feature_class":"P","feature_code":"PPL","country_code":"DE","cc2":"","admin1_code":"02","admin2_code":"092","admin3_code":"09273","admin4_code":"09273165","population":"3357","elevation":"","dem":"425","timezone":"Europe/Berlin","modification_date":"2013-02-19"},{"geonameid":"2845805","name":"Röhl","asciiname":"Rohl","alternatenames":"","latitude":"49.93333","longitude":"6.58333","feature_class":"P","feature_code":"PPLA4","country_code":"DE","cc2":"","admin1_code":"08","admin2_code":"00","admin3_code":"07232","admin4_code":"07232111","population":"449","elevation":"","dem":"348","timezone":"Europe/Berlin","modification_date":"2011-04-25"},{"geonameid":"2845825","name":"Rögling","asciiname":"Rogling","alternatenames":"","latitude":"48.85","longitude":"10.95","feature_class":"P","feature_code":"PPLA4","country_code":"DE","cc2":"","admin1_code":"02","admin2_code":"097","admin3_code":"09779","admin4_code":"09779206","population":"669","elevation":"","dem":"533","timezone":"Europe/Berlin","modification_date":"2011-04-25"},{"geonameid":"2845840","name":"Roggentin","asciiname":"Roggentin","alternatenames":"","latitude":"54.0707","longitude":"12.20424","feature_class":"P","feature_code":"PPL","country_code":"DE","cc2":"","admin1_code":"12","admin2_code":"00","admin3_code":"13072","admin4_code":"13072087","population":"2348","elevation":"","dem":"33","timezone":"Europe/Berlin","modification_date":"2015-09-04"},{"geonameid":"2845858","name":"Roggendorf","asciiname":"Roggendorf","alternatenames":"","latitude":"53.69292","longitude":"11.0144","feature_class":"P","feature_code":"PPL","country_code":"DE","cc2":"","admin1_code":"12","admin2_code":"00","admin3_code":"13074","admin4_code":"13074068","population":"1029","elevation":"","dem":"59","timezone":"Europe/Berlin","modification_date":"2015-09-05"},{"geonameid":"2845863","name":"Roggenburg","asciiname":"Roggenburg","alternatenames":"","latitude":"48.27588","longitude":"10.23136","feature_class":"P","feature_code":"PPLA4","country_code":"DE","cc2":"","admin1_code":"02","admin2_code":"097","admin3_code":"09775","admin4_code":"09775149","population":"2642","elevation":"","dem":"553","timezone":"Europe/Berlin","modification_date":"2011-04-25"},{"geonameid":"2845885","name":"Rogätz","asciiname":"Rogatz","alternatenames":"Rogaetz,Rogatz,Rogec,Rogätz,luo ge ci,Рогец,罗格茨","latitude":"52.31667","longitude":"11.76667","feature_class":"P","feature_code":"PPLA4","country_code":"DE","cc2":"","admin1_code":"14","admin2_code":"00","admin3_code":"15083","admin4_code":"15083440","population":"2283","elevation":"","dem":"46","timezone":"Europe/Berlin","modification_date":"2015-03-04"},{"geonameid":"2845891","name":"Röfingen","asciiname":"Rofingen","alternatenames":"Refingen,Rjofingen,Roefingen,Ryofingen,Röfingen,Рефинген,Рефінген,Рёфинген,Ռյոֆինգեն","latitude":"48.42442","longitude":"10.44268","feature_class":"P","feature_code":"PPLA4","country_code":"DE","cc2":"","admin1_code":"02","admin2_code":"097","admin3_code":"09774","admin4_code":"09774178","population":"1179","elevation":"","dem":"465","timezone":"Europe/Berlin","modification_date":"2015-03-04"},{"geonameid":"2845894","name":"Roes","asciiname":"Roes","alternatenames":"","latitude":"50.24281","longitude":"7.25836","feature_class":"P","feature_code":"PPLA4","country_code":"DE","cc2":"","admin1_code":"08","admin2_code":"00","admin3_code":"07135","admin4_code":"07135075","population":"574","elevation":"","dem":"327","timezone":"Europe/Berlin","modification_date":"2011-04-25"},{"geonameid":"2845914","name":"Rodleben","asciiname":"Rodleben","alternatenames":"","latitude":"51.89607","longitude":"12.20061","feature_class":"P","feature_code":"PPL","country_code":"DE","cc2":"","admin1_code":"14","admin2_code":"00","admin3_code":"15001","admin4_code":"15001000","population":"1673","elevation":"","dem":"73","timezone":"Europe/Berlin","modification_date":"2015-09-04"},{"geonameid":"2845919","name":"Rödinghausen","asciiname":"Rodinghausen","alternatenames":"Redingkhauzen,Rjodingkhauzen,Roedinghausen,Rödinghausen,lei ding hao sen,Редингхаузен,Рёдингхаузен,勒丁豪森","latitude":"52.25","longitude":"8.48333","feature_class":"P","feature_code":"PPLA4","country_code":"DE","cc2":"","admin1_code":"07","admin2_code":"057","admin3_code":"05758","admin4_code":"05758028","population":"10101","elevation":"","dem":"135","timezone":"Europe/Berlin","modification_date":"2015-03-04"},{"geonameid":"2845924","name":"Roding","asciiname":"Roding","alternatenames":"Roding,luo ding ge,rdyng  alman,Родинг,ردینگ، آلمان,罗丁格","latitude":"49.19426","longitude":"12.51956","feature_class":"P","feature_code":"PPL","country_code":"DE","cc2":"","admin1_code":"02","admin2_code":"093","admin3_code":"09372","admin4_code":"09372153","population":"11406","elevation":"","dem":"380","timezone":"Europe/Berlin","modification_date":"2013-02-19"},{"geonameid":"2845953","name":"Rodewisch","asciiname":"Rodewisch","alternatenames":"Rodevisa,Rodevish,Rodeviša,Rodewisch,luo de wei shi,rwdhfysh,rwdysh,Родевиш,رودهفيش,رودیش,罗德维施","latitude":"50.53083","longitude":"12.41329","feature_class":"P","feature_code":"PPL","country_code":"DE","cc2":"","admin1_code":"13","admin2_code":"00","admin3_code":"14523","admin4_code":"14523360","population":"7577","elevation":"","dem":"434","timezone":"Europe/Berlin","modification_date":"2015-09-05"},{"geonameid":"2845968","name":"Rodershausen","asciiname":"Rodershausen","alternatenames":"","latitude":"49.98333","longitude":"6.2","feature_class":"P","feature_code":"PPLA4","country_code":"DE","cc2":"","admin1_code":"08","admin2_code":"00","admin3_code":"07232","admin4_code":"07232110","population":"202","elevation":"","dem":"487","timezone":"Europe/Berlin","modification_date":"2011-04-25"},{"geonameid":"2845982","name":"Rödern","asciiname":"Rodern","alternatenames":"","latitude":"49.95","longitude":"7.45","feature_class":"P","feature_code":"PPLA4","country_code":"DE","cc2":"","admin1_code":"08","admin2_code":"00","admin3_code":"07140","admin4_code":"07140129","population":"201","elevation":"","dem":"355","timezone":"Europe/Berlin","modification_date":"2011-04-25"},{"geonameid":"2846040","name":"Rodenberg","asciiname":"Rodenberg","alternatenames":"Rodenberg,luo deng bei ge,rdnbrg,rodenberuku,rwdnbrgh,Роденберг,ردنبرگ,رودنبرغ,ローデンベルク,罗登贝格","latitude":"52.31282","longitude":"9.35957","feature_class":"P","feature_code":"PPL","country_code":"DE","cc2":"","admin1_code":"06","admin2_code":"00","admin3_code":"03257","admin4_code":"03257032","population":"6258","elevation":"","dem":"69","timezone":"Europe/Berlin","modification_date":"2015-09-05"},{"geonameid":"2846048","name":"Rodenbek","asciiname":"Rodenbek","alternatenames":"Rodenbek","latitude":"54.28333","longitude":"10.01667","feature_class":"P","feature_code":"PPLA4","country_code":"DE","cc2":"","admin1_code":"10","admin2_code":"00","admin3_code":"01058","admin4_code":"01058138","population":"497","elevation":"","dem":"22","timezone":"Europe/Berlin","modification_date":"2011-04-25"},{"geonameid":"2846063","name":"Rodenbach","asciiname":"Rodenbach","alternatenames":"Rodenbach","latitude":"50.15","longitude":"9.03333","feature_class":"P","feature_code":"PPLA4","country_code":"DE","cc2":"","admin1_code":"05","admin2_code":"064","admin3_code":"06435","admin4_code":"06435023","population":"11344","elevation":"","dem":"127","timezone":"Europe/Berlin","modification_date":"2011-07-31"},{"geonameid":"2846066","name":"Rodenbach","asciiname":"Rodenbach","alternatenames":"","latitude":"49.57414","longitude":"8.10695","feature_class":"P","feature_code":"PPL","country_code":"DE","cc2":"","admin1_code":"08","admin2_code":"00","admin3_code":"07332","admin4_code":"07332012","population":"3485","elevation":"","dem":"173","timezone":"Europe/Berlin","modification_date":"2015-09-05"},{"geonameid":"2846067","name":"Rodenbach","asciiname":"Rodenbach","alternatenames":"","latitude":"49.46667","longitude":"7.65","feature_class":"P","feature_code":"PPLA4","country_code":"DE","cc2":"","admin1_code":"08","admin2_code":"00","admin3_code":"07335","admin4_code":"07335040","population":"0","elevation":"","dem":"224","timezone":"Europe/Berlin","modification_date":"2011-04-25"},{"geonameid":"2846069","name":"Rodenäs","asciiname":"Rodenas","alternatenames":"Rodenas,Rodenäs","latitude":"54.88333","longitude":"8.7","feature_class":"P","feature_code":"PPLA4","country_code":"DE","cc2":"","admin1_code":"10","admin2_code":"00","admin3_code":"01054","admin4_code":"01054110","population":"460","elevation":"","dem":"-2","timezone":"Europe/Berlin","modification_date":"2011-04-25"},{"geonameid":"2846072","name":"Roden","asciiname":"Roden","alternatenames":"","latitude":"49.89556","longitude":"9.62639","feature_class":"P","feature_code":"PPLA4","country_code":"DE","cc2":"","admin1_code":"02","admin2_code":"096","admin3_code":"09677","admin4_code":"09677178","population":"1089","elevation":"","dem":"253","timezone":"Europe/Berlin","modification_date":"2011-04-25"},{"geonameid":"2846084","name":"Rödelsee","asciiname":"Rodelsee","alternatenames":"Redel'ze,Redelze,Rjodel'zee,Ryodelzi,lei de er sai,Ределзе,Редельзе,Рёдельзее,Ռյոդելզի,勒德尔塞","latitude":"49.73333","longitude":"10.25","feature_class":"P","feature_code":"PPLA4","country_code":"DE","cc2":"","admin1_code":"02","admin2_code":"096","admin3_code":"09675","admin4_code":"09675161","population":"1536","elevation":"","dem":"249","timezone":"Europe/Berlin","modification_date":"2011-04-25"},{"geonameid":"2846089","name":"Rödelmaier","asciiname":"Rodelmaier","alternatenames":"Roedelmaier,Rödelmaier","latitude":"50.31667","longitude":"10.28333","feature_class":"P","feature_code":"PPLA4","country_code":"DE","cc2":"","admin1_code":"02","admin2_code":"096","admin3_code":"09673","admin4_code":"09673156","population":"947","elevation":"","dem":"338","timezone":"Europe/Berlin","modification_date":"2015-03-04"},{"geonameid":"2846093","name":"Rödelhausen","asciiname":"Rodelhausen","alternatenames":"","latitude":"50","longitude":"7.33333","feature_class":"P","feature_code":"PPLA4","country_code":"DE","cc2":"","admin1_code":"08","admin2_code":"00","admin3_code":"07140","admin4_code":"07140128","population":"172","elevation":"","dem":"454","timezone":"Europe/Berlin","modification_date":"2011-04-25"},{"geonameid":"2846158","name":"Rodalben","asciiname":"Rodalben","alternatenames":"Rodal'ben,Rodalben,luo da er ben,rdalbn,rodaruben,rwdalbn,Родалбен,Родальбен,ردآلبن,رودآلبن,ローダルベン,罗达尔本","latitude":"49.2394","longitude":"7.63962","feature_class":"P","feature_code":"PPL","country_code":"DE","cc2":"","admin1_code":"08","admin2_code":"00","admin3_code":"07340","admin4_code":"07340038","population":"7638","elevation":"","dem":"267","timezone":"Europe/Berlin","modification_date":"2015-09-05"},{"geonameid":"2846186","name":"Rockstedt","asciiname":"Rockstedt","alternatenames":"","latitude":"51.28506","longitude":"10.76184","feature_class":"P","feature_code":"PPLA4","country_code":"DE","cc2":"","admin1_code":"15","admin2_code":"00","admin3_code":"16065","admin4_code":"16065058","population":"263","elevation":"","dem":"231","timezone":"Europe/Berlin","modification_date":"2014-01-16"},{"geonameid":"2846203","name":"Röckingen","asciiname":"Rockingen","alternatenames":"Rekingen,Rekkingen,Rjokkingen,Ryokingen,lei jin gen,rekkingen,Рекинген,Реккінген,Рёккинген,Ռյոկինգեն,レッキンゲン,勒金根","latitude":"49.05","longitude":"10.56667","feature_class":"P","feature_code":"PPLA4","country_code":"DE","cc2":"","admin1_code":"02","admin2_code":"095","admin3_code":"09571","admin4_code":"09571192","population":"789","elevation":"","dem":"466","timezone":"Europe/Berlin","modification_date":"2011-04-25"},{"geonameid":"2846206","name":"Rockhausen","asciiname":"Rockhausen","alternatenames":"Rockhausen","latitude":"50.90152","longitude":"11.04079","feature_class":"P","feature_code":"PPLA4","country_code":"DE","cc2":"","admin1_code":"15","admin2_code":"00","admin3_code":"16070","admin4_code":"16070044","population":"277","elevation":"","dem":"295","timezone":"Europe/Berlin","modification_date":"2014-01-16"},{"geonameid":"2846209","name":"Rockeskyll","asciiname":"Rockeskyll","alternatenames":"","latitude":"50.25","longitude":"6.7","feature_class":"P","feature_code":"PPLA4","country_code":"DE","cc2":"","admin1_code":"08","admin2_code":"00","admin3_code":"07233","admin4_code":"07233058","population":"288","elevation":"","dem":"432","timezone":"Europe/Berlin","modification_date":"2011-04-25"},{"geonameid":"2846229","name":"Rockenhausen","asciiname":"Rockenhausen","alternatenames":"Rockenhausen,Roggehause,Rokenkhauzen,Rokkenkhauzen,luo ken hao sen,rwknhawzn,Рокенхаузен,Роккенхаузен,راکن‌هاوزن,روكنهاوزن,罗肯豪森","latitude":"49.62974","longitude":"7.82134","feature_class":"P","feature_code":"PPL","country_code":"DE","cc2":"","admin1_code":"08","admin2_code":"00","admin3_code":"07333","admin4_code":"07333502","population":"5744","elevation":"","dem":"204","timezone":"Europe/Berlin","modification_date":"2015-09-05"},{"geonameid":"2846235","name":"Rockenberg","asciiname":"Rockenberg","alternatenames":"Rokenberg,Rokkenberg,luo ken bei ge,rokkenberuku,Рокенберг,Роккенберг,ロッケンベルク,罗肯贝格","latitude":"50.4305","longitude":"8.73688","feature_class":"P","feature_code":"PPLA4","country_code":"DE","cc2":"","admin1_code":"05","admin2_code":"064","admin3_code":"06440","admin4_code":"06440022","population":"4075","elevation":"","dem":"164","timezone":"Europe/Berlin","modification_date":"2011-04-25"},{"geonameid":"2846261","name":"Rochlitz","asciiname":"Rochlitz","alternatenames":"Rochlica,Rochlitz,Rohlica,Rokhlic,luo li ci,rwkhlyts,rwshlyts,Рохлиц,روخليتس,روشلیتس,罗利茨","latitude":"51.05007","longitude":"12.79754","feature_class":"P","feature_code":"PPL","country_code":"DE","cc2":"","admin1_code":"13","admin2_code":"00","admin3_code":"14522","admin4_code":"14522490","population":"6847","elevation":"","dem":"167","timezone":"Europe/Berlin","modification_date":"2015-09-05"},{"geonameid":"2846267","name":"Rochau","asciiname":"Rochau","alternatenames":"Rochau","latitude":"52.71667","longitude":"11.75","feature_class":"P","feature_code":"PPLA4","country_code":"DE","cc2":"","admin1_code":"14","admin2_code":"00","admin3_code":"15090","admin4_code":"15090435","population":"715","elevation":"","dem":"37","timezone":"Europe/Berlin","modification_date":"2011-04-25"},{"geonameid":"2846274","name":"Röblingen am See","asciiname":"Roeblingen am See","alternatenames":"Roblingen,Roblingen am See,Roeblingen am See,Röblingen,Röblingen am See","latitude":"51.45944","longitude":"11.68231","feature_class":"P","feature_code":"PPL","country_code":"DE","cc2":"","admin1_code":"14","admin2_code":"00","admin3_code":"15087","admin4_code":"15087386","population":"3092","elevation":"","dem":"94","timezone":"Europe/Berlin","modification_date":"2015-09-05"},{"geonameid":"2846286","name":"Röbel","asciiname":"Roebel","alternatenames":"","latitude":"53.37555","longitude":"12.60372","feature_class":"P","feature_code":"PPL","country_code":"DE","cc2":"","admin1_code":"12","admin2_code":"00","admin3_code":"13071","admin4_code":"13071124","population":"5521","elevation":"","dem":"67","timezone":"Europe/Berlin","modification_date":"2015-09-05"},{"geonameid":"2846307","name":"Riveris","asciiname":"Riveris","alternatenames":"","latitude":"49.71667","longitude":"6.76667","feature_class":"P","feature_code":"PPLA4","country_code":"DE","cc2":"","admin1_code":"08","admin2_code":"00","admin3_code":"07235","admin4_code":"07235116","population":"395","elevation":"","dem":"336","timezone":"Europe/Berlin","modification_date":"2011-04-25"},{"geonameid":"2846308","name":"Rivenich","asciiname":"Rivenich","alternatenames":"","latitude":"49.88333","longitude":"6.85","feature_class":"P","feature_code":"PPLA4","country_code":"DE","cc2":"","admin1_code":"08","admin2_code":"00","admin3_code":"07231","admin4_code":"07231111","population":"736","elevation":"","dem":"137","timezone":"Europe/Berlin","modification_date":"2011-04-25"},{"geonameid":"2846333","name":"Ritzerau","asciiname":"Ritzerau","alternatenames":"Ritzerau","latitude":"53.66667","longitude":"10.56667","feature_class":"P","feature_code":"PPLA4","country_code":"DE","cc2":"","admin1_code":"10","admin2_code":"00","admin3_code":"01053","admin4_code":"01053101","population":"316","elevation":"","dem":"39","timezone":"Europe/Berlin","modification_date":"2011-04-25"},{"geonameid":"2846374","name":"Rittersheim","asciiname":"Rittersheim","alternatenames":"","latitude":"49.66472","longitude":"8.05833","feature_class":"P","feature_code":"PPLA4","country_code":"DE","cc2":"","admin1_code":"08","admin2_code":"00","admin3_code":"07333","admin4_code":"07333062","population":"202","elevation":"","dem":"218","timezone":"Europe/Berlin","modification_date":"2011-04-25"},{"geonameid":"2846378","name":"Rittersgrün","asciiname":"Rittersgruen","alternatenames":"Rittersgruen,Rittersgrun,Rittersgrün","latitude":"50.48031","longitude":"12.79336","feature_class":"P","feature_code":"PPL","country_code":"DE","cc2":"","admin1_code":"13","admin2_code":"00","admin3_code":"14521","admin4_code":"14521110","population":"1889","elevation":"","dem":"593","timezone":"Europe/Berlin","modification_date":"2015-09-05"},{"geonameid":"2846380","name":"Rittersdorf","asciiname":"Rittersdorf","alternatenames":"","latitude":"50.81667","longitude":"11.23333","feature_class":"P","feature_code":"PPLA4","country_code":"DE","cc2":"","admin1_code":"15","admin2_code":"00","admin3_code":"16071","admin4_code":"16071079","population":"268","elevation":"","dem":"448","timezone":"Europe/Berlin","modification_date":"2011-04-25"},{"geonameid":"2846381","name":"Rittersdorf","asciiname":"Rittersdorf","alternatenames":"","latitude":"50","longitude":"6.5","feature_class":"P","feature_code":"PPLA4","country_code":"DE","cc2":"","admin1_code":"08","admin2_code":"00","admin3_code":"07232","admin4_code":"07232109","population":"1307","elevation":"","dem":"291","timezone":"Europe/Berlin","modification_date":"2011-04-25"},{"geonameid":"2846398","name":"Ritterhude","asciiname":"Ritterhude","alternatenames":"Gemeen Hu'e,Gemeen Hu’e,Riterkhude,Ritterkhude,li te lu de,Ритерхуде,Риттерхуде,里特鲁德","latitude":"53.18289","longitude":"8.7355","feature_class":"P","feature_code":"PPLA4","country_code":"DE","cc2":"","admin1_code":"06","admin2_code":"00","admin3_code":"03356","admin4_code":"03356008","population":"14192","elevation":"","dem":"28","timezone":"Europe/Berlin","modification_date":"2011-07-31"},{"geonameid":"2846426","name":"Ritschenhausen","asciiname":"Ritschenhausen","alternatenames":"Ritschenhausen","latitude":"50.51018","longitude":"10.43233","feature_class":"P","feature_code":"PPLA4","country_code":"DE","cc2":"","admin1_code":"15","admin2_code":"00","admin3_code":"16066","admin4_code":"16066057","population":"380","elevation":"","dem":"312","timezone":"Europe/Berlin","modification_date":"2013-10-31"},{"geonameid":"2846500","name":"Rippershausen","asciiname":"Rippershausen","alternatenames":"Rippershausen","latitude":"50.6","longitude":"10.35","feature_class":"P","feature_code":"PPLA4","country_code":"DE","cc2":"","admin1_code":"15","admin2_code":"00","admin3_code":"16066","admin4_code":"16066056","population":"959","elevation":"","dem":"365","timezone":"Europe/Berlin","modification_date":"2011-04-25"},{"geonameid":"2846511","name":"Riol","asciiname":"Riol","alternatenames":"Riol","latitude":"49.8","longitude":"6.78333","feature_class":"P","feature_code":"PPLA4","country_code":"DE","cc2":"","admin1_code":"08","admin2_code":"00","admin3_code":"07235","admin4_code":"07235115","population":"1129","elevation":"","dem":"128","timezone":"Europe/Berlin","modification_date":"2011-04-25"},{"geonameid":"2846512","name":"Rinzenberg","asciiname":"Rinzenberg","alternatenames":"","latitude":"49.68333","longitude":"7.13333","feature_class":"P","feature_code":"PPLA4","country_code":"DE","cc2":"","admin1_code":"08","admin2_code":"00","admin3_code":"07134","admin4_code":"07134071","population":"310","elevation":"","dem":"610","timezone":"Europe/Berlin","modification_date":"2011-04-25"},{"geonameid":"2846523","name":"Rinteln","asciiname":"Rinteln","alternatenames":"Rintel'n,Rinteln,Stadt Rinteln,lin te er en,rinterun,ryntln,Ринтелн,Ринтельн,رينتلن,رینتلن,リンテルン,林特尔恩","latitude":"52.18604","longitude":"9.07917","feature_class":"P","feature_code":"PPL","country_code":"DE","cc2":"","admin1_code":"06","admin2_code":"00","admin3_code":"03257","admin4_code":"03257031","population":"27843","elevation":"","dem":"60","timezone":"Europe/Berlin","modification_date":"2013-12-06"},{"geonameid":"2846534","name":"Rinnthal","asciiname":"Rinnthal","alternatenames":"","latitude":"49.21667","longitude":"7.91667","feature_class":"P","feature_code":"PPLA4","country_code":"DE","cc2":"","admin1_code":"08","admin2_code":"00","admin3_code":"07337","admin4_code":"07337067","population":"659","elevation":"","dem":"223","timezone":"Europe/Berlin","modification_date":"2011-04-25"},{"geonameid":"2846582","name":"Ringstedt","asciiname":"Ringstedt","alternatenames":"","latitude":"53.56091","longitude":"8.84871","feature_class":"P","feature_code":"PPLA4","country_code":"DE","cc2":"","admin1_code":"06","admin2_code":"00","admin3_code":"03352","admin4_code":"03352062","population":"878","elevation":"","dem":"11","timezone":"Europe/Berlin","modification_date":"2015-11-29"},{"geonameid":"2846584","name":"Ringsheim","asciiname":"Ringsheim","alternatenames":"Ringsgajm,Ringskhajm,ling si hai mu,Рингсхайм,Рингсхајм,Рінгсгайм,灵斯海姆","latitude":"48.24765","longitude":"7.77823","feature_class":"P","feature_code":"PPLA4","country_code":"DE","cc2":"","admin1_code":"01","admin2_code":"083","admin3_code":"08317","admin4_code":"08317113","population":"2112","elevation":"","dem":"171","timezone":"Europe/Berlin","modification_date":"2011-09-08"},{"geonameid":"2846590","name":"Ringsberg","asciiname":"Ringsberg","alternatenames":"Ringsberg","latitude":"54.80692","longitude":"9.5981","feature_class":"P","feature_code":"PPLA4","country_code":"DE","cc2":"","admin1_code":"10","admin2_code":"00","admin3_code":"01059","admin4_code":"01059157","population":"500","elevation":"","dem":"38","timezone":"Europe/Berlin","modification_date":"2014-01-01"},{"geonameid":"2846593","name":"Ringleben","asciiname":"Ringleben","alternatenames":"","latitude":"51.36667","longitude":"11.21667","feature_class":"P","feature_code":"PPLA4","country_code":"DE","cc2":"","admin1_code":"15","admin2_code":"00","admin3_code":"16065","admin4_code":"16065057","population":"1043","elevation":"","dem":"127","timezone":"Europe/Berlin","modification_date":"2011-04-25"},{"geonameid":"2846594","name":"Ringleben","asciiname":"Ringleben","alternatenames":"","latitude":"51.1","longitude":"10.95","feature_class":"P","feature_code":"PPLA4","country_code":"DE","cc2":"","admin1_code":"15","admin2_code":"00","admin3_code":"16068","admin4_code":"16068045","population":"587","elevation":"","dem":"149","timezone":"Europe/Berlin","modification_date":"2011-04-25"},{"geonameid":"2846658","name":"Ringelai","asciiname":"Ringelai","alternatenames":"Ringelaj,Ringelay,lin ge lai,rynglay,Рингелай,Рингелај,Рінгелай,Ռինգելայ,رینگلای,林格莱","latitude":"48.81336","longitude":"13.4713","feature_class":"P","feature_code":"PPLA4","country_code":"DE","cc2":"","admin1_code":"02","admin2_code":"092","admin3_code":"09272","admin4_code":"09272140","population":"2151","elevation":"","dem":"422","timezone":"Europe/Berlin","modification_date":"2012-12-11"},{"geonameid":"2846714","name":"Rinchnach","asciiname":"Rinchnach","alternatenames":"Rinkhnakh,Rinnakh,Rinxnax,lin xi na,rynsh nakh,Риннах,Ринхнах,Рінхнах,Ռինխնախ,رینش ناخ,林希纳","latitude":"48.94956","longitude":"13.20102","feature_class":"P","feature_code":"PPLA4","country_code":"DE","cc2":"","admin1_code":"02","admin2_code":"092","admin3_code":"09276","admin4_code":"09276139","population":"3348","elevation":"","dem":"566","timezone":"Europe/Berlin","modification_date":"2011-08-22"},{"geonameid":"2846715","name":"Rimsting","asciiname":"Rimsting","alternatenames":"Rimsting,li mu si ting ge,rymstyng,Римстинг,Рімстінг,Ռիմսթինգ,ریمستینگ,里姆斯廷格","latitude":"47.88078","longitude":"12.33713","feature_class":"P","feature_code":"PPLA4","country_code":"DE","cc2":"","admin1_code":"02","admin2_code":"091","admin3_code":"09187","admin4_code":"09187168","population":"3476","elevation":"","dem":"562","timezone":"Europe/Berlin","modification_date":"2011-04-25"},{"geonameid":"2846719","name":"Rimsberg","asciiname":"Rimsberg","alternatenames":"","latitude":"49.65","longitude":"7.21667","feature_class":"P","feature_code":"PPLA4","country_code":"DE","cc2":"","admin1_code":"08","admin2_code":"00","admin3_code":"07134","admin4_code":"07134070","population":"129","elevation":"","dem":"460","timezone":"Europe/Berlin","modification_date":"2011-04-25"},